header:
  stamp:
    sec: 1722521746
    nanosec: 9519382
  frame_id: map
child_frame_id: base_link
pose:
  pose:
    position:
      x: 0.9268375316574209
      y: -0.17945687798220752
      z: -1.6428454436758556e-17
    orientation:
      x: 1.0128561983094624e-11
      y: -9.619068213480093e-11
      z: 0.9937704171914747
      w: 0.111446659506161
  covariance:
  - 20.738798444638295
  - 2.172104557828147e-05
  - -2.0414990761022038e-16
  - -2.1796042671106725e-15
  - 2.5523831128921663e-16
  - 4.575146898822081e-08
  - 2.1721045578281462e-05
  - 20.73879364395942
  - 4.052028479070205e-15
  - 1.6401178750230848e-16
  - -8.493383822607708e-18
  - -5.04591678169627e-09
  - -2.0414990761022067e-16
  - 4.052028479070206e-15
  - 0.07534686704180965
  - 1.4758507476183271e-15
  - 2.055048897610745e-16
  - -1.1214137070304802e-15
  - -2.179604267110672e-15
  - 1.6401178750230845e-16
  - 1.4758507476183271e-15
  - 2.6211993775827345e-08
  - 4.44955393555824e-10
  - -1.3222450075915098e-08
  - 2.552383112892168e-16
  - -8.493383822607705e-18
  - 2.0550488976107454e-16
  - 4.449553935558242e-10
  - 2.6211997555432845e-08
  - 2.6624699232876286e-11
  - 4.5751468988220814e-08
  - -5.04591678169627e-09
  - -1.12141370703048e-15
  - -1.3222450075915098e-08
  - 2.6624699232876648e-11
  - 9.957545557489277
twist:
  twist:
    linear:
      x: -2.0325887438026086e-07
      y: 1.76578039817619e-06
      z: 1.533646468733576e-28
    angular:
      x: 6.171504110551252e-16
      y: 1.3887815098534677e-16
      z: -2.310432586619062e-06
  covariance:
  - 0.10015826023758523
  - -1.2753814594437086e-13
  - -5.668607848844393e-25
  - -4.0482364416347185e-26
  - -1.1304347420175017e-26
  - -4.968625283607011e-20
  - -1.2753814594410343e-13
  - 0.05167140123886495
  - 2.502857815182263e-24
  - -2.755345882015574e-27
  - -8.147249875283788e-28
  - -3.4833065481523186e-21
  - -5.668607848844395e-25
  - 2.502857815182264e-24
  - 0.009419239316703375
  - 7.983808809923009e-31
  - 1.113050131430076e-31
  - -4.860936926391092e-30
  - -4.04823644163472e-26
  - -2.7553458820155743e-27
  - 7.983808809923009e-31
  - 0.0282556962824351
  - 4.9773471876883214e-21
  - -1.2566603598628835e-18
  - -1.1304347420175026e-26
  - -8.14724987528378e-28
  - 1.1130501314300757e-31
  - 4.9773471876883244e-21
  - 0.0282556962824351
  - 7.983892862419301e-19
  - -4.968625283607013e-20
  - -3.483306548152318e-21
  - -4.860936926391089e-30
  - -1.2566603598628827e-18
  - 7.983892862419297e-19
  - 0.11466227065834213
---
header:
  stamp:
    sec: 1722521746
    nanosec: 105540036
  frame_id: map
child_frame_id: base_link
pose:
  pose:
    position:
      x: 0.9156324972937736
      y: -0.2631314533889476
      z: -2.5104138944809e-19
    orientation:
      x: 1.190069982708994e-11
      y: -8.276392232359504e-11
      z: 0.9882569678335871
      w: 0.1528010652069038
  covariance:
  - 9.6023135162821
  - -2.9779182461254402e-05
  - 6.393166032997778e-19
  - -3.5189728244413685e-15
  - -4.762113929459501e-16
  - 2.6262305930132546e-08
  - -2.9779182461254402e-05
  - 9.602213645539656
  - -7.114559557514174e-19
  - 7.197678207909769e-16
  - 9.739944974535536e-17
  - -5.603894118426677e-09
  - 6.393166032997777e-19
  - -7.11455955751417e-19
  - 9.998655104431528e-07
  - 4.9116473246684035e-21
  - 5.387835451120442e-22
  - -2.1737445421054444e-21
  - -3.5189728244413693e-15
  - 7.197678207909768e-16
  - 4.911647324668404e-21
  - 2.5035863212749582e-08
  - 2.86478553323722e-10
  - -1.0909198479511596e-08
  - -4.762113929459498e-16
  - 9.739944974535536e-17
  - 5.38783545112044e-22
  - 2.8647855332372216e-10
  - 2.5035867944460858e-08
  - -1.4762782505222813e-09
  - 2.6262305930132552e-08
  - -5.603894118426677e-09
  - -2.173744542105445e-21
  - -1.09091984795116e-08
  - -1.4762782505222802e-09
  - 9.602398646409721
twist:
  twist:
    linear:
      x: -2.5182100161031656e-09
      y: 4.1465929681620214e-08
      z: 7.601220792693342e-23
    angular:
      x: 5.329830805851297e-16
      y: 1.6266226750413154e-16
      z: -6.718821306411176e-07
  covariance:
  - 0.0009112479307309628
  - -1.9302381527686763e-16
  - -5.257542835896032e-26
  - 5.609470992364549e-28
  - -1.8605087986035421e-28
  - -1.6893903726737434e-20
  - -1.9302381527682032e-16
  - 0.0008473776247575521
  - 2.7646183248477822e-25
  - 1.0064829681188153e-28
  - -3.239639269936825e-29
  - -3.3453882013593787e-21
  - -5.257542835896032e-26
  - 2.7646183248477822e-25
  - 9.989261045062929e-07
  - 1.6102517362716915e-31
  - 1.76897239407497e-32
  - -1.5371902030871285e-33
  - 5.609470992364553e-28
  - 1.0064829681188153e-28
  - 1.6102517362716915e-31
  - 9.996415218358662e-07
  - 3.1810134482123927e-21
  - 2.749099273401173e-20
  - -1.8605087986035435e-28
  - -3.239639269936825e-29
  - 1.7689723940749695e-32
  - 3.181013448212394e-21
  - 9.99641521835866e-07
  - -2.1151683530453546e-19
  - -1.6893903726737452e-20
  - -3.345388201359383e-21
  - -1.5371902030871538e-33
  - 2.74909927340117e-20
  - -2.1151683530453541e-19
  - 0.013802149476354157
---
header:
  stamp:
    sec: 1722521746
    nanosec: 155892495
  frame_id: map
child_frame_id: base_link
pose:
  pose:
    position:
      x: 0.9048575590593407
      y: -0.30491130071078615
      z: -3.151398937568131e-23
    orientation:
      x: 1.0753272683161626e-11
      y: -6.896124689753052e-11
      z: 0.9828025590066913
      w: 0.18465949748090113
  covariance:
  - 5.035235711135079
  - 3.372080778543451e-05
  - 2.562580819500389e-22
  - -9.327871115177707e-17
  - -2.0955983228739025e-17
  - 2.0165370834841183e-08
  - 3.372080778543452e-05
  - 5.0352339219049735
  - 1.859168893741648e-21
  - 2.634446695509762e-17
  - 5.918636605770943e-18
  - -5.6818634203553915e-09
  - 2.56258081950039e-22
  - 1.8591688937416476e-21
  - 9.99900016445781e-07
  - 6.3444984756110696e-21
  - 6.7143102405082565e-22
  - -2.3425934395379163e-21
  - -9.327871115177704e-17
  - 2.6344466955097618e-17
  - 6.3444984756110696e-21
  - 2.2700077953351672e-08
  - 1.8355224210603144e-10
  - -8.151506368782778e-09
  - -2.0955983228739032e-17
  - 5.918636605770945e-18
  - 6.714310240508256e-22
  - 1.8355224210603162e-10
  - 2.2700081752930777e-08
  - -1.8313506346335118e-09
  - 2.016537083484118e-08
  - -5.681863420355391e-09
  - -2.3425934395379156e-21
  - -8.151506368782778e-09
  - -1.8313506346335118e-09
  - 5.03527323767673
twist:
  twist:
    linear:
      x: -2.8328738064205684e-09
      y: 4.88947916776096e-08
      z: 2.5401148145514263e-27
    angular:
      x: 4.384714786647685e-16
      y: 1.5530745849312746e-16
      z: -2.895357224943117e-07
  covariance:
  - 0.0009311551427210531
  - -1.3202076661387425e-16
  - -4.011828023646332e-26
  - 1.98557515316746e-27
  - 3.24846552201705e-29
  - -3.1787580310239493e-21
  - -1.3202076661372388e-16
  - 0.0008780380660638127
  - 1.8726952133239435e-25
  - 2.8671735225286744e-28
  - -2.4114763204969008e-30
  - -4.881391271643508e-22
  - -4.011828023646333e-26
  - 1.8726952133239435e-25
  - 9.99201249181354e-07
  - 2.085903035398239e-31
  - 2.2094799261412453e-32
  - -6.434000562860611e-33
  - 1.98557515316746e-27
  - 2.8671735225286713e-28
  - 2.0859030353982405e-31
  - 9.997334659863223e-07
  - 2.0383021207115242e-21
  - 1.1511590906673851e-20
  - 3.2484655220170073e-29
  - -2.4114763204970105e-30
  - 2.209479926141245e-32
  - 2.0383021207115246e-21
  - 9.997334659863223e-07
  - -8.75925413846703e-20
  - -3.1787580310239534e-21
  - -4.881391271643512e-22
  - -6.434000562860664e-33
  - 1.151159090667379e-20
  - -8.759254138467024e-20
  - 0.013967841479368616
---
header:
  stamp:
    sec: 1722521746
    nanosec: 204175727
  frame_id: map
child_frame_id: base_link
pose:
  pose:
    position:
      x: 0.904857557511819
      y: -0.3049113065347697
      z: -2.1327283310270543e-23
    orientation:
      x: 9.600526622955322e-12
      y: -6.182735709560258e-11
      z: 0.9828025587925295
      w: 0.18465949862072217
  covariance:
  - 9.86355948593241
  - 3.371004015840162e-05
  - 5.027898383095134e-24
  - -1.452625680261076e-16
  - -3.252134150792316e-17
  - 7.890297390417488e-08
  - 3.371004015840162e-05
  - 9.863557673249893
  - 1.578389597428551e-21
  - 4.1026936374229644e-17
  - 9.18518153598929e-18
  - -2.2264586210476e-08
  - 5.027898383095181e-24
  - 1.578389597428551e-21
  - 9.99874338972325e-07
  - 4.680777315408613e-21
  - 4.875164063700257e-22
  - -1.6874656727770716e-21
  - -1.4526256802610768e-16
  - 4.1026936374229626e-17
  - 4.6807773154086125e-21
  - 2.0802013763141723e-08
  - 1.4766365648972768e-10
  - -7.309954317000761e-09
  - -3.252134150792315e-17
  - 9.185181535989278e-18
  - 4.875164063700258e-22
  - 1.476636564897278e-10
  - 2.0802016823317e-08
  - -1.6365654349134969e-09
  - 7.890297390417488e-08
  - -2.226458621047599e-08
  - -1.6874656727770725e-21
  - -7.309954317000765e-09
  - -1.636565434913496e-09
  - 9.863610726716823
twist:
  twist:
    linear:
      x: -2.7140358386313084e-09
      y: 4.5825733741222876e-08
      z: 2.1284910133480475e-28
    angular:
      x: 3.9314395625295497e-16
      y: 1.3897014163731835e-16
      z: -1.7346303979609157e-08
  covariance:
  - 0.000916151966589471
  - -1.1853471293038887e-16
  - -4.236671115288e-26
  - 1.7060855678071796e-27
  - 2.650466294988453e-29
  - -1.8245121286786105e-22
  - -1.1853471293025382e-16
  - 0.0008546503339464346
  - 1.9311357996221574e-25
  - 2.409727351501136e-28
  - -2.232538295496765e-30
  - -2.7406505843412663e-23
  - -4.236671115287999e-26
  - 1.9311357996221577e-25
  - 9.98996476332032e-07
  - 1.5315859510175962e-31
  - 1.59696668930982e-32
  - 5.8298251074478994e-33
  - 1.7060855678071774e-27
  - 2.4097273515011363e-28
  - 1.5315859510175958e-31
  - 9.99665044182145e-07
  - 1.63961864430843e-21
  - 2.2627364191495223e-20
  - 2.6504662949884163e-29
  - -2.2325382954968587e-30
  - 1.5969666893098205e-32
  - 1.6396186443084317e-21
  - 9.996650441821453e-07
  - -6.686275449629282e-20
  - -1.824512128678613e-22
  - -2.740650584341268e-23
  - 5.829825107447895e-33
  - 2.262736419149521e-20
  - -6.686275449629281e-20
  - 0.012939394144122356
---
header:
  stamp:
    sec: 1722521746
    nanosec: 250068412
  frame_id: map
child_frame_id: base_link
pose:
  pose:
    position:
      x: 0.8935024032319264
      y: -0.3356972064087091
      z: -1.5118211397494285e-23
    orientation:
      x: 8.612436300869485e-12
      y: -5.0371752408236696e-11
      z: 0.9742363245640888
      w: 0.22552956325026505
  covariance:
  - 4.589258639455898
  - 3.391833333632867e-05
  - 3.442076085637794e-23
  - -3.9173970415055175e-17
  - -1.309016202266488e-17
  - 1.295530923847994e-08
  - 3.3918333336328696e-05
  - 4.589255390427918
  - 1.0468302521290426e-21
  - 1.477446358724755e-17
  - 4.936759085490463e-18
  - -4.880134966846715e-09
  - 3.4420760856378004e-23
  - 1.0468302521290426e-21
  - 9.9985747005567e-07
  - 3.797688378273276e-21
  - 3.8063331167117337e-22
  - -1.0987800673638218e-21
  - -3.917397041505519e-17
  - 1.477446358724756e-17
  - 3.797688378273276e-21
  - 1.8807904044479223e-08
  - 9.29606520785432e-11
  - -5.254637553972046e-09
  - -1.3090162022664877e-17
  - 4.936759085490462e-18
  - 3.8063331167117337e-22
  - 9.29606520785433e-11
  - 1.8807906470736372e-08
  - -1.755892137499387e-09
  - 1.2955309238479938e-08
  - -4.880134966846714e-09
  - -1.0987800673638207e-21
  - -5.254637553972044e-09
  - -1.7558921374993874e-09
  - 4.589291749062931
twist:
  twist:
    linear:
      x: -2.6349317345597646e-09
      y: 4.459414634591148e-08
      z: 1.5628525568775675e-28
    angular:
      x: 3.1409035590111056e-16
      y: 1.3162282351548787e-16
      z: -9.414845479195588e-08
  covariance:
  - 0.0009067609713877148
  - -1.0870228874615047e-16
  - -4.368601488071239e-26
  - 1.4733422943607373e-27
  - 2.2560469652998505e-29
  - -1.7390292554519523e-21
  - -1.087022887460261e-16
  - 0.0008403893631441964
  - 1.6494621024648845e-25
  - 2.044131589522574e-28
  - -1.945974240071942e-30
  - -2.1617436055447964e-22
  - -4.3686014880712376e-26
  - 1.6494621024648852e-25
  - 9.98862029798157e-07
  - 1.2370229950389113e-31
  - 1.2410905631613074e-32
  - 2.8941515037266225e-33
  - 1.4733422943607357e-27
  - 2.0441315895225716e-28
  - 1.2370229950389108e-31
  - 9.996201005761406e-07
  - 1.0321069356504705e-21
  - 1.6038005144672553e-20
  - 2.2560469652998183e-29
  - -1.9459742400720178e-30
  - 1.2410905631613072e-32
  - 1.032106935650472e-21
  - 9.996201005761406e-07
  - -4.8734237844516e-20
  - -1.739029255451951e-21
  - -2.1617436055447983e-22
  - 2.894151503726609e-33
  - 1.6038005144672538e-20
  - -4.873423784451601e-20
  - 0.012382673740414612
---
header:
  stamp:
    sec: 1722521746
    nanosec: 302785255
  frame_id: map
child_frame_id: base_link
pose:
  pose:
    position:
      x: 0.8935024012904624
      y: -0.3356972118385355
      z: -1.2598963917523324e-23
    orientation:
      x: 7.708566498643832e-12
      y: -4.518002804408092e-11
      z: 0.9742363244709151
      w: 0.22552956365275428
  covariance:
  - 9.860943482667325
  - 3.390871265342705e-05
  - 2.5756276619625162e-23
  - -7.242947265970762e-17
  - -2.4170664457698305e-17
  - 6.620427916924676e-08
  - 3.39087126534271e-05
  - 9.860940218679145
  - 9.453414701530556e-22
  - 2.7255042831604236e-17
  - 9.095189789205525e-18
  - -2.487425094972053e-08
  - 2.575627661962529e-23
  - 9.453414701530554e-22
  - 9.998522156403767e-07
  - 3.2568177598272094e-21
  - 3.2763328139682735e-22
  - -9.186437009696354e-22
  - -7.242947265970756e-17
  - 2.725504283160426e-17
  - 3.2568177598272094e-21
  - 1.7312459890914304e-08
  - 7.483045502566943e-11
  - -4.713676954894811e-09
  - -2.4170664457698298e-17
  - 9.095189789205523e-18
  - 3.276332813968273e-22
  - 7.483045502566952e-11
  - 1.7312461844553958e-08
  - -1.5730263685833736e-09
  - 6.620427916924675e-08
  - -2.487425094972054e-08
  - -9.186437009696356e-22
  - -4.713676954894812e-09
  - -1.5730263685833738e-09
  - 9.860989886623319
twist:
  twist:
    linear:
      x: -2.5513797597427436e-09
      y: 4.257000324929945e-08
      z: 1.2567469713797116e-28
    angular:
      x: 2.8173425501426277e-16
      y: 1.179471297924653e-16
      z: -3.8473885174076126e-09
  covariance:
  - 0.0009038801799495619
  - -1.0047881443490642e-16
  - -3.9940549857956555e-26
  - 1.2799180898676074e-27
  - 1.8957973282695242e-29
  - -6.881090081987134e-23
  - -1.0047881443479138e-16
  - 0.0008359955338327935
  - 1.4988476625948364e-25
  - 1.7507174081824092e-28
  - -1.7544160638821574e-30
  - -8.429796193094972e-24
  - -3.994054985795655e-26
  - 1.4988476625948362e-25
  - 9.988201645676323e-07
  - 1.0578578991537334e-31
  - 1.0652479208026268e-32
  - 4.542974178912944e-33
  - 1.2799180898676056e-27
  - 1.7507174081824083e-28
  - 1.0578578991537338e-31
  - 9.996061023438558e-07
  - 8.3076239786462905e-22
  - 1.7801315458120887e-20
  - 1.8957973282694962e-29
  - -1.7544160638822215e-30
  - 1.0652479208026266e-32
  - 8.307623978646297e-22
  - 9.996061023438556e-07
  - -4.28731748713273e-20
  - -6.881090081987123e-23
  - -8.429796193094978e-24
  - 4.542974178912943e-33
  - 1.7801315458120884e-20
  - -4.287317487132732e-20
  - 0.012181400842078598
---
header:
  stamp:
    sec: 1722521746
    nanosec: 357776387
  frame_id: map
child_frame_id: base_link
pose:
  pose:
    position:
      x: 0.875852166001057
      y: -0.37541956221548983
      z: -1.0680872802989989e-23
    orientation:
      x: 6.649317023920688e-12
      y: -3.8208349298809186e-11
      z: 0.9640437082726921
      w: 0.2657437271881246
  covariance:
  - 5.499102872074083
  - 3.435691648037765e-05
  - 5.480750292265481e-23
  - -2.9406495870413354e-17
  - -1.309875332854031e-17
  - 1.8135942368174288e-08
  - 3.435691648037763e-05
  - 5.499100099927565
  - 7.98520776814018e-22
  - 1.3935425040052572e-17
  - 6.207237832320839e-18
  - -8.584192002700297e-09
  - 5.4807502922655e-23
  - 7.985207768140179e-22
  - 9.998570279552397e-07
  - 3.0181696906323412e-21
  - 2.9908499742288737e-22
  - -7.151288403269149e-22
  - -2.940649587041333e-17
  - 1.3935425040052547e-17
  - 3.0181696906323412e-21
  - 1.58579948864406e-08
  - 4.5311822111346784e-11
  - -3.586578759069598e-09
  - -1.3098753328540315e-17
  - 6.207237832320841e-18
  - 2.990849974228874e-22
  - 4.531182211134686e-11
  - 1.5857996441202205e-08
  - -1.597614121303323e-09
  - 1.813594236817428e-08
  - -8.584192002700299e-09
  - -7.151288403269153e-22
  - -3.5865787590695998e-09
  - -1.5976141213033225e-09
  - 5.499138833054464
twist:
  twist:
    linear:
      x: -2.5165509095643745e-09
      y: 4.216046551649199e-08
      z: 1.0656685748391192e-28
    angular:
      x: 2.3369279545059567e-16
      y: 1.1038257306834792e-16
      z: -4.960344524950552e-08
  covariance:
  - 0.0009065161519092123
  - -9.411445049551244e-17
  - -3.6585300573637235e-26
  - 1.1137608894617087e-27
  - 1.6618565203651163e-29
  - -6.562505686210296e-22
  - -9.411445049540592e-17
  - 0.0008400160262702749
  - 1.2250752896872122e-25
  - 1.5065663592914758e-28
  - -1.5011750149062526e-30
  - -8.053496621522688e-23
  - -3.658530057363722e-26
  - 1.2250752896872117e-25
  - 9.988585070668318e-07
  - 9.79216029518144e-32
  - 9.710336497029539e-33
  - 3.932667633267143e-33
  - 1.1137608894617081e-27
  - 1.5065663592914749e-28
  - 9.792160295181439e-32
  - 9.996189227620615e-07
  - 5.030765563210783e-22
  - 1.6076814083689007e-20
  - 1.6618565203650927e-29
  - -1.5011750149063078e-30
  - 9.71033649702954e-33
  - 5.030765563210793e-22
  - 9.996189227620615e-07
  - -3.636173798551889e-20
  - -6.562505686210294e-22
  - -8.053496621522669e-23
  - 3.9326676332671414e-33
  - 1.6076814083689e-20
  - -3.6361737985518903e-20
  - 0.012388800069402725
---
header:
  stamp:
    sec: 1722521746
    nanosec: 403856412
  frame_id: map
child_frame_id: base_link
pose:
  pose:
    position:
      x: 0.8758521639117082
      y: -0.37541956682854527
      z: -9.693480325550496e-24
    orientation:
      x: 6.146903144342017e-12
      y: -3.5350163508447705e-11
      z: 0.9640437082096793
      w: 0.2657437274167175
  covariance:
  - 10.107105880296182
  - 3.434554376998807e-05
  - 4.801703372899299e-23
  - -4.920860961546839e-17
  - -2.1911215474014403e-17
  - 6.614182145322841e-08
  - 3.434554376998806e-05
  - 10.10710309587377
  - 7.794892720145977e-22
  - 2.3272115578849845e-17
  - 1.0362309055884342e-17
  - -3.1234813179813625e-08
  - 4.801703372899296e-23
  - 7.794892720145975e-22
  - 9.998595982810459e-07
  - 2.795626466010944e-21
  - 2.802123938876622e-22
  - -6.4490446784452025e-22
  - -4.9208609615468365e-17
  - 2.3272115578849823e-17
  - 2.7956264660109453e-21
  - 1.5086275653611966e-08
  - 3.879707868092897e-11
  - -3.318437269235608e-09
  - -2.191121547401443e-17
  - 1.0362309055884353e-17
  - 2.8021239388766224e-22
  - 3.879707868092906e-11
  - 1.5086276984999764e-08
  - -1.477613655866674e-09
  - 6.614182145322841e-08
  - -3.123481317981362e-08
  - -6.449044678445205e-22
  - -3.3184372692356103e-09
  - -1.477613655866673e-09
  - 10.107154035125093
twist:
  twist:
    linear:
      x: -2.4571210994133906e-09
      y: 4.075745949818208e-08
      z: 9.669062013039731e-29
    angular:
      x: 2.1621288807795016e-16
      y: 1.0209055225507549e-16
      z: -3.2605666045851562e-09
  covariance:
  - 0.0009078466552547649
  - -8.883411664849528e-17
  - -3.3099196791291507e-26
  - 1.0062121963236296e-27
  - 1.4802849055024225e-29
  - -4.2118304662084286e-23
  - -8.883411664839477e-17
  - 0.0008417965354784535
  - 1.1066288333715839e-25
  - 1.3476272894814435e-28
  - -1.3710772214316105e-30
  - -5.1172425877178425e-24
  - -3.3099196791291507e-26
  - 1.1066288333715834e-25
  - 9.988789882583515e-07
  - 9.06092082543623e-32
  - 9.087749830603246e-33
  - 4.067307643483403e-33
  - 1.0062121963236287e-27
  - 1.347627289481443e-28
  - 9.06092082543623e-32
  - 9.996257704918358e-07
  - 4.307153044932032e-22
  - 1.5809540553737228e-20
  - 1.4802849055024018e-29
  - -1.3710772214316597e-30
  - 9.087749830603246e-33
  - 4.307153044932041e-22
  - 9.996257704918358e-07
  - -3.361345755883581e-20
  - -4.2118304662084245e-23
  - -5.117242587717826e-24
  - 4.067307643483402e-33
  - 1.5809540553737224e-20
  - -3.3613457558835787e-20
  - 0.012336316531245815
---
header:
  stamp:
    sec: 1722521746
    nanosec: 453759973
  frame_id: map
child_frame_id: base_link
pose:
  pose:
    position:
      x: 0.8555482700930161
      y: -0.4128252166213405
      z: -8.995829825792249e-24
    orientation:
      x: 5.365138363022784e-12
      y: -3.1564921570484783e-11
      z: 0.952141613168387
      w: 0.3056572401777875
  covariance:
  - 4.990345964548976
  - 3.374284155402292e-05
  - 8.013935561453828e-23
  - -1.9872816890338948e-17
  - -1.1179949090542693e-17
  - 1.406062099779957e-08
  - 3.3742841554022916e-05
  - 4.990344313406401
  - 7.121333509355838e-22
  - 1.1495484085200995e-17
  - 6.466905992701069e-18
  - -8.123858526359531e-09
  - 8.013935561453816e-23
  - 7.121333509355839e-22
  - 9.99868696995233e-07
  - 2.754329960087733e-21
  - 2.739395915186722e-22
  - -5.592372221442925e-22
  - -1.9872816890338945e-17
  - 1.1495484085200992e-17
  - 2.7543299600877336e-21
  - 1.4249469174095588e-08
  - 2.2420772042280017e-11
  - -2.725183313906552e-09
  - -1.1179949090542688e-17
  - 6.4669059927010645e-18
  - 2.7393959151867215e-22
  - 2.2420772042280095e-11
  - 1.4249470293532361e-08
  - -1.5331556286217528e-09
  - 1.4060620997799573e-08
  - -8.12385852635953e-09
  - -5.592372221442925e-22
  - -2.725183313906552e-09
  - -1.5331556286217528e-09
  - 4.990381127744951
twist:
  twist:
    linear:
      x: -2.442214791998482e-09
      y: 4.0772130096284496e-08
      z: 9.306074807299468e-29
    angular:
      x: 1.8935301526573498e-16
      y: 9.833737470163856e-17
      z: -7.657012854369282e-08
  covariance:
  - 0.0009128911953570257
  - -8.435236796194798e-17
  - -3.038234743044578e-26
  - 9.051343862647843e-28
  - 1.413734909294809e-29
  - -1.09344078035038e-21
  - -8.43523679618524e-17
  - 0.0008494444382363786
  - 9.32705711592587e-26
  - 1.202378573098419e-28
  - -1.1177957559603358e-30
  - -1.3653379519719545e-22
  - -3.0382347430445786e-26
  - 9.32705711592587e-26
  - 9.989515021442662e-07
  - 8.93053239274139e-32
  - 8.8854516163047e-33
  - 3.874311297475237e-33
  - 9.051343862647845e-28
  - 1.2023785730984184e-28
  - 8.930532392741389e-32
  - 9.99650011778461e-07
  - 2.4892067105124493e-22
  - 1.5291832630464956e-20
  - 1.4137349092947905e-29
  - -1.11779575596038e-30
  - 8.8854516163047e-33
  - 2.4892067105124578e-22
  - 9.996500117784607e-07
  - -3.089484901807482e-20
  - -1.0934407803503813e-21
  - -1.365337951971953e-22
  - 3.8743112974752276e-33
  - 1.529183263046494e-20
  - -3.089484901807482e-20
  - 0.012715143178211055
---
header:
  stamp:
    sec: 1722521746
    nanosec: 504729872
  frame_id: map
child_frame_id: base_link
pose:
  pose:
    position:
      x: 0.8555482672358234
      y: -0.41282522175598335
      z: -9.196499662887044e-24
    orientation:
      x: 4.998438808993265e-12
      y: -2.941784965199268e-11
      z: 0.9521416130426855
      w: 0.30565724056935545
  covariance:
  - 10.087336482754393
  - 3.372691969923462e-05
  - 8.371218974984447e-23
  - -3.681072032748391e-17
  - -2.070642771008132e-17
  - 6.420041759031919e-08
  - 3.372691969923461e-05
  - 10.087334820765346
  - 8.072687344243385e-22
  - 2.1248079936410558e-17
  - 1.1952120994252263e-17
  - -3.7002611223183926e-08
  - 8.371218974984459e-23
  - 8.072687344243387e-22
  - 9.99886017907664e-07
  - 2.849364597071993e-21
  - 2.8975816009713915e-22
  - -5.594331391871956e-22
  - -3.681072032748389e-17
  - 2.1248079936410558e-17
  - 2.849364597071993e-21
  - 1.3784218464115302e-08
  - 1.947731583981917e-11
  - -2.5398585365278333e-09
  - -2.0706427710081317e-17
  - 1.1952120994252261e-17
  - 2.897581600971391e-22
  - 1.9477315839819258e-11
  - 1.3784219436725464e-08
  - -1.4287116013057387e-09
  - 6.420041759031919e-08
  - -3.700261122318394e-08
  - -5.594331391871957e-22
  - -2.5398585365278338e-09
  - -1.4287116013057375e-09
  - 10.087386309229736
twist:
  twist:
    linear:
      x: -2.400391309656287e-09
      y: 3.988190704595291e-08
      z: 9.176321694609236e-29
    angular:
      x: 1.7648041466494874e-16
      y: 9.163861586753891e-17
      z: -4.440635224082084e-09
  covariance:
  - 0.0009227696310027481
  - -8.109841648487397e-17
  - -2.5452085835278896e-26
  - 8.29198815629555e-28
  - 1.286463174418418e-29
  - -6.232646395750645e-23
  - -8.109841648478209e-17
  - 0.0008645740399625961
  - 7.930883380933805e-26
  - 1.0962408001884895e-28
  - -1.0306475580330405e-30
  - -7.742829922955173e-24
  - -2.545208583527889e-26
  - 7.930883380933801e-26
  - 9.990895951977802e-07
  - 9.263777186744828e-32
  - 9.423327160776231e-33
  - 4.191687870215085e-33
  - 8.29198815629555e-28
  - 1.0962408001884888e-28
  - 9.263777186744829e-32
  - 9.996961631484289e-07
  - 2.1625046666802773e-22
  - 1.549944162638854e-20
  - 1.2864631744184e-29
  - -1.0306475580330812e-30
  - 9.423327160776225e-33
  - 2.1625046666802867e-22
  - 9.996961631484289e-07
  - -2.992396405321337e-20
  - -6.232646395750651e-23
  - -7.742829922955165e-24
  - 4.1916878702150864e-33
  - 1.5499441626388543e-20
  - -2.9923964053213385e-20
  - 0.013138638037283847
---
header:
  stamp:
    sec: 1722521746
    nanosec: 552466265
  frame_id: map
child_frame_id: base_link
pose:
  pose:
    position:
      x: 0.8327958986572246
      y: -0.4475270150364528
      z: -7.617516635855153e-24
    orientation:
      x: 4.434206487099344e-12
      y: -2.6940883757599587e-11
      z: 0.9385574417391971
      w: 0.3451230629152066
  covariance:
  - 4.773629039773872
  - 3.395781127202293e-05
  - 1.0139023317898262e-22
  - -1.3218313970784625e-17
  - -9.137804721380513e-18
  - 1.1451560018362166e-08
  - 3.395781127202294e-05
  - 4.773627160591439
  - 6.36396941302795e-22
  - 9.197056337311344e-18
  - 6.357932268264395e-18
  - -7.951093833688948e-09
  - 1.0139023317898262e-22
  - 6.363969413027948e-22
  - 9.99875618894932e-07
  - 2.529539077517897e-21
  - 2.5178473255666556e-22
  - -4.532931620520996e-22
  - -1.3218313970784627e-17
  - 9.197056337311341e-18
  - 2.529539077517897e-21
  - 1.3099643554213886e-08
  - 8.604110793934607e-12
  - -2.180474180064008e-09
  - -9.13780472138052e-18
  - 6.357932268264396e-18
  - 2.5178473255666566e-22
  - 8.604110793934693e-12
  - 1.3099644383309556e-08
  - -1.5073480863072215e-09
  - 1.1451560018362166e-08
  - -7.951093833688948e-09
  - -4.532931620520996e-22
  - -2.1804741800640077e-09
  - -1.507348086307221e-09
  - 4.773663449950351
twist:
  twist:
    linear:
      x: -2.36454421070271e-09
      y: 3.9329300458055854e-08
      z: 7.906048270653241e-29
    angular:
      x: 1.5831072163436626e-16
      y: 8.969897915667102e-17
      z: -8.731466116549394e-08
  covariance:
  - 0.0009168231519386202
  - -7.483030446705456e-17
  - -2.6715366918874314e-26
  - 7.435630948918123e-28
  - 1.2840131110843857e-29
  - -1.3555718854022986e-21
  - -7.483030446697278e-17
  - 0.0008555146323399715
  - 7.579544462013973e-26
  - 9.682898406120307e-29
  - -7.374722515941745e-31
  - -1.7240310635833702e-22
  - -2.671536691887429e-26
  - 7.579544462013974e-26
  - 9.990066798825089e-07
  - 8.196757303952285e-32
  - 8.160168471505944e-33
  - 3.660416337498912e-33
  - 7.4356309489181215e-28
  - 9.682898406120304e-29
  - 8.196757303952285e-32
  - 9.99668454463424e-07
  - 9.55312056924055e-23
  - 1.4250042791346903e-20
  - 1.284013111084369e-29
  - -7.374722515942119e-31
  - 8.160168471505944e-33
  - 9.55312056924064e-23
  - 9.99668454463424e-07
  - -2.5626118496020178e-20
  - -1.355571885402299e-21
  - -1.7240310635833575e-22
  - 3.660416337498913e-33
  - 1.42500427913469e-20
  - -2.5626118496020178e-20
  - 0.01288361256277528
---
header:
  stamp:
    sec: 1722521746
    nanosec: 604621321
  frame_id: map
child_frame_id: base_link
pose:
  pose:
    position:
      x: 0.8327958959534902
      y: -0.44752701907159637
      z: -5.590733245027498e-24
    orientation:
      x: 4.103962069069119e-12
      y: -2.4938630633691336e-11
      z: 0.9385574416138318
      w: 0.3451230632561358
  covariance:
  - 9.98913516811291
  - 3.3946017888153507e-05
  - 7.837770409974637e-23
  - -2.4130129195994643e-17
  - -1.6680490420818055e-17
  - 5.211315512312894e-08
  - 3.394601788815354e-05
  - 9.989133285092013
  - 5.047405124683432e-22
  - 1.6770795758642585e-17
  - 1.1593204851000755e-17
  - -3.61773855157778e-08
  - 7.837770409974641e-23
  - 5.047405124683433e-22
  - 9.998464456637998e-07
  - 1.9979529472403562e-21
  - 1.969418463835563e-22
  - -3.445814978228186e-22
  - -2.4130129195994668e-17
  - 1.6770795758642597e-17
  - 1.997952947240356e-21
  - 1.2561310350912082e-08
  - 7.373069221599265e-12
  - -2.0184027424076206e-09
  - -1.668049042081807e-17
  - 1.1593204851000767e-17
  - 1.9694184638355627e-22
  - 7.373069221599346e-12
  - 1.2561311061436333e-08
  - -1.3952578915069995e-09
  - 5.211315512312895e-08
  - -3.617738551577777e-08
  - -3.4458149782281877e-22
  - -2.0184027424076223e-09
  - -1.3952578915069997e-09
  - 9.989182766766639
twist:
  twist:
    linear:
      x: -2.2577703720569975e-09
      y: 3.671959217671514e-08
      z: 5.578072664538849e-29
    angular:
      x: 1.465448229643049e-16
      y: 8.302778320432928e-17
      z: -3.5691691186137497e-09
  covariance:
  - 0.0009009004456151041
  - -6.671090057293731e-17
  - -2.9046468665230515e-26
  - 6.572315920865438e-28
  - 1.1317885820823041e-29
  - -5.290875226693531e-23
  - -6.671090057286443e-17
  - 0.0008318799161075802
  - 8.053714101214529e-26
  - 8.368743312905243e-29
  - -6.414593326914065e-31
  - -6.577429919202841e-24
  - -2.904646866523052e-26
  - 8.053714101214531e-26
  - 9.987741989232207e-07
  - 6.425430096629764e-32
  - 6.335009459428015e-33
  - 3.0065647740347683e-33
  - 6.572315920865438e-28
  - 8.368743312905245e-29
  - 6.425430096629762e-32
  - 9.995907311847333e-07
  - 8.186199420418918e-23
  - 1.264352340050106e-20
  - 1.1317885820822892e-29
  - -6.414593326914379e-31
  - 6.335009459428016e-33
  - 8.186199420419005e-23
  - 9.995907311847333e-07
  - -2.2333048563921698e-20
  - -5.2908752266935334e-23
  - -6.577429919202787e-24
  - 3.0065647740347714e-33
  - 1.2643523400501057e-20
  - -2.2333048563921692e-20
  - 0.012164418653894598
---
header:
  stamp:
    sec: 1722521746
    nanosec: 654243621
  frame_id: map
child_frame_id: base_link
pose:
  pose:
    position:
      x: 0.8062704940536201
      y: -0.48135858904533957
      z: -6.49466983080072e-24
    orientation:
      x: 3.719821354772213e-12
      y: -2.3194019611463217e-11
      z: 0.9232970108065984
      w: 0.38408674780002494
  covariance:
  - 4.962219738785641
  - 3.471223595012409e-05
  - 1.1705323275200711e-22
  - -1.0378789858037548e-17
  - -8.684420676434938e-18
  - 1.1427317413794596e-08
  - 3.471223595012406e-05
  - 4.96221634470268
  - 5.757201487829891e-22
  - 8.5717138886399e-18
  - 7.172198507656181e-18
  - -9.422832091255727e-09
  - 1.1705323275200704e-22
  - 5.757201487829892e-22
  - 9.998826716982674e-07
  - 2.323407191617044e-21
  - 2.3290774633620337e-22
  - -3.7203145974501056e-22
  - -1.0378789858037546e-17
  - 8.571713888639905e-18
  - 2.3234071916170437e-21
  - 1.2099992738794203e-08
  - -8.852464209716705e-14
  - -1.770780820528209e-09
  - -8.684420676434938e-18
  - 7.172198507656186e-18
  - 2.329077463362034e-22
  - -8.852464209709461e-14
  - 1.2099993351783674e-08
  - -1.4817689249652512e-09
  - 1.14273174137946e-08
  - -9.422832091255727e-09
  - -3.7203145974501066e-22
  - -1.7707808205282095e-09
  - -1.4817689249652516e-09
  - 4.962254852042219
twist:
  twist:
    linear:
      x: -2.2829734942497922e-09
      y: 3.780173397875853e-08
      z: 6.679648896396436e-29
    angular:
      x: 1.331893997322274e-16
      y: 8.225519126066844e-17
      z: -7.799477294077481e-08
  covariance:
  - 0.0009208234156172861
  - -6.611756588229433e-17
  - -2.3291829609083172e-26
  - 6.090875150307138e-28
  - 1.1546461780162235e-29
  - -9.48057541654449e-22
  - -6.611756588221877e-17
  - 0.0008615470632695148
  - 6.083247652688342e-26
  - 7.769736741823263e-29
  - -4.563132974788568e-31
  - -1.203765558830291e-22
  - -2.3291829609083178e-26
  - 6.083247652688345e-26
  - 9.99062911928146e-07
  - 7.523626090768053e-32
  - 7.541809397352346e-33
  - 3.460924156135739e-33
  - 6.090875150307138e-28
  - 7.769736741823265e-29
  - 7.523626090768051e-32
  - 9.996872467970938e-07
  - -9.828469075554636e-25
  - 1.3410109955037984e-20
  - 1.1546461780162102e-29
  - -4.563132974788845e-31
  - 7.541809397352342e-33
  - -9.828469075546587e-25
  - 9.996872467970938e-07
  - -2.1757392406147622e-20
  - -9.480575416544481e-22
  - -1.2037655588302996e-22
  - 3.460924156135738e-33
  - 1.3410109955037983e-20
  - -2.1757392406147616e-20
  - 0.013047746889171132
---
header:
  stamp:
    sec: 1722521746
    nanosec: 706545182
  frame_id: map
child_frame_id: base_link
pose:
  pose:
    position:
      x: 0.8062704911472588
      y: -0.48135859269067344
      z: -4.534424111181061e-24
    orientation:
      x: 3.46257735433927e-12
      y: -2.1588989123598882e-11
      z: 0.9232970106763262
      w: 0.38408674811318333
  covariance:
  - 10.192376375098965
  - 3.4699545587291546e-05
  - 8.56804976851134e-23
  - -1.8439826813238746e-17
  - -1.54298582889998e-17
  - 4.895162248944976e-08
  - 3.469954558729152e-05
  - 10.192372981170188
  - 4.313469267730994e-22
  - 1.5221587223757343e-17
  - 1.2736793248520174e-17
  - -4.038280833420585e-08
  - 8.568049768511342e-23
  - 4.313469267730993e-22
  - 9.998463553690047e-07
  - 1.7661280515744495e-21
  - 1.748011692232367e-22
  - -2.70887855476231e-22
  - -1.8439826813238752e-17
  - 1.5221587223757346e-17
  - 1.7661280515744502e-21
  - 1.1702450960248902e-08
  - -7.669774620067439e-14
  - -1.6482545574649539e-09
  - -1.5429858288999794e-17
  - 1.2736793248520173e-17
  - 1.748011692232368e-22
  - -7.669774620061171e-14
  - 1.1702451491342461e-08
  - -1.3792398196565036e-09
  - 4.895162248944976e-08
  - -4.038280833420585e-08
  - -2.7088785547623097e-22
  - -1.6482545574649537e-09
  - -1.3792398196565036e-09
  - 10.192424883821435
twist:
  twist:
    linear:
      x: -2.169918896602274e-09
      y: 3.50235264968806e-08
      z: 4.522846285348006e-29
    angular:
      x: 1.2396850974105078e-16
      y: 7.65617807578052e-17
      z: -3.152896036490785e-09
  covariance:
  - 0.0009007565458331542
  - -5.822541235138238e-17
  - -2.6515836026540115e-26
  - 5.38848478307163e-28
  - 1.0215188127286037e-29
  - -3.6426250287678454e-23
  - -5.822541235131587e-17
  - 0.0008314069375841815
  - 6.713229722005662e-26
  - 6.700435400603604e-29
  - -3.935354100721706e-31
  - -4.507022577126477e-24
  - -2.651583602654014e-26
  - 6.713229722005662e-26
  - 9.987734794439729e-07
  - 5.663874182074338e-32
  - 5.605706775202963e-33
  - 2.649473721592626e-33
  - 5.388484783071627e-28
  - 6.700435400603606e-29
  - 5.663874182074339e-32
  - 9.995904906378998e-07
  - -8.51479777228207e-25
  - 1.1502904436670874e-20
  - 1.0215188127285914e-29
  - -3.9353541007219477e-31
  - 5.605706775202963e-33
  - -8.514797772275111e-25
  - 9.995904906378998e-07
  - -1.862715948317414e-20
  - -3.6426250287678395e-23
  - -4.507022577126512e-24
  - 2.6494737215926248e-33
  - 1.1502904436670872e-20
  - -1.8627159483174134e-20
  - 0.012050972850321327
---
header:
  stamp:
    sec: 1722521746
    nanosec: 752973321
  frame_id: map
child_frame_id: base_link
pose:
  pose:
    position:
      x: 0.7765205755257404
      y: -0.5127013624786051
      z: -4.702681047770733e-24
    orientation:
      x: 3.277656801922968e-12
      y: -2.0505380246290417e-11
      z: 0.9066032197104721
      w: 0.4219841253063977
  covariance:
  - 4.642803888550684
  - 3.396385384962109e-05
  - 1.0598832770822679e-22
  - -6.989891885955229e-18
  - -7.035566129120772e-18
  - 8.01306563676872e-09
  - 3.396385384962111e-05
  - 4.642801849336719
  - 4.298027339083645e-22
  - 6.830953494084299e-18
  - 6.875377056455795e-18
  - -7.824567407502852e-09
  - 1.059883277082268e-22
  - 4.298027339083644e-22
  - 9.99863883366958e-07
  - 1.8538922800579892e-21
  - 1.826942204264381e-22
  - -2.7340066006270174e-22
  - -6.989891885955227e-18
  - 6.830953494084294e-18
  - 1.8538922800579892e-21
  - 1.127219933374155e-08
  - -5.662018552554944e-12
  - -1.5002546352202738e-09
  - -7.035566129120765e-18
  - 6.875377056455795e-18
  - 1.8269422042643823e-22
  - -5.662018552554889e-12
  - 1.127219979592355e-08
  - -1.510310912503712e-09
  - 8.01306563676872e-09
  - -7.82456740750285e-09
  - -2.7340066006270216e-22
  - -1.5002546352202754e-09
  - -1.5103109125037124e-09
  - 4.642837177082745
twist:
  twist:
    linear:
      x: -2.1654100532719947e-09
      y: 3.5579742690871566e-08
      z: 4.8264664048167457e-29
    angular:
      x: 1.146660352901557e-16
      y: 7.746360812800969e-17
      z: -8.050231074662961e-08
  covariance:
  - 0.000910197570715209
  - -5.62472182961099e-17
  - -2.4441813999089926e-26
  - 4.971001781292611e-28
  - 1.0619344604842278e-29
  - -1.0174160046415597e-21
  - -5.624721829604717e-17
  - 0.000845306118076171
  - 5.731875672150323e-26
  - 6.15440921363095e-29
  - -2.041575389644632e-31
  - -1.2930104058822566e-22
  - -2.4441813999089923e-26
  - 5.731875672150322e-26
  - 9.989131367294242e-07
  - 5.962737906326534e-32
  - 5.874956251411209e-33
  - 2.87749740297241e-33
  - 4.9710017812926115e-28
  - 6.154409213630947e-29
  - 5.962737906326531e-32
  - 9.99637186865886e-07
  - -6.28588329738078e-23
  - 1.1842812646628876e-20
  - 1.0619344604842168e-29
  - -2.0415753896448605e-31
  - 5.8749562514112085e-33
  - -6.285883297380719e-23
  - 9.99637186865886e-07
  - -1.7086546224609426e-20
  - -1.0174160046415589e-21
  - -1.2930104058822575e-22
  - 2.87749740297241e-33
  - 1.1842812646628872e-20
  - -1.7086546224609426e-20
  - 0.012414822156264113
---
header:
  stamp:
    sec: 1722521746
    nanosec: 807129633
  frame_id: map
child_frame_id: base_link
pose:
  pose:
    position:
      x: 0.7765205722364928
      y: -0.5127013659662459
      z: -3.8967486636943575e-24
    orientation:
      x: 3.0653557040479066e-12
      y: -1.9175599094754926e-11
      z: 0.9066032195571712
      w: 0.4219841256357538
  covariance:
  - 10.058435651084814
  - 3.395076272995971e-05
  - 9.709269090219601e-23
  - -1.3567973233489408e-17
  - -1.3657833763638565e-17
  - 4.246196304071426e-08
  - 3.395076272995972e-05
  - 10.058433616412021
  - 3.9730462900305205e-22
  - 1.323748702684098e-17
  - 1.3324960159337933e-17
  - -4.137892336868628e-08
  - 9.709269090219609e-23
  - 3.9730462900305196e-22
  - 9.998512491251286e-07
  - 1.6387965696511913e-21
  - 1.6150670714335557e-22
  - -2.3109458193536726e-22
  - -1.3567973233489399e-17
  - 1.3237487026840964e-17
  - 1.6387965696511913e-21
  - 1.1011541479015588e-08
  - -4.951045605057668e-12
  - -1.4029486969716206e-09
  - -1.3657833763638562e-17
  - 1.332496015933793e-17
  - 1.6150670714335557e-22
  - -4.951045605057622e-12
  - 1.1011541883128822e-08
  - -1.4123513442294247e-09
  - 4.246196304071426e-08
  - -4.137892336868627e-08
  - -2.310945819353674e-22
  - -1.402948696971622e-09
  - -1.4123513442294245e-09
  - 10.058482849862878
twist:
  twist:
    linear:
      x: -2.0863800210794786e-09
      y: 3.372406465490151e-08
      z: 3.8883201200926694e-29
    angular:
      x: 1.0723643837446409e-16
      y: 7.244690257030522e-17
      z: -3.1612087170444537e-09
  covariance:
  - 0.0009034708369501995
  - -5.136862052433287e-17
  - -2.4771965044517616e-26
  - 4.479056257367476e-28
  - 9.582624654561243e-30
  - -3.8493528429520374e-23
  - -5.1368620524275564e-17
  - 0.0008357007376580879
  - 5.790741976214868e-26
  - 5.455293610274105e-29
  - -1.7930260532385804e-31
  - -4.810688886399381e-24
  - -2.477196504451761e-26
  - 5.790741976214868e-26
  - 9.98812464657032e-07
  - 5.251979207553675e-32
  - 5.175113236232126e-33
  - 2.5909589704273237e-33
  - 4.479056257367471e-28
  - 5.4552936102741e-29
  - 5.251979207553674e-32
  - 9.9960352752238e-07
  - -5.497233835250655e-23
  - 1.1344864782791873e-20
  - 9.582624654561146e-30
  - -1.7930260532387854e-31
  - 5.1751132362321295e-33
  - -5.497233835250605e-23
  - 9.9960352752238e-07
  - -1.677681452242363e-20
  - -3.8493528429520356e-23
  - -4.8106888863993824e-24
  - 2.5909589704273243e-33
  - 1.1344864782791873e-20
  - -1.6776814522423627e-20
  - 0.012334808373357339
---
header:
  stamp:
    sec: 1722521746
    nanosec: 853302269
  frame_id: map
child_frame_id: base_link
pose:
  pose:
    position:
      x: 0.7461667922211132
      y: -0.5404443572644111
      z: -5.835601259923467e-24
    orientation:
      x: 3.087092181880023e-12
      y: -1.8667147733562e-11
      z: 0.8882129645075423
      w: 0.45943196414781956
  covariance:
  - 4.617254753114158
  - 3.1807484681714525e-05
  - 5.191426718474974e-22
  - -6.417789384654288e-18
  - -7.760146538640766e-18
  - 8.093392901792512e-09
  - 3.180748468171453e-05
  - 4.617255370276959
  - 1.938333573019892e-22
  - 7.374262959177427e-18
  - 8.916733634652999e-18
  - -9.283240422849359e-09
  - 5.191426718474974e-22
  - 1.9383335730198988e-22
  - 9.999084837407355e-07
  - 2.3139522768523045e-21
  - 2.3608164068054895e-22
  - -3.2006082893760867e-22
  - -6.417789384654288e-18
  - 7.374262959177429e-18
  - 2.3139522768523045e-21
  - 1.0842782607586227e-08
  - -9.609372669728595e-12
  - -1.310677459068081e-09
  - -7.760146538640763e-18
  - 8.916733634652997e-18
  - 2.360816406805489e-22
  - -9.609372669728559e-12
  - 1.0842782968812684e-08
  - -1.5852852429607111e-09
  - 8.093392901792512e-09
  - -9.283240422849362e-09
  - -3.2006082893760867e-22
  - -1.310677459068081e-09
  - -1.5852852429607111e-09
  - 4.617288397829892
twist:
  twist:
    linear:
      x: -2.1457804677573428e-09
      y: 3.570025347572642e-08
      z: 1.319675882044174e-28
    angular:
      x: 1.0104427542229515e-16
      y: 7.542795458517938e-17
      z: -1.1991022745576312e-07
  covariance:
  - 0.000936239275626012
  - -5.308424198211423e-17
  - -1.7693886422258755e-26
  - 4.298862311910281e-28
  - 1.0421535989857025e-29
  - -1.3994710237454425e-21
  - -5.3084241982054654e-17
  - 0.0008859181756963132
  - 3.9099263681849993e-26
  - 5.30098566895495e-29
  - -1.0835643640905007e-32
  - -1.8141958092365243e-22
  - -1.7693886422258755e-26
  - 3.9099263681850005e-26
  - 9.992688062711376e-07
  - 7.519731905673212e-32
  - 7.670292883122833e-33
  - 3.718083781102906e-33
  - 4.298862311910279e-28
  - 5.30098566895495e-29
  - 7.519731905673209e-32
  - 9.997560310321832e-07
  - -1.0669404079858956e-22
  - 1.360648461113295e-20
  - 1.0421535989856936e-29
  - -1.0835643640924153e-32
  - 7.670292883122827e-33
  - -1.0669404079858919e-22
  - 9.997560310321832e-07
  - -1.7289676496116267e-20
  - -1.399471023745442e-21
  - -1.8141958092365346e-22
  - 3.7180837811028995e-33
  - 1.3606484611132938e-20
  - -1.728967649611626e-20
  - 0.014012998568617218
---
header:
  stamp:
    sec: 1722521746
    nanosec: 905667620
  frame_id: map
child_frame_id: base_link
pose:
  pose:
    position:
      x: 0.7461667883098801
      y: -0.5404443607789285
      z: -3.540035259523232e-24
    orientation:
      x: 2.9234947977290976e-12
      y: -1.7677061509806227e-11
      z: 0.8882129642225678
      w: 0.45943196469875663
  covariance:
  - 9.85379051555892
  - 3.1790443604529424e-05
  - 1.1047923646813472e-22
  - -1.2128267556175024e-17
  - -1.466694966061906e-17
  - 4.019083120313546e-08
  - 3.1790443604529424e-05
  - 9.853791144725358
  - 3.9478234112095693e-22
  - 1.3925202686895588e-17
  - 1.6840071304308182e-17
  - -4.6114321376858516e-08
  - 1.1047923646813474e-22
  - 3.9478234112095674e-22
  - 9.998595986126942e-07
  - 1.6071270870160656e-21
  - 1.597131891601235e-22
  - -2.0843237625298874e-22
  - -1.212826755617503e-17
  - 1.3925202686895585e-17
  - 1.6071270870160658e-21
  - 1.08098287018102e-08
  - -8.616515577599038e-12
  - -1.2411897649533994e-09
  - -1.4666949660619063e-17
  - 1.6840071304308158e-17
  - 1.5971318916012353e-22
  - -8.616515577599012e-12
  - 1.0809829025620013e-08
  - -1.501211709909349e-09
  - 4.0190831203135476e-08
  - -4.61143213768585e-08
  - -2.0843237625298884e-22
  - -1.2411897649533994e-09
  - -1.5012117099093482e-09
  - 9.853840164184012
twist:
  twist:
    linear:
      x: -2.021971534476232e-09
      y: 3.258741545639593e-08
      z: 3.532404976103156e-29
    angular:
      x: 9.568451375672315e-17
      y: 7.142854819027895e-17
      z: -6.3909276056543346e-09
  covariance:
  - 0.0009079582627199746
  - -4.566216704641424e-17
  - -2.3357471181391274e-26
  - 3.8358700076561593e-28
  - 9.316426676336228e-30
  - -7.027670563728014e-23
  - -4.5662167046362994e-17
  - 0.0008422916325039313
  - 4.9744825969094855e-26
  - 4.5822021721888046e-29
  - -7.520076060491468e-33
  - -8.813584749640564e-24
  - -2.3357471181391272e-26
  - 4.9744825969094855e-26
  - 9.988789911392825e-07
  - 5.157836601125208e-32
  - 5.12427248542413e-33
  - 2.8499096112650243e-33
  - 3.835870007656157e-28
  - 4.582202172188802e-29
  - 5.157836601125208e-32
  - 9.996257713831006e-07
  - -9.56706915391286e-23
  - 1.2168014349766406e-20
  - 9.316426676336147e-30
  - -7.520076060508026e-33
  - 5.124272485424126e-33
  - -9.56706915391283e-23
  - 9.996257713831006e-07
  - -1.6253145401479047e-20
  - -7.027670563728016e-23
  - -8.813584749640618e-24
  - 2.8499096112650222e-33
  - 1.2168014349766401e-20
  - -1.6253145401479044e-20
  - 0.012624266353449954
---
header:
  stamp:
    sec: 1722521746
    nanosec: 952377473
  frame_id: map
child_frame_id: base_link
pose:
  pose:
    position:
      x: 0.7118653225261444
      y: -0.5662276871820934
      z: -3.61865885133698e-24
    orientation:
      x: 3.183179556176374e-12
      y: -1.7382139174377592e-11
      z: 0.8683065283209908
      w: 0.496027996059848
  covariance:
  - 4.670977380555449
  - 3.0601698988289694e-05
  - 1.180811661908967e-22
  - -4.1984243394659325e-18
  - -6.158148750391256e-18
  - 6.433044349686744e-09
  - 3.060169898828969e-05
  - 4.670978241667525
  - 3.794742909507293e-22
  - 5.758596950369513e-18
  - 8.446767022572328e-18
  - -8.807268428712735e-09
  - 1.180811661908967e-22
  - 3.7947429095072915e-22
  - 9.99869275836338e-07
  - 1.654266603232699e-21
  - 1.622013626116267e-22
  - -2.1386467393964074e-22
  - -4.198424339465935e-18
  - 5.758596950369512e-18
  - 1.6542666032326989e-21
  - 1.0507517714830818e-08
  - -1.2702811678948862e-11
  - -1.1753119200994852e-09
  - -6.158148750391252e-18
  - 8.446767022572325e-18
  - 1.622013626116267e-22
  - -1.2702811678948843e-11
  - 1.0507517998279798e-08
  - -1.724133583154375e-09
  - 6.433044349686744e-09
  - -8.807268428712735e-09
  - -2.138646739396407e-22
  - -1.175311920099485e-09
  - -1.7241335831543755e-09
  - 4.671008912133467
twist:
  twist:
    linear:
      x: -2.015002310121181e-09
      y: 3.31928093943991e-08
      z: 3.504926896443158e-29
    angular:
      x: 9.005911355263553e-17
      y: 7.58773495121076e-17
      z: -9.302712899065017e-08
  covariance:
  - 0.000913223230330592
  - -4.3568692751619e-17
  - -2.330405485978777e-26
  - 3.5431944118338843e-28
  - 1.0446364998651568e-29
  - -1.3094820952545097e-21
  - -4.3568692751570953e-17
  - 0.0008499569539424885
  - 4.4119330608053366e-26
  - 4.2032625432686125e-29
  - 2.3840268145859644e-31
  - -1.7049207841857446e-22
  - -2.330405485978778e-26
  - 4.411933060805337e-26
  - 9.989561159695144e-07
  - 5.315923445676759e-32
  - 5.2099841783212625e-33
  - 2.9452201128724508e-33
  - 3.5431944118338825e-28
  - 4.203262543268609e-29
  - 5.31592344567676e-32
  - 9.996515540085906e-07
  - -1.4103183195327972e-22
  - 1.2133521947998048e-20
  - 1.0446364998651471e-29
  - 2.384026814585843e-31
  - 5.209984178321263e-33
  - -1.410318319532794e-22
  - 9.996515540085906e-07
  - -1.3288988828619752e-20
  - -1.3094820952545095e-21
  - -1.7049207841857566e-22
  - 2.9452201128724504e-33
  - 1.2133521947998048e-20
  - -1.3288988828619749e-20
  - 0.012627006449375467
---
header:
  stamp:
    sec: 1722521747
    nanosec: 218648
  frame_id: map
child_frame_id: base_link
pose:
  pose:
    position:
      x: 0.7118653191293838
      y: -0.5662276897513709
      z: -3.1857032364018868e-24
    orientation:
      x: 3.020765527252528e-12
      y: -1.649406497814611e-11
      z: 0.8683065281192304
      w: 0.49602799641303336
  covariance:
  - 9.455095408162855
  - 3.059040092270508e-05
  - 1.1512241342494248e-22
  - -7.987460188430246e-18
  - -1.1716009228506645e-17
  - 3.014815185298098e-08
  - 3.0590400922705046e-05
  - 9.455096281774859
  - 3.7204914940374025e-22
  - 1.0929339557741225e-17
  - 1.603134287924275e-17
  - -4.117219461393414e-08
  - 1.1512241342494248e-22
  - 3.7204914940374025e-22
  - 9.998634896216997e-07
  - 1.541898806817999e-21
  - 1.5173905740645786e-22
  - -1.9065097576274532e-22
  - -7.987460188430249e-18
  - 1.0929339557741226e-17
  - 1.5418988068179988e-21
  - 1.0421665315264892e-08
  - -1.1436901634074598e-11
  - -1.1153108504341154e-09
  - -1.1716009228506639e-17
  - 1.603134287924274e-17
  - 1.517390574064579e-22
  - -1.1436901634074582e-11
  - 1.0421665570380126e-08
  - -1.636036289964409e-09
  - 3.014815185298099e-08
  - -4.117219461393413e-08
  - -1.9065097576274515e-22
  - -1.1153108504341143e-09
  - -1.6360362899644086e-09
  - 9.455139879079908
twist:
  twist:
    linear:
      x: -1.956115290114629e-09
      y: 3.1819994881648995e-08
      z: 3.17945403796947e-29
    angular:
      x: 8.546271986589725e-17
      y: 7.200658147709835e-17
      z: -5.8458029578156755e-09
  covariance:
  - 0.0009101333960792267
  - -4.0546800742504946e-17
  - -2.3176174518985978e-26
  - 3.263977542853873e-28
  - 9.64278290675289e-30
  - -7.988138023537201e-23
  - -4.054680074246018e-17
  - 0.0008456681710563192
  - 4.4007607469579834e-26
  - 3.8236789995402923e-29
  - 2.19092156967589e-31
  - -1.0267046382088125e-23
  - -2.3176174518985975e-26
  - 4.4007607469579834e-26
  - 9.989099990635324e-07
  - 4.947839802391819e-32
  - 4.8672590492854684e-33
  - 2.7447156480899546e-33
  - 3.2639775428538757e-28
  - 3.8236789995402906e-29
  - 4.947839802391817e-32
  - 9.996361378420605e-07
  - -1.2699364256222102e-22
  - 1.198907548805517e-20
  - 9.642782906752794e-30
  - 2.190921569675778e-31
  - 4.8672590492854684e-33
  - -1.2699364256222085e-22
  - 9.996361378420605e-07
  - -1.4163542876229406e-20
  - -7.988138023537202e-23
  - -1.0267046382088195e-23
  - 2.744715648089954e-33
  - 1.1989075488055172e-20
  - -1.416354287622941e-20
  - 0.012757874548381443
---
header:
  stamp:
    sec: 1722521747
    nanosec: 55368428
  frame_id: map
child_frame_id: base_link
pose:
  pose:
    position:
      x: 0.6756522398642397
      y: -0.5891071525187809
      z: -2.8073713085981534e-24
    orientation:
      x: 3.484296267215428e-12
      y: -1.6291034242456973e-11
      z: 0.8467635466459635
      w: 0.5319694503179192
  covariance:
  - 5.35235183030943
  - 2.2026538793248585e-05
  - 1.0664769014422955e-22
  - -3.6610263695050954e-18
  - -6.617547385303477e-18
  - 7.367304131172169e-09
  - 2.202653879324856e-05
  - 5.352352663368379
  - 3.2542425892439263e-22
  - 6.027999338501577e-18
  - 1.0900046478644442e-17
  - -1.2106769369280715e-08
  - 1.0664769014422945e-22
  - 3.2542425892439263e-22
  - 9.998536999731466e-07
  - 1.4160356269291608e-21
  - 1.3650386561290787e-22
  - -1.7236797847327636e-22
  - -3.661026369505095e-18
  - 6.0279993385015706e-18
  - 1.4160356269291606e-21
  - 1.0128489932030321e-08
  - -1.4956277542910688e-11
  - -1.0396800213029844e-09
  - -6.617547385303478e-18
  - 1.0900046478644448e-17
  - 1.365038656129079e-22
  - -1.495627754291069e-11
  - 1.0128490151071516e-08
  - -1.8816520574648458e-09
  - 7.367304131172167e-09
  - -1.2106769369280717e-08
  - -1.723679784732764e-22
  - -1.0396800213029846e-09
  - -1.8816520574648466e-09
  - 5.3523767623435194
twist:
  twist:
    linear:
      x: -1.915692799600922e-09
      y: 3.1404720211434934e-08
      z: 2.800747662406919e-29
    angular:
      x: 7.957826824021772e-17
      y: 7.741628575120337e-17
      z: -6.177454057737128e-08
  covariance:
  - 0.0009047765514449026
  - -3.710613253771232e-17
  - -2.610741490159669e-26
  - 2.939097110703771e-28
  - 1.0030781577868689e-29
  - -6.129661654554641e-22
  - -3.7106132537669224e-17
  - 0.0008376022779162277
  - 4.2457048725534967e-26
  - 3.388632838265936e-29
  - 3.6814030559069405e-31
  - -7.788588029723867e-23
  - -2.610741490159669e-26
  - 4.245704872553495e-26
  - 9.988319907469455e-07
  - 4.5261065588393364e-32
  - 4.3604577648362824e-33
  - 2.7840722866367965e-33
  - 2.939097110703774e-28
  - 3.3886328382659323e-29
  - 4.5261065588393397e-32
  - 9.996100566955271e-07
  - -1.6606196617916062e-22
  - 1.220841932323694e-20
  - 1.003078157786859e-29
  - 3.681403055906854e-31
  - 4.3604577648362845e-33
  - -1.660619661791607e-22
  - 9.996100566955271e-07
  - -1.1737170148449464e-20
  - -6.129661654554636e-22
  - -7.788588029723922e-23
  - 2.7840722866367993e-33
  - 1.220841932323694e-20
  - -1.173717014844946e-20
  - 0.012383848289038164
---
header:
  stamp:
    sec: 1722521747
    nanosec: 99886566
  frame_id: map
child_frame_id: base_link
pose:
  pose:
    position:
      x: 0.6756522361088051
      y: -0.5891071548915614
      z: -3.156214983644425e-24
    orientation:
      x: 3.344898293127294e-12
      y: -1.5638883478008934e-11
      z: 0.8467635464645598
      w: 0.5319694506066691
  covariance:
  - 9.80416620062936
  - 2.2014043339201053e-05
  - 1.3309705388273468e-22
  - -6.697613586186931e-18
  - -1.2112754379349836e-17
  - 2.9691755917250705e-08
  - 2.201404333920103e-05
  - 9.804167053606117
  - 4.136378000200372e-22
  - 1.0983211041342876e-17
  - 1.9867160417197804e-17
  - -4.855219647948504e-08
  - 1.330970538827347e-22
  - 4.136378000200373e-22
  - 9.998811066478987e-07
  - 1.613374525657002e-21
  - 1.6004893266424921e-22
  - -1.884383470692205e-22
  - -6.69761358618693e-18
  - 1.0983211041342873e-17
  - 1.6133745256570015e-21
  - 1.0212307258630148e-08
  - -1.3780727820230702e-11
  - -9.980890837542494e-10
  - -1.2112754379349837e-17
  - 1.986716041719781e-17
  - 1.6004893266424921e-22
  - -1.3780727820230705e-11
  - 1.021230746037835e-08
  - -1.8062478670751173e-09
  - 2.969175591725071e-08
  - -4.855219647948505e-08
  - -1.8843834706922043e-22
  - -9.980890837542492e-10
  - -1.8062478670751173e-09
  - 9.804204680915795
twist:
  twist:
    linear:
      x: -1.9010140081920687e-09
      y: 3.1176261673709156e-08
      z: 3.1506883895668046e-29
    angular:
      x: 7.639784369498706e-17
      y: 7.432232590667978e-17
      z: -5.8314313758431154e-09
  covariance:
  - 0.0009200467616697901
  - -3.655415313842647e-17
  - -2.162738788659555e-26
  - 2.799790939642654e-28
  - 9.571403446090038e-30
  - -5.741946072822781e-23
  - -3.6554153138384025e-17
  - 0.0008607407383908085
  - 3.619494371660774e-26
  - 3.2292930672035563e-29
  - 3.5265828717293038e-31
  - -7.297812141423905e-24
  - -2.162738788659556e-26
  - 3.619494371660776e-26
  - 9.990504330435673e-07
  - 5.198885888301552e-32
  - 5.155101927440451e-33
  - 3.1793980185496446e-33
  - 2.799790939642655e-28
  - 3.229293067203553e-29
  - 5.19888588830155e-32
  - 9.996830766206655e-07
  - -1.530286845944955e-22
  - 1.3377698745451954e-20
  - 9.571403446089944e-30
  - 3.5265828717292197e-31
  - 5.155101927440449e-33
  - -1.530286845944956e-22
  - 9.996830766206655e-07
  - -1.3677727911523487e-20
  - -5.741946072822777e-23
  - -7.297812141423958e-24
  - 3.179398018549643e-33
  - 1.3377698745451955e-20
  - -1.367772791152349e-20
  - 0.013346098659030381
---
header:
  stamp:
    sec: 1722521747
    nanosec: 153569862
  frame_id: map
child_frame_id: base_link
pose:
  pose:
    position:
      x: 0.6378184155905925
      y: -0.6096862615622589
      z: -2.7184471393218345e-24
    orientation:
      x: 4.198024294129459e-12
      y: -1.6017275182385138e-11
      z: 0.8238244024878066
      w: 0.5668450880669325
  covariance:
  - 5.234062057351125
  - 2.215796274664655e-05
  - 1.1547091940758944e-22
  - -3.1358063890282716e-18
  - -7.234487050342674e-18
  - 6.163490568692613e-09
  - 2.2157962746646532e-05
  - 5.234058695189943
  - 3.5880576915735915e-22
  - 6.255430248853003e-18
  - 1.443887905553515e-17
  - -1.2294946458170656e-08
  - 1.1547091940758935e-22
  - 3.58805769157359e-22
  - 9.99866200816185e-07
  - 1.4575092336062395e-21
  - 1.424506497131125e-22
  - -1.6907531585137326e-22
  - -3.13580638902827e-18
  - 6.255430248853002e-18
  - 1.4575092336062393e-21
  - 1.0127030008604346e-08
  - -1.7750245344640746e-11
  - -9.468365800034207e-10
  - -7.234487050342679e-18
  - 1.443887905553516e-17
  - 1.424506497131125e-22
  - -1.7750245344640756e-11
  - 1.0127030184514939e-08
  - -2.1873108840973053e-09
  - 6.163490568692614e-09
  - -1.2294946458170656e-08
  - -1.6907531585137336e-22
  - -9.468365800034213e-10
  - -2.187310884097303e-09
  - 5.234086889258326
twist:
  twist:
    linear:
      x: -1.8783448281718222e-09
      y: 3.073648005600514e-08
      z: 2.4253548698760686e-29
    angular:
      x: 7.207764174566215e-17
      y: 8.35537826541081e-17
      z: -8.7580733366045e-08
  covariance:
  - 0.0009115407884104331
  - -3.3214281029142656e-17
  - -2.6198407754275555e-26
  - 2.5431488836941563e-28
  - 1.0459631700100279e-29
  - -1.018109803295426e-21
  - -3.3214281029105524e-17
  - 0.0008475148574628806
  - 3.603706374473783e-26
  - 2.8811123891890265e-29
  - 5.433695654404544e-31
  - -1.3076894072501127e-22
  - -2.6198407754275544e-26
  - 3.603706374473781e-26
  - 9.98931606647248e-07
  - 4.674006405726645e-32
  - 4.565096481076717e-33
  - 3.4223720878149965e-33
  - 2.5431488836941567e-28
  - 2.881112389189021e-29
  - 4.674006405726646e-32
  - 9.996433611800589e-07
  - -1.9707625171851613e-22
  - 1.4268999029985393e-20
  - 1.04596317001002e-29
  - 5.433695654404473e-31
  - 4.5650964810767176e-33
  - -1.9707625171851623e-22
  - 9.996433611800589e-07
  - -1.069829779285633e-20
  - -1.018109803295427e-21
  - -1.307689407250116e-22
  - 3.4223720878149985e-33
  - 1.4268999029985393e-20
  - -1.0698297792856324e-20
  - 0.01272378466417173
---
header:
  stamp:
    sec: 1722521747
    nanosec: 199608618
  frame_id: map
child_frame_id: base_link
pose:
  pose:
    position:
      x: 0.6378184123850529
      y: -0.6096862632366032
      z: -2.328560153249162e-24
    orientation:
      x: 3.990423536680413e-12
      y: -1.5226484459013018e-11
      z: 0.8238244022640926
      w: 0.5668450883920673
  covariance:
  - 9.837938152759214
  - 2.214898321200247e-05
  - 1.0335348911443836e-22
  - -5.110984716705573e-18
  - -1.1796017228648188e-17
  - 2.268717691014555e-08
  - 2.2148983212002437e-05
  - 9.837934810629605
  - 3.3072996015285473e-22
  - 1.0190726093339097e-17
  - 2.3526799863632904e-17
  - -4.522456218916429e-08
  - 1.033534891144383e-22
  - 3.3072996015285473e-22
  - 9.99855723471176e-07
  - 1.3149793650823267e-21
  - 1.294595081950308e-22
  - -1.4621863927331383e-22
  - -5.11098471670557e-18
  - 1.0190726093339101e-17
  - 1.3149793650823267e-21
  - 1.004293073413579e-08
  - -1.6038147837539913e-11
  - -9.001911984098475e-10
  - -1.1796017228648205e-17
  - 2.3526799863632916e-17
  - 1.2945950819503087e-22
  - -1.6038147837539925e-11
  - 1.0042930892961043e-08
  - -2.079223867402601e-09
  - 2.2687176910145557e-08
  - -4.5224562189164284e-08
  - -1.462186392733138e-22
  - -9.001911984098478e-10
  - -2.0792238674025985e-09
  - 9.837975390346294
twist:
  twist:
    linear:
      x: -1.8198267539109357e-09
      y: 2.93479745510305e-08
      z: 2.3226708367008302e-29
    angular:
      x: 6.851789448703067e-17
      y: 7.942324741406696e-17
      z: -5.695614157123108e-09
  covariance:
  - 0.0009057463481853023
  - -3.0726452393684223e-17
  - -2.6158329798488355e-26
  - 2.3419830012719394e-28
  - 9.651943646227142e-30
  - -6.414591464568587e-23
  - -3.0726452393649846e-17
  - 0.0008386952047805299
  - 3.552941830727949e-26
  - 2.6148576682782236e-29
  - 4.952574295869913e-31
