header:
  stamp:
    sec: 1722522347
    nanosec: 603032140
  frame_id: gps_front
status:
  status: 2
  service: 3
latitude: 42.87846862642906
longitude: -77.03073487804562
altitude: 182.20520169194788
position_covariance:
- 2.6591820642352104e-05
- -8.523988981323782e-06
- 7.089176051522372e-06
- -8.523988981323782e-06
- 3.830716377706267e-05
- -9.047572348208632e-06
- 7.089176051522372e-06
- -9.047572348208632e-06
- 8.72840901138261e-05
position_covariance_type: 3
---
header:
  stamp:
    sec: 1722522347
    nanosec: 702079530
  frame_id: gps_front
status:
  status: 2
  service: 3
latitude: 42.87846863046285
longitude: -77.03073488090381
altitude: 182.20538092404604
position_covariance:
- 2.6640575015335344e-05
- -8.492596862197388e-06
- 7.052673936414067e-06
- -8.492596862197388e-06
- 3.852322697639465e-05
- -8.749246262595989e-06
- 7.052673936414067e-06
- -8.749246262595989e-06
- 8.752931171329692e-05
position_covariance_type: 3
---
header:
  stamp:
    sec: 1722522347
    nanosec: 802288400
  frame_id: gps_front
status:
  status: 2
  service: 3
latitude: 42.87846862278555
longitude: -77.03073486700416
altitude: 182.2049893029034
position_covariance:
- 2.6636984330252744e-05
- -8.5225101429387e-06
- 7.075238499965053e-06
- -8.5225101429387e-06
- 3.865512553602457e-05
- -8.759082447795663e-06
- 7.075238499965053e-06
- -8.759082447795663e-06
- 8.771524881012738e-05
position_covariance_type: 3
---
header:
  stamp:
    sec: 1722522347
    nanosec: 902425368
  frame_id: gps_front
status:
  status: 2
  service: 3
latitude: 42.878468623085105
longitude: -77.03073486698605
altitude: 182.20461730565876
position_covariance:
- 2.6561332560959272e-05
- -8.451852409052663e-06
- 6.947899237275124e-06
- -8.451852409052663e-06
- 3.853925227303989e-05
- -8.648846232972573e-06
- 6.947899237275124e-06
- -8.648846232972573e-06
- 8.745452942093834e-05
position_covariance_type: 3
---
header:
  stamp:
    sec: 1722522348
    nanosec: 2872537
  frame_id: gps_front
status:
  status: 2
  service: 3
latitude: 42.878468619080955
longitude: -77.03073486575066
altitude: 182.20268645696342
position_covariance:
- 2.6501267711864784e-05
- -8.344650268554688e-06
- 6.837020919192582e-06
- -8.344650268554688e-06
- 3.824825398623943e-05
- -8.72250438987976e-06
- 6.837020919192582e-06
- -8.72250438987976e-06
- 8.712112321518362e-05
position_covariance_type: 3
---
header:
  stamp:
    sec: 1722522348
    nanosec: 102179866
  frame_id: gps_front
status:
  status: 2
  service: 3
latitude: 42.87846862145336
longitude: -77.03073486374103
altitude: 182.20334259141237
position_covariance:
- 2.6384930606582202e-05
- -8.288490789709613e-06
- 6.9726806941616815e-06
- -8.288490789709613e-06
- 3.752859993255697e-05
- -9.166300515062176e-06
- 6.9726806941616815e-06
- -9.166300515062176e-06
- 8.620151493232697e-05
position_covariance_type: 3
---
header:
  stamp:
    sec: 1722522348
    nanosec: 202166872
  frame_id: gps_front
status:
  status: 2
  service: 3
latitude: 42.878468630854364
longitude: -77.03073484846473
altitude: 182.20490419492126
position_covariance:
- 2.6335819711675867e-05
- -8.24986636871472e-06
- 7.050822659948608e-06
- -8.24986636871472e-06
- 3.736254802788608e-05
- -9.085740202863235e-06
- 7.050822659948608e-06
- -9.085740202863235e-06
- 8.584236638853326e-05
position_covariance_type: 3
---
header:
  stamp:
    sec: 1722522348
    nanosec: 302598762
  frame_id: gps_front
status:
  status: 2
  service: 3
latitude: 42.878468623790795
longitude: -77.03073485313179
altitude: 182.20331947505474
position_covariance:
- 2.6314251954318024e-05
- -8.221360985771753e-06
- 7.071140771586215e-06
- -8.221360985771753e-06
- 3.743418710655533e-05
- -8.72331020218553e-06
- 7.071140771586215e-06
- -8.72331020218553e-06
- 8.566849282942712e-05
position_covariance_type: 3
---
header:
  stamp:
    sec: 1722522348
    nanosec: 403072390
  frame_id: gps_front
status:
  status: 2
  service: 3
latitude: 42.87846862458225
longitude: -77.03073484957955
altitude: 182.20266743097454
position_covariance:
- 2.6448358767083846e-05
- -8.199363037419971e-06
- 6.845948973932536e-06
- -8.199363037419971e-06
- 3.7855996197322384e-05
- -8.999438250612002e-06
- 6.845948973932536e-06
- -8.999438250612002e-06
- 8.677721780259162e-05
position_covariance_type: 3
---
header:
  stamp:
    sec: 1722522348
    nanosec: 502117816
  frame_id: gps_front
status:
  status: 2
  service: 3
latitude: 42.87846863759409
longitude: -77.03073484247611
altitude: 182.20252196118236
position_covariance:
- 2.654773743415717e-05
- -8.227231774071697e-06
- 6.6208931457367726e-06
- -8.227231774071697e-06
- 3.818000550381839e-05
- -9.031459740072023e-06
- 6.6208931457367726e-06
- -9.031459740072023e-06
- 8.747699757805094e-05
position_covariance_type: 3
---
header:
  stamp:
    sec: 1722522348
    nanosec: 602539791
  frame_id: gps_front
status:
  status: 2
  service: 3
latitude: 42.87846864457391
longitude: -77.03073485408487
altitude: 182.20089894160628
position_covariance:
- 2.648594818310812e-05
- -8.450914720015135e-06
- 6.750259672116954e-06
- -8.450914720015135e-06
- 3.8364909414667636e-05
- -8.594425707997289e-06
- 6.750259672116954e-06
- -8.594425707997289e-06
- 8.711480040801689e-05
position_covariance_type: 3
---
header:
  stamp:
    sec: 1722522348
    nanosec: 702454721
  frame_id: gps_front
status:
  status: 2
  service: 3
latitude: 42.87846863891191
longitude: -77.0307348700096
altitude: 182.20066286902875
position_covariance:
- 2.6529816750553437e-05
- -8.512357453582808e-06
- 6.767450031475164e-06
- -8.512357453582808e-06
- 3.859876960632391e-05
- -8.493081622873433e-06
- 6.767450031475164e-06
- -8.493081622873433e-06
- 8.756409806665033e-05
position_covariance_type: 3
---
header:
  stamp:
    sec: 1722522348
    nanosec: 802166355
  frame_id: gps_front
status:
  status: 2
  service: 3
latitude: 42.87846863885374
longitude: -77.03073488623606
altitude: 182.20047451741993
position_covariance:
- 2.7009898985852487e-05
- -7.827841727703344e-06
- 6.258983830775833e-06
- -7.827841727703344e-06
- 3.94787457480561e-05
- -9.261607374355663e-06
- 6.258983830775833e-06
- -9.261607374355663e-06
- 8.840337250148878e-05
position_covariance_type: 3
---
header:
  stamp:
    sec: 1722522348
    nanosec: 902429625
  frame_id: gps_front
status:
  status: 2
  service: 3
latitude: 42.87846864437912
longitude: -77.03073489312177
altitude: 182.19684797152877
position_covariance:
- 2.6484574846108444e-05
- -8.38134565128712e-06
- 6.793203738197917e-06
- -8.38134565128712e-06
- 3.848049163934775e-05
- -8.714704563317355e-06
- 6.793203738197917e-06
- -8.714704563317355e-06
- 8.731086563784629e-05
position_covariance_type: 3
---
header:
  stamp:
    sec: 1722522349
    nanosec: 2573828
  frame_id: gps_front
status:
  status: 2
  service: 3
latitude: 42.878468638017246
longitude: -77.03073490244134
altitude: 182.1982580423355
position_covariance:
- 2.6365105441072956e-05
- -8.35177161206957e-06
- 6.831655809946824e-06
- -8.35177161206957e-06
- 3.7982095818733796e-05
- -8.634934602014255e-06
- 6.831655809946824e-06
- -8.634934602014255e-06
- 8.649125084048137e-05
position_covariance_type: 3
---
header:
  stamp:
    sec: 1722522349
    nanosec: 102114396
  frame_id: gps_front
status:
  status: 2
  service: 3
latitude: 42.878468646556
longitude: -77.03073489779301
altitude: 182.19693774171174
position_covariance:
- 2.6350819098297507e-05
- -8.23660047899466e-06
- 6.696018772345269e-06
- -8.23660047899466e-06
- 3.758998354896903e-05
- -8.825932127365377e-06
- 6.696018772345269e-06
- -8.825932127365377e-06
- 8.619875006843358e-05
position_covariance_type: 3
---
header:
  stamp:
    sec: 1722522349
    nanosec: 202312409
  frame_id: gps_front
status:
  status: 2
  service: 3
latitude: 42.87846864912458
longitude: -77.03073490842606
altitude: 182.1965856589377
position_covariance:
- 2.645837412273977e-05
- -8.285534022434149e-06
- 6.742625373590272e-06
- -8.285534022434149e-06
- 3.773981734411791e-05
- -9.033257811097428e-06
- 6.742625373590272e-06
- -9.033257811097428e-06
- 8.65475376485847e-05
position_covariance_type: 3
---
header:
  stamp:
    sec: 1722522349
    nanosec: 302160034
  frame_id: gps_front
status:
  status: 2
  service: 3
latitude: 42.87846865743028
longitude: -77.0307348878148
altitude: 182.19847729895264
position_covariance:
- 2.6428411729284562e-05
- -8.329557203978766e-06
- 6.740159278706415e-06
- -8.329557203978766e-06
- 3.7561105273198336e-05
- -8.867960787029006e-06
- 6.740159278706415e-06
- -8.867960787029006e-06
- 8.62316446728073e-05
position_covariance_type: 3
---
header:
  stamp:
    sec: 1722522349
    nanosec: 402354894
  frame_id: gps_front
status:
  status: 2
  service: 3
latitude: 42.878468670324324
longitude: -77.0307348977931
altitude: 182.19505147263408
position_covariance:
- 2.642713297973387e-05
- -8.309336408274248e-06
- 6.735558145010145e-06
- -8.309336408274248e-06
- 3.7632995372405276e-05
- -8.786256330495235e-06
- 6.735558145010145e-06
- -8.786256330495235e-06
- 8.628100476926193e-05
position_covariance_type: 3
---
header:
  stamp:
    sec: 1722522349
    nanosec: 502459476
  frame_id: gps_front
status:
  status: 2
  service: 3
latitude: 42.878468676081404
longitude: -77.03073489042566
altitude: 182.19557927269489
position_covariance:
- 2.6521034669713117e-05
- -8.261841685452964e-06
- 6.605305770790437e-06
- -8.261841685452964e-06
- 3.804398875217885e-05
- -8.845472621032968e-06
- 6.605305770790437e-06
- -8.845472621032968e-06
- 8.710848487680778e-05
position_covariance_type: 3
---
header:
  stamp:
    sec: 1722522349
    nanosec: 602282871
  frame_id: gps_front
status:
  status: 2
  service: 3
latitude: 42.87846866659751
longitude: -77.030734895928
altitude: 182.19548890553415
position_covariance:
- 2.6618705305736512e-05
- -8.373762284463737e-06
- 6.472619134001434e-06
- -8.373762284463737e-06
- 3.8436373870354146e-05
- -8.660626917844638e-06
- 6.472619134001434e-06
- -8.660626917844638e-06
- 8.789136336417869e-05
position_covariance_type: 3
---
header:
  stamp:
    sec: 1722522349
    nanosec: 702116915
  frame_id: gps_front
status:
  status: 2
  service: 3
latitude: 42.87846867044182
longitude: -77.03073489156287
altitude: 182.19699759036303
position_covariance:
- 2.6655643523554318e-05
- -8.451133908238262e-06
- 6.503631084342487e-06
- -8.451133908238262e-06
- 3.8678073906339705e-05
- -8.61563876242144e-06
- 6.503631084342487e-06
- -8.61563876242144e-06
- 8.812415035208687e-05
position_covariance_type: 3
---
header:
  stamp:
    sec: 1722522349
    nanosec: 802242317
  frame_id: gps_front
status:
  status: 2
  service: 3
latitude: 42.87846866485507
longitude: -77.03073488349054
altitude: 182.1963531151414
position_covariance:
- 2.6660383809939958e-05
- -8.460237950203009e-06
- 6.535189186251955e-06
- -8.460237950203009e-06
- 3.87207510357257e-05
- -8.709317626198754e-06
- 6.535189186251955e-06
- -8.709317626198754e-06
- 8.822249219520018e-05
position_covariance_type: 3
---
header:
  stamp:
    sec: 1722522349
    nanosec: 902150104
  frame_id: gps_front
status:
  status: 2
  service: 3
latitude: 42.87846866014025
longitude: -77.03073488870041
altitude: 182.19721656106412
position_covariance:
- 2.6636424081516452e-05
- -8.423586223216262e-06
- 6.672397375950823e-06
- -8.423586223216262e-06
- 3.857421688735485e-05
- -8.825024451653007e-06
- 6.672397375950823e-06
- -8.825024451653007e-06
- 8.795868779998273e-05
position_covariance_type: 3
---
header:
  stamp:
    sec: 1722522350
    nanosec: 3937284
  frame_id: gps_front
status:
  status: 2
  service: 3
latitude: 42.87846866386327
longitude: -77.03073488403261
altitude: 182.19740315154195
position_covariance:
- 2.6527488444116898e-05
- -8.399588296015281e-06
- 6.793839929741807e-06
- -8.399588296015281e-06
- 3.817923061433248e-05
- -8.774974958214443e-06
- 6.793839929741807e-06
- -8.774974958214443e-06
- 8.711187547305599e-05
position_covariance_type: 3
---
header:
  stamp:
    sec: 1722522350
    nanosec: 102366909
  frame_id: gps_front
status:
  status: 2
  service: 3
latitude: 42.87846866054365
longitude: -77.03073489114728
altitude: 182.19708630256355
position_covariance:
- 2.6380257622804493e-05
- -8.387196430703625e-06
- 6.827991910540732e-06
- -8.387196430703625e-06
- 3.749828465515748e-05
- -8.914696991269011e-06
- 6.827991910540732e-06
- -8.914696991269011e-06
- 8.637044084025547e-05
position_covariance_type: 3
---
header:
  stamp:
    sec: 1722522350
    nanosec: 202839107
  frame_id: gps_front
status:
  status: 2
  service: 3
latitude: 42.87846866198834
longitude: -77.03073488566805
altitude: 182.19634284917265
position_covariance:
- 2.638847945490852e-05
- -8.280077054223511e-06
- 6.772348115191562e-06
- -8.280077054223511e-06
- 3.7440593587234616e-05
- -8.85623649082845e-06
- 6.772348115191562e-06
- -8.85623649082845e-06
- 8.658607839606702e-05
position_covariance_type: 3
---
header:
  stamp:
    sec: 1722522350
    nanosec: 302568730
  frame_id: gps_front
status:
  status: 2
  service: 3
latitude: 42.878468656624044
longitude: -77.0307348886044
altitude: 182.1979536525905
position_covariance:
- 2.63883666775655e-05
- -8.214326953748241e-06
- 6.671736173302634e-06
- -8.214326953748241e-06
- 3.751220720005222e-05
- -8.84951077750884e-06
- 6.671736173302634e-06
- -8.84951077750884e-06
- 8.6505628132727e-05
position_covariance_type: 3
---
header:
  stamp:
    sec: 1722522350
    nanosec: 402294163
  frame_id: gps_front
status:
  status: 2
  service: 3
latitude: 42.87846865128484
longitude: -77.03073488076708
altitude: 182.1990619590506
position_covariance:
- 2.6391804567538202e-05
- -8.222674296121113e-06
- 6.582373316632584e-06
- -8.222674296121113e-06
- 3.7665759009541944e-05
- -8.788334525888786e-06
- 6.582373316632584e-06
- -8.788334525888786e-06
- 8.65693436935544e-05
position_covariance_type: 3
---
header:
  stamp:
    sec: 1722522350
    nanosec: 502472345
  frame_id: gps_front
status:
  status: 2
  service: 3
latitude: 42.878468657566856
longitude: -77.03073488832091
altitude: 182.1986782103777
position_covariance:
- 2.650931492098607e-05
- -8.296142368635628e-06
- 6.547502835019259e-06
- -8.296142368635628e-06
- 3.795645170612261e-05
- -8.488951607432682e-06
- 6.547502835019259e-06
- -8.488951607432682e-06
- 8.697671728441492e-05
position_covariance_type: 3
---
header:
  stamp:
    sec: 1722522350
    nanosec: 602189737
  frame_id: gps_front
status:
  status: 2
  service: 3
latitude: 42.87846865012372
longitude: -77.0307348853564
altitude: 182.19978781603277
position_covariance:
- 2.6717449145508e-05
- -8.455063834844623e-06
- 6.552213108079741e-06
- -8.455063834844623e-06
- 3.839258351945318e-05
- -8.557895853300579e-06
- 6.552213108079741e-06
- -8.557895853300579e-06
- 8.769897249294445e-05
position_covariance_type: 3
---
header:
  stamp:
    sec: 1722522350
    nanosec: 702244899
  frame_id: gps_front
status:
  status: 2
  service: 3
latitude: 42.87846864519528
longitude: -77.03073488956807
altitude: 182.19954232499003
position_covariance:
- 2.6851881557377055e-05
- -8.484122190566268e-06
- 6.5677750171744265e-06
- -8.484122190566268e-06
- 3.864101381623186e-05
- -8.630647243990097e-06
- 6.5677750171744265e-06
- -8.630647243990097e-06
- 8.804950630292296e-05
position_covariance_type: 3
---
header:
  stamp:
    sec: 1722522350
    nanosec: 802191464
  frame_id: gps_front
status:
  status: 2
  service: 3
latitude: 42.87846863692715
longitude: -77.03073488873623
altitude: 182.2009454406798
position_covariance:
- 2.6915367925539613e-05
- -8.450772838841658e-06
- 6.573895461770007e-06
- -8.450772838841658e-06
- 3.855191607726738e-05
- -8.523794349457603e-06
- 6.573895461770007e-06
- -8.523794349457603e-06
- 8.794359746389091e-05
position_covariance_type: 3
---
header:
  stamp:
    sec: 1722522350
    nanosec: 902415928
  frame_id: gps_front
status:
  status: 2
  service: 3
latitude: 42.878468629594565
longitude: -77.03073488275781
altitude: 182.20044999942183
position_covariance:
- 2.6908874133368954e-05
- -8.441897989541758e-06
- 6.560715064551914e-06
- -8.441897989541758e-06
- 3.839517376036383e-05
- -8.56451879371889e-06
- 6.560715064551914e-06
- -8.56451879371889e-06
- 8.792919106781483e-05
position_covariance_type: 3
---
header:
  stamp:
    sec: 1722522351
    nanosec: 2528868
  frame_id: gps_front
status:
  status: 2
  service: 3
latitude: 42.878468620222506
longitude: -77.03073488600221
altitude: 182.20134903211147
position_covariance:
- 2.675146606634371e-05
- -8.411449925915804e-06
- 6.612733614019817e-06
- -8.411449925915804e-06
- 3.805265077971853e-05
- -8.761115168454126e-06
- 6.612733614019817e-06
- -8.761115168454126e-06
- 8.726795931579545e-05
position_covariance_type: 3
---
header:
  stamp:
    sec: 1722522351
    nanosec: 102463103
  frame_id: gps_front
status:
  status: 2
  service: 3
latitude: 42.87846862710537
longitude: -77.03073489132508
altitude: 182.20079827401787
position_covariance:
- 2.6545571017777547e-05
- -8.258120942628011e-06
- 6.5444837673567235e-06
- -8.258120942628011e-06
- 3.741092587006278e-05
- -8.899293788999785e-06
- 6.5444837673567235e-06
- -8.899293788999785e-06
- 8.621463348390535e-05
position_covariance_type: 3
---
header:
  stamp:
    sec: 1722522351
    nanosec: 202589176
  frame_id: gps_front
status:
  status: 2
  service: 3
latitude: 42.878468627161894
longitude: -77.0307348743316
altitude: 182.19993989914656
position_covariance:
- 2.6568350222078152e-05
- -8.177158633770887e-06
- 6.432491773011861e-06
- -8.177158633770887e-06
- 3.753881173906848e-05
- -8.884381713869516e-06
- 6.432491773011861e-06
- -8.884381713869516e-06
- 8.661462197778746e-05
position_covariance_type: 3
---
header:
  stamp:
    sec: 1722522351
    nanosec: 302573516
  frame_id: gps_front
status:
  status: 2
  service: 3
latitude: 42.87846862811432
longitude: -77.03073488195922
altitude: 182.2004223279655
position_covariance:
- 2.657503318914678e-05
- -8.241733667091466e-06
- 6.5037015701818746e-06
- -8.241733667091466e-06
- 3.7634421460097656e-05
- -8.916509614209644e-06
- 6.5037015701818746e-06
- -8.916509614209644e-06
- 8.667934889672324e-05
position_covariance_type: 3
---
header:
  stamp:
    sec: 1722522351
    nanosec: 402278969
  frame_id: gps_front
status:
  status: 2
  service: 3
latitude: 42.87846862346024
longitude: -77.03073488710221
altitude: 182.20120952650905
position_covariance:
- 2.6520863684709184e-05
- -8.266671102319378e-06
- 6.482452590717003e-06
- -8.266671102319378e-06
- 3.7628818972734734e-05
- -8.760704076848924e-06
- 6.482452590717003e-06
- -8.760704076848924e-06
- 8.65317924763076e-05
position_covariance_type: 3
---
header:
  stamp:
    sec: 1722522351
    nanosec: 502116241
  frame_id: gps_front
status:
  status: 2
  service: 3
latitude: 42.878468623053195
longitude: -77.03073488907823
altitude: 182.2023657001555
position_covariance:
- 2.6593570510158315e-05
- -8.304440598294605e-06
- 6.472907898569247e-06
- -8.304440598294605e-06
- 3.7928282836219296e-05
- -8.745398190512788e-06
- 6.472907898569247e-06
- -8.745398190512788e-06
- 8.705886284587905e-05
position_covariance_type: 3
---
header:
  stamp:
    sec: 1722522351
    nanosec: 603018749
  frame_id: gps_front
status:
  status: 2
  service: 3
latitude: 42.878468622143735
longitude: -77.03073488607497
altitude: 182.20141097996384
position_covariance:
- 2.6798421458806843e-05
- -8.480148608214222e-06
- 6.600477718166076e-06
- -8.480148608214222e-06
- 3.843473314191215e-05
- -8.800991054158658e-06
- 6.600477718166076e-06
- -8.800991054158658e-06
- 8.782179065747187e-05
position_covariance_type: 3
---
header:
  stamp:
    sec: 1722522351
    nanosec: 702484584
  frame_id: gps_front
status:
  status: 2
  service: 3
latitude: 42.878468608756684
longitude: -77.0307348755509
altitude: 182.20328992884606
position_covariance:
- 2.6814457669388503e-05
- -8.527709724148735e-06
- 6.598516392841702e-06
- -8.527709724148735e-06
- 3.8607271562796086e-05
- -8.776402864896227e-06
- 6.598516392841702e-06
- -8.776402864896227e-06
- 8.81906453287229e-05
position_covariance_type: 3
---
header:
  stamp:
    sec: 1722522351
    nanosec: 802446084
  frame_id: gps_front
status:
  status: 2
  service: 3
latitude: 42.87846861054994
longitude: -77.03073487895732
altitude: 182.20258847624063
position_covariance:
- 2.6745045033749193e-05
- -8.476953553326894e-06
- 6.473132089013234e-06
- -8.476953553326894e-06
- 3.846581603283994e-05
- -8.563735718780663e-06
- 6.473132089013234e-06
- -8.563735718780663e-06
- 8.780755888437852e-05
position_covariance_type: 3
---
header:
  stamp:
    sec: 1722522351
    nanosec: 902409483
  frame_id: gps_front
status:
  status: 2
  service: 3
latitude: 42.878468605595764
longitude: -77.03073487053511
altitude: 182.20350846461952
position_covariance:
- 2.6699806767283008e-05
- -8.34076308819931e-06
- 6.473313987953588e-06
- -8.34076308819931e-06
- 3.82452599296812e-05
- -8.456326213490684e-06
- 6.473313987953588e-06
- -8.456326213490684e-06
- 8.73142562340945e-05
position_covariance_type: 3
---
header:
  stamp:
    sec: 1722522352
    nanosec: 2641516
  frame_id: gps_front
status:
  status: 2
  service: 3
latitude: 42.87846860152372
longitude: -77.03073486761384
altitude: 182.2037530131638
position_covariance:
- 2.6679557777242735e-05
- -8.280077963718213e-06
- 6.569448032678338e-06
- -8.280077963718213e-06
- 3.81008030672092e-05
- -8.885886018106248e-06
- 6.569448032678338e-06
- -8.885886018106248e-06
- 8.74529650900513e-05
position_covariance_type: 3
---
header:
  stamp:
    sec: 1722522352
    nanosec: 102676680
  frame_id: gps_front
status:
  status: 2
  service: 3
latitude: 42.87846860196027
longitude: -77.03073487268506
altitude: 182.20481326431036
position_covariance:
- 2.6589746994432062e-05
- -8.287515811389312e-06
- 6.536735327244969e-06
- -8.287515811389312e-06
- 3.761717744055204e-05
- -9.094102097151335e-06
- 6.536735327244969e-06
- -9.094102097151335e-06
- 8.69637297000736e-05
position_covariance_type: 3
---
header:
  stamp:
    sec: 1722522352
    nanosec: 202532775
  frame_id: gps_front
status:
  status: 2
  service: 3
latitude: 42.87846861209619
longitude: -77.03073488122125
altitude: 182.2042911760509
position_covariance:
- 2.6593950678943656e-05
- -8.323886504513212e-06
- 6.642131666012574e-06
- -8.323886504513212e-06
- 3.757515878533013e-05
- -9.047957064467482e-06
- 6.642131666012574e-06
- -9.047957064467482e-06
- 8.690585673321038e-05
position_covariance_type: 3
---
header:
  stamp:
    sec: 1722522352
    nanosec: 303105422
  frame_id: gps_front
status:
  status: 2
  service: 3
latitude: 42.87846860881038
longitude: -77.0307348769074
altitude: 182.20461999531835
position_covariance:
- 2.666357613634318e-05
- -8.293373866763432e-06
- 6.709124136250466e-06
- -8.293373866763432e-06
- 3.763584027183242e-05
- -9.035738003149163e-06
- 6.709124136250466e-06
- -9.035738003149163e-06
- 8.723323117010295e-05
position_covariance_type: 3
---
header:
  stamp:
    sec: 1722522352
    nanosec: 402637272
  frame_id: gps_front
status:
  status: 2
  service: 3
latitude: 42.87846860897499
longitude: -77.03073488056991
altitude: 182.2049939148128
position_covariance:
- 2.6701580281951465e-05
- -8.328654985234607e-06
- 6.59505758449086e-06
- -8.328654985234607e-06
- 3.779866892728023e-05
- -8.704409992787987e-06
- 6.59505758449086e-06
- -8.704409992787987e-06
- 8.735110168345273e-05
position_covariance_type: 3
---
header:
  stamp:
    sec: 1722522352
    nanosec: 502406439
  frame_id: gps_front
status:
  status: 2
  service: 3
latitude: 42.87846861627665
longitude: -77.03073488613835
altitude: 182.20405126176775
position_covariance:
- 2.6643385353963822e-05
- -8.374001481570303e-06
- 6.6003617575916e-06
- -8.374001481570303e-06
- 3.803630534093827e-05
- -8.471764886053279e-06
- 6.6003617575916e-06
- -8.471764886053279e-06
- 8.717360469745472e-05
position_covariance_type: 3
---
header:
  stamp:
    sec: 1722522352
    nanosec: 602308549
  frame_id: gps_front
status:
  status: 2
  service: 3
latitude: 42.87846861535759
longitude: -77.03073488796271
altitude: 182.20547434780747
position_covariance:
- 2.670446156116668e-05
- -8.509245162713341e-06
- 6.635058070969535e-06
- -8.509245162713341e-06
- 3.853552334476262e-05
- -8.551405699108727e-06
- 6.635058070969535e-06
- -8.551405699108727e-06
- 8.778459596214816e-05
position_covariance_type: 3
---
header:
  stamp:
    sec: 1722522352
    nanosec: 702301733
  frame_id: gps_front
status:
  status: 2
  service: 3
latitude: 42.87846862005892
longitude: -77.03073487753835
altitude: 182.20720781944692
position_covariance:
- 2.684307582967449e-05
- -8.525591510988306e-06
- 6.643188953603385e-06
- -8.525591510988306e-06
- 3.885297701344825e-05
- -8.514026376360562e-06
- 6.643188953603385e-06
- -8.514026376360562e-06
- 8.840786176733673e-05
position_covariance_type: 3
---
header:
  stamp:
    sec: 1722522352
    nanosec: 802399124
  frame_id: gps_front
status:
  status: 2
  service: 3
latitude: 42.87846862369902
longitude: -77.03073488152268
altitude: 182.20721349678934
position_covariance:
- 2.6822226573131047e-05
- -8.423235158261377e-06
- 6.616870905418182e-06
- -8.423235158261377e-06
- 3.8727735955035314e-05
- -8.447046639048494e-06
- 6.616870905418182e-06
- -8.447046639048494e-06
- 8.828310819808394e-05
position_covariance_type: 3
---
header:
  stamp:
    sec: 1722522352
    nanosec: 902428917
  frame_id: gps_front
status:
  status: 2
  service: 3
latitude: 42.87846863441263
longitude: -77.03073487365725
altitude: 182.20763700734824
position_covariance:
- 2.6740126486402005e-05
- -8.3672284745262e-06
- 6.6588318077265285e-06
- -8.3672284745262e-06
- 3.8481943192891777e-05
- -8.642951797810383e-06
- 6.6588318077265285e-06
- -8.642951797810383e-06
- 8.804109529592097e-05
position_covariance_type: 3
---
header:
  stamp:
    sec: 1722522353
    nanosec: 2620421
  frame_id: gps_front
status:
  status: 2
  service: 3
latitude: 42.87846864700655
longitude: -77.030734864416
altitude: 182.20901708025485
position_covariance:
- 2.6644915124052204e-05
- -8.288378012366593e-06
- 6.566208412550623e-06
- -8.288378012366593e-06
- 3.8109075831016526e-05
- -8.860056368575897e-06
- 6.566208412550623e-06
- -8.860056368575897e-06
- 8.766896644374356e-05
position_covariance_type: 3
---
header:
  stamp:
    sec: 1722522353
    nanosec: 102199172
  frame_id: gps_front
status:
  status: 2
  service: 3
latitude: 42.87846863898699
longitude: -77.03073486422201
altitude: 182.20985715091228
position_covariance:
- 2.6527050067670643e-05
- -8.235788300225977e-06
- 6.46442458673846e-06
- -8.235788300225977e-06
- 3.752367410925217e-05
- -8.994901691039559e-06
- 6.46442458673846e-06
- -8.994901691039559e-06
- 8.686568617122248e-05
position_covariance_type: 3
---
header:
  stamp:
    sec: 1722522353
    nanosec: 202112875
  frame_id: gps_front
status:
  status: 2
  service: 3
latitude: 42.8784686344617
longitude: -77.03073486471945
altitude: 182.2089773779735
position_covariance:
- 2.6473750040167943e-05
- -8.250970495282672e-06
- 6.5969616116490215e-06
- -8.250970495282672e-06
- 3.747880691662431e-05
- -8.83397206052905e-06
- 6.5969616116490215e-06
- -8.83397206052905e-06
- 8.658999286126345e-05
position_covariance_type: 3
---
header:
  stamp:
    sec: 1722522353
    nanosec: 302786495
  frame_id: gps_front
status:
  status: 2
  service: 3
latitude: 42.87846864209413
longitude: -77.0307348601328
altitude: 182.20831128582358
position_covariance:
- 2.6404133677715436e-05
- -8.227090802392922e-06
- 6.576108717126772e-06
- -8.227090802392922e-06
- 3.755019497475587e-05
- -8.703752428118605e-06
- 6.576108717126772e-06
- -8.703752428118605e-06
- 8.664480992592871e-05
position_covariance_type: 3
---
header:
  stamp:
    sec: 1722522353
    nanosec: 402642628
  frame_id: gps_front
status:
  status: 2
  service: 3
latitude: 42.87846864203141
longitude: -77.03073486242211
altitude: 182.20723310112953
position_covariance:
- 2.6494164558243938e-05
- -8.288595381600317e-06
- 6.705074611090822e-06
- -8.288595381600317e-06
- 3.778546306421049e-05
- -8.819043614494149e-06
- 6.705074611090822e-06
- -8.819043614494149e-06
- 8.703329513082281e-05
position_covariance_type: 3
---
header:
  stamp:
    sec: 1722522353
    nanosec: 502471651
  frame_id: gps_front
status:
  status: 2
  service: 3
latitude: 42.87846864756151
longitude: -77.0307348607137
altitude: 182.20707263611257
position_covariance:
- 2.6560503101791255e-05
- -8.369281204068102e-06
- 6.723701062583132e-06
- -8.369281204068102e-06
- 3.810778434854001e-05
- -8.918942512536887e-06
- 6.723701062583132e-06
- -8.918942512536887e-06
- 8.734314178582281e-05
position_covariance_type: 3
---
header:
  stamp:
    sec: 1722522353
    nanosec: 602373369
  frame_id: gps_front
status:
  status: 2
  service: 3
latitude: 42.87846863807961
longitude: -77.03073486038079
altitude: 182.20692698471248
position_covariance:
- 2.6601308491081e-05
- -8.44762962515233e-06
- 6.529629899887368e-06
- -8.44762962515233e-06
- 3.842831210931763e-05
- -8.745197192183696e-06
- 6.529629899887368e-06
- -8.745197192183696e-06
- 8.765263191889971e-05
position_covariance_type: 3
---
header:
  stamp:
    sec: 1722522353
    nanosec: 702433955
  frame_id: gps_front
status:
  status: 2
  service: 3
latitude: 42.8784686308996
longitude: -77.03073485852045
altitude: 182.20510252099484
position_covariance:
- 2.6716677894000895e-05
- -8.580105713917874e-06
- 6.677902547380654e-06
- -8.580105713917874e-06
- 3.8638481782982126e-05
- -8.512954991601873e-06
- 6.677902547380654e-06
- -8.512954991601873e-06
- 8.799022907624021e-05
position_covariance_type: 3
---
header:
  stamp:
    sec: 1722522353
    nanosec: 802528462
  frame_id: gps_front
status:
  status: 2
  service: 3
latitude: 42.878468627745896
longitude: -77.03073485346447
altitude: 182.205446283333
position_covariance:
- 2.6771213015308604e-05
- -8.539796908735298e-06
- 6.726470019202679e-06
- -8.539796908735298e-06
- 3.8745747588109225e-05
- -8.626230737718288e-06
- 6.726470019202679e-06
- -8.626230737718288e-06
- 8.847868593875319e-05
position_covariance_type: 3
---
header:
  stamp:
    sec: 1722522353
    nanosec: 902466944
  frame_id: gps_front
status:
  status: 2
  service: 3
latitude: 42.878468626552404
longitude: -77.03073485734062
altitude: 182.2051794687286
position_covariance:
- 2.6654948669602163e-05
- -8.406371307501104e-06
- 6.6121219788328744e-06
- -8.406371307501104e-06
- 3.8471611333079636e-05
- -8.666558642289601e-06
- 6.6121219788328744e-06
- -8.666558642289601e-06
- 8.817273192107677e-05
position_covariance_type: 3
---
header:
  stamp:
    sec: 1722522354
    nanosec: 2678780
  frame_id: gps_front
status:
  status: 2
  service: 3
latitude: 42.87846862649934
longitude: -77.03073485128843
altitude: 182.20527534838766
position_covariance:
- 2.6475736376596615e-05
- -8.387335583392996e-06
- 6.603827841900056e-06
- -8.387335583392996e-06
- 3.7915175198577344e-05
- -8.772909495746717e-06
- 6.603827841900056e-06
- -8.772909495746717e-06
- 8.716501179151237e-05
position_covariance_type: 3
---
header:
  stamp:
    sec: 1722522354
    nanosec: 102220980
  frame_id: gps_front
status:
  status: 2
  service: 3
latitude: 42.87846862785524
longitude: -77.03073484735127
altitude: 182.204275643453
position_covariance:
- 2.638223668327555e-05
- -8.308166798087768e-06
- 6.557886081282049e-06
- -8.308166798087768e-06
- 3.739156454685144e-05
- -9.047628736880142e-06
- 6.557886081282049e-06
- -9.047628736880142e-06
- 8.635539415990934e-05
position_covariance_type: 3
---
header:
  stamp:
    sec: 1722522354
    nanosec: 202614142
  frame_id: gps_front
status:
  status: 2
  service: 3
latitude: 42.87846862231178
longitude: -77.03073484356165
altitude: 182.20403896830976
position_covariance:
- 2.6416388209327124e-05
- -8.249227903434075e-06
- 6.488877261290327e-06
- -8.249227903434075e-06
- 3.7422443710966036e-05
- -8.9172053776565e-06
- 6.488877261290327e-06
- -8.9172053776565e-06
- 8.632073877379298e-05
position_covariance_type: 3
---
header:
  stamp:
    sec: 1722522354
    nanosec: 302256084
  frame_id: gps_front
status:
  status: 2
  service: 3
latitude: 42.87846862629668
longitude: -77.0307348452775
altitude: 182.20271441712976
position_covariance:
- 2.6407315090182237e-05
- -8.28436986921588e-06
- 6.598717845918145e-06
- -8.28436986921588e-06
- 3.7585738027701154e-05
- -8.82806762092514e-06
- 6.598717845918145e-06
- -8.82806762092514e-06
- 8.655565034132451e-05
position_covariance_type: 3
---
header:
  stamp:
    sec: 1722522354
    nanosec: 402236749
  frame_id: gps_front
status:
  status: 2
  service: 3
latitude: 42.87846862541915
longitude: -77.03073485682187
altitude: 182.20216588117182
position_covariance:
- 2.6422359951538965e-05
- -8.313556463690475e-06
- 6.6436437009542715e-06
- -8.313556463690475e-06
- 3.779152757488191e-05
- -8.973901458375622e-06
- 6.6436437009542715e-06
- -8.973901458375622e-06
- 8.71081356308423e-05
position_covariance_type: 3
---
header:
  stamp:
    sec: 1722522354
    nanosec: 502614458
  frame_id: gps_front
status:
  status: 2
  service: 3
latitude: 42.878468630315105
longitude: -77.03073484611575
altitude: 182.20247396454215
position_covariance:
- 2.6456647901795805e-05
- -8.353771590918768e-06
- 6.667388788628159e-06
- -8.353771590918768e-06
- 3.7971152778482065e-05
- -8.908369636628777e-06
- 6.667388788628159e-06
- -8.908369636628777e-06
- 8.720058394828811e-05
position_covariance_type: 3
---
header:
  stamp:
    sec: 1722522354
    nanosec: 602688531
  frame_id: gps_front
status:
  status: 2
  service: 3
latitude: 42.87846862740935
longitude: -77.03073485179631
altitude: 182.20114079210907
position_covariance:
- 2.6549607355264015e-05
- -8.525227713107597e-06
- 6.63966193314991e-06
- -8.525227713107597e-06
- 3.833831215160899e-05
- -8.71536394697614e-06
- 6.63966193314991e-06
- -8.71536394697614e-06
- 8.760733180679381e-05
position_covariance_type: 3
---
header:
  stamp:
    sec: 1722522354
    nanosec: 702403056
  frame_id: gps_front
status:
  status: 2
  service: 3
latitude: 42.878468647983645
longitude: -77.03073485809992
altitude: 182.20155300945044
position_covariance:
- 2.6585299565340392e-05
- -8.532751962775365e-06
- 6.5447125052742194e-06
- -8.532751962775365e-06
- 3.853103407891467e-05
- -8.702622835699003e-06
- 6.5447125052742194e-06
- -8.702622835699003e-06
- 8.802848606137559e-05
position_covariance_type: 3
---
header:
  stamp:
    sec: 1722522354
    nanosec: 802138484
  frame_id: gps_front
status:
  status: 2
  service: 3
latitude: 42.8784686514931
longitude: -77.030734862983
altitude: 182.19991475436836
position_covariance:
- 2.6531253752182238e-05
- -8.427402462984901e-06
- 6.4632922658347525e-06
- -8.427402462984901e-06
- 3.845055471174419e-05
- -8.507568054483272e-06
- 6.4632922658347525e-06
- -8.507568054483272e-06
- 8.781238284427673e-05
position_covariance_type: 3
---
header:
  stamp:
    sec: 1722522354
    nanosec: 902393411
  frame_id: gps_front
status:
  status: 2
  service: 3
latitude: 42.878468651795714
longitude: -77.03073487534078
altitude: 182.1996894897893
position_covariance:
- 2.6525271096033975e-05
- -8.36984963825671e-06
- 6.419601049856283e-06
- -8.36984963825671e-06
- 3.8273043173830956e-05
- -8.513480679539498e-06
- 6.419601049856283e-06
- -8.513480679539498e-06
- 8.767299732426181e-05
position_covariance_type: 3
---
header:
  stamp:
    sec: 1722522355
    nanosec: 2452354
  frame_id: gps_front
status:
  status: 2
  service: 3
latitude: 42.87846865119848
longitude: -77.03073488164657
altitude: 182.19937373232096
position_covariance:
- 2.642141407704912e-05
- -8.317744686792139e-06
- 6.491035037470283e-06
- -8.317744686792139e-06
- 3.789564289036207e-05
- -8.610111763118766e-06
- 6.491035037470283e-06
- -8.610111763118766e-06
- 8.700157923158258e-05
position_covariance_type: 3
---
header:
  stamp:
    sec: 1722522355
    nanosec: 102359585
  frame_id: gps_front
status:
  status: 2
  service: 3
latitude: 42.878468656392414
longitude: -77.0307348796753
altitude: 182.20021021272987
position_covariance:
- 2.6174668164458126e-05
- -8.206731763493735e-06
- 6.494036369986134e-06
- -8.206731763493735e-06
- 3.7285670259734616e-05
- -8.733793947612867e-06
- 6.494036369986134e-06
- -8.733793947612867e-06
- 8.572582009946927e-05
position_covariance_type: 3
---
header:
  stamp:
    sec: 1722522355
    nanosec: 202571723
  frame_id: gps_front
status:
  status: 2
  service: 3
latitude: 42.87846865314068
longitude: -77.03073488119935
altitude: 182.19965960271657
position_covariance:
- 2.6199269996141084e-05
- -8.185457772924565e-06
- 6.528805442940211e-06
- -8.185457772924565e-06
- 3.732866025529802e-05
- -8.871487807482481e-06
- 6.528805442940211e-06
- -8.871487807482481e-06
- 8.586468902649358e-05
position_covariance_type: 3
---
header:
  stamp:
    sec: 1722522355
    nanosec: 302489617
  frame_id: gps_front
status:
  status: 2
  service: 3
latitude: 42.87846865407228
longitude: -77.0307348716989
altitude: 182.20166465919465
position_covariance:
- 2.622184001666028e-05
- -8.234371307480615e-06
- 6.500250947283348e-06
- -8.234371307480615e-06
- 3.746149377548136e-05
- -8.730862646189053e-06
- 6.500250947283348e-06
- -8.730862646189053e-06
- 8.6136584286578e-05
position_covariance_type: 3
---
header:
  stamp:
    sec: 1722522355
    nanosec: 402408147
  frame_id: gps_front
status:
  status: 2
  service: 3
latitude: 42.87846864802811
longitude: -77.0307348751714
altitude: 182.20175861101598
position_covariance:
- 2.6220390282105654e-05
- -8.316220373671968e-06
- 6.606645001738798e-06
- -8.316220373671968e-06
- 3.7644731492036954e-05
- -8.821944902592804e-06
- 6.606645001738798e-06
- -8.821944902592804e-06
- 8.631022501504049e-05
position_covariance_type: 3
---
header:
  stamp:
    sec: 1722522355
    nanosec: 502577531
  frame_id: gps_front
status:
  status: 2
  service: 3
latitude: 42.87846865546982
longitude: -77.03073487133125
altitude: 182.20080229267478
position_covariance:
- 2.623383261379786e-05
- -8.330066521011759e-06
- 6.590433713427046e-06
- -8.330066521011759e-06
- 3.791231938521378e-05
- -8.901751243683975e-06
- 6.590433713427046e-06
- -8.901751243683975e-06
- 8.6550775449723e-05
position_covariance_type: 3
---
header:
  stamp:
    sec: 1722522355
    nanosec: 602559144
  frame_id: gps_front
status:
  status: 2
  service: 3
latitude: 42.878468654604866
longitude: -77.03073487843203
altitude: 182.2017196798697
position_covariance:
- 2.6353471184847876e-05
- -8.455453098576982e-06
- 6.484542609541677e-06
- -8.455453098576982e-06
- 3.8394256989704445e-05
- -8.747696483624168e-06
- 6.484542609541677e-06
- -8.747696483624168e-06
- 8.734474249649793e-05
position_covariance_type: 3
---
header:
  stamp:
    sec: 1722522355
    nanosec: 702353714
  frame_id: gps_front
status:
  status: 2
  service: 3
latitude: 42.87846865005229
longitude: -77.03073488083777
altitude: 182.20145690348
position_covariance:
- 2.646817847562488e-05
- -8.518573849869426e-06
- 6.562205271620769e-06
- -8.518573849869426e-06
- 3.864856262225658e-05
- -8.72139116836479e-06
- 6.562205271620769e-06
- -8.72139116836479e-06
- 8.798833732726052e-05
position_covariance_type: 3
---
header:
  stamp:
    sec: 1722522355
    nanosec: 802609866
  frame_id: gps_front
status:
  status: 2
  service: 3
latitude: 42.878468650383454
longitude: -77.03073489120695
altitude: 182.20112152490765
position_covariance:
- 2.6375770175945945e-05
- -8.431923561147414e-06
- 6.499623850686476e-06
- -8.431923561147414e-06
- 3.85538769478444e-05
- -8.603062269685324e-06
- 6.499623850686476e-06
- -8.603062269685324e-06
- 8.764956874074414e-05
position_covariance_type: 3
---
header:
  stamp:
    sec: 1722522355
    nanosec: 902213105
  frame_id: gps_front
status:
  status: 2
  service: 3
latitude: 42.878468646814966
longitude: -77.03073490623588
altitude: 182.19991840887815
position_covariance:
- 2.6225305191474035e-05
- -8.333907317137346e-06
- 6.437745469156653e-06
- -8.333907317137346e-06
- 3.8335914723575115e-05
- -8.551156497560441e-06
- 6.437745469156653e-06
- -8.551156497560441e-06
- 8.69862997205928e-05
position_covariance_type: 3
---
header:
  stamp:
    sec: 1722522356
    nanosec: 3365461
  frame_id: gps_front
status:
  status: 2
  service: 3
latitude: 42.878468651084916
longitude: -77.03073491354866
altitude: 182.20128435455263
position_covariance:
- 2.6159905246458948e-05
- -8.289364814118017e-06
- 6.441152891056845e-06
- -8.289364814118017e-06
- 3.7958128814352676e-05
- -8.661447282065637e-06
- 6.441152891056845e-06
- -8.661447282065637e-06
- 8.654464181745425e-05
position_covariance_type: 3
---
header:
  stamp:
    sec: 1722522356
    nanosec: 102184095
  frame_id: gps_front
status:
  status: 2
  service: 3
latitude: 42.87846865222933
longitude: -77.03073490862785
altitude: 182.1995474975556
position_covariance:
- 2.6023370082839392e-05
- -8.217179129133001e-06
- 6.38685014564544e-06
- -8.217179129133001e-06
- 3.729832315002568e-05
- -8.739499207877088e-06
- 6.38685014564544e-06
- -8.739499207877088e-06
- 8.566341421101242e-05
position_covariance_type: 3
---
header:
  stamp:
    sec: 1722522356
    nanosec: 202459166
  frame_id: gps_front
status:
  status: 2
  service: 3
latitude: 42.8784686562756
longitude: -77.03073490675833
altitude: 182.19932255893946
position_covariance:
- 2.603472603368573e-05
- -8.15732255432522e-06
- 6.390108865161892e-06
- -8.15732255432522e-06
- 3.743076740647666e-05
- -8.745074410398956e-06
- 6.390108865161892e-06
- -8.745074410398956e-06
- 8.583887392887846e-05
position_covariance_type: 3
---
header:
  stamp:
    sec: 1722522356
    nanosec: 302577085
  frame_id: gps_front
status:
  status: 2
  service: 3
latitude: 42.87846865126634
longitude: -77.03073490602011
altitude: 182.20091042295098
position_covariance:
- 2.6007406631833874e-05
- -8.1814232544275e-06
- 6.489809948106995e-06
- -8.1814232544275e-06
- 3.755909710889682e-05
- -8.761231583775952e-06
- 6.489809948106995e-06
- -8.761231583775952e-06
- 8.585467003285885e-05
position_covariance_type: 3
---
header:
  stamp:
    sec: 1722522356
    nanosec: 402161475
  frame_id: gps_front
status:
  status: 2
  service: 3
latitude: 42.87846864134698
longitude: -77.03073490129393
altitude: 182.2003983259201
position_covariance:
- 2.5964243832277134e-05
- -8.200458069040906e-06
- 6.428486358345253e-06
- -8.200458069040906e-06
- 3.758160164579749e-05
- -8.4980920291855e-06
- 6.428486358345253e-06
- -8.4980920291855e-06
- 8.55587495607324e-05
position_covariance_type: 3
---
header:
  stamp:
    sec: 1722522356
    nanosec: 502452589
  frame_id: gps_front
status:
  status: 2
  service: 3
latitude: 42.878468653433266
longitude: -77.0307348952269
altitude: 182.20039717387408
position_covariance:
- 2.6051673557958566e-05
- -8.282819180749357e-06
- 6.378657417371869e-06
- -8.282819180749357e-06
- 3.785822627833113e-05
- -8.437388714810368e-06
- 6.378657417371869e-06
- -8.437388714810368e-06
- 8.607294876128435e-05
position_covariance_type: 3
---
header:
  stamp:
    sec: 1722522356
    nanosec: 602723511
  frame_id: gps_front
status:
  status: 2
  service: 3
latitude: 42.87846865163571
longitude: -77.03073489249147
altitude: 182.20307099167258
position_covariance:
- 2.619275255710818e-05
- -8.40089614939643e-06
- 6.313753146969248e-06
- -8.40089614939643e-06
- 3.837602707790211e-05
- -8.621786037110724e-06
- 6.313753146969248e-06
- -8.621786037110724e-06
- 8.704010542714968e-05
position_covariance_type: 3
---
header:
  stamp:
    sec: 1722522356
    nanosec: 702593623
  frame_id: gps_front
status:
  status: 2
  service: 3
latitude: 42.87846864688124
longitude: -77.03073489424963
altitude: 182.20646036881953
position_covariance:
- 2.6239613362122327e-05
- -8.371159310627263e-06
- 6.238949481485179e-06
- -8.371159310627263e-06
- 3.873895184369758e-05
- -8.646282367408276e-06
- 6.238949481485179e-06
- -8.646282367408276e-06
- 8.756829629419371e-05
position_covariance_type: 3
---
header:
  stamp:
    sec: 1722522356
    nanosec: 802617306
  frame_id: gps_front
status:
  status: 2
  service: 3
latitude: 42.87846864628462
longitude: -77.03073488732349
altitude: 182.20818963181227
position_covariance:
- 2.6225121473544277e-05
- -8.44211990624899e-06
- 6.417365966626676e-06
- -8.44211990624899e-06
- 3.868525891448371e-05
- -8.471324690617621e-06
- 6.417365966626676e-06
- -8.471324690617621e-06
- 8.738339238334447e-05
position_covariance_type: 3
---
header:
  stamp:
    sec: 1722522356
    nanosec: 902355239
  frame_id: gps_front
status:
  status: 2
  service: 3
latitude: 42.878468639843376
longitude: -77.03073487768131
altitude: 182.20944892335683
position_covariance:
- 2.6170404453296214e-05
- -8.382663509109989e-06
- 6.444481186917983e-06
- -8.382663509109989e-06
- 3.837390249827877e-05
- -8.342632099811453e-06
- 6.444481186917983e-06
- -8.342632099811453e-06
- 8.70359581313096e-05
position_covariance_type: 3
---
header:
  stamp:
    sec: 1722522357
    nanosec: 2735566
  frame_id: gps_front
status:
  status: 2
  service: 3
latitude: 42.87846863106686
longitude: -77.03073488281132
altitude: 182.21270868368447
position_covariance:
- 2.5968513000407256e-05
- -8.228892511397135e-06
- 6.291687441262184e-06
- -8.228892511397135e-06
- 3.7921527109574527e-05
- -8.493433597323019e-06
- 6.291687441262184e-06
- -8.493433597323019e-06
- 8.646483911434188e-05
position_covariance_type: 3
---
header:
  stamp:
    sec: 1722522357
    nanosec: 102208297
  frame_id: gps_front
status:
  status: 2
  service: 3
latitude: 42.878468636002296
longitude: -77.03073487362718
altitude: 182.2129945224151
position_covariance:
- 2.5765737518668175e-05
- -8.168592103174888e-06
- 6.308235242613591e-06
- -8.168592103174888e-06
- 3.723630652530119e-05
- -8.518130016454961e-06
- 6.308235242613591e-06
- -8.518130016454961e-06
- 8.511410123901442e-05
position_covariance_type: 3
---
header:
  stamp:
    sec: 1722522357
    nanosec: 202678144
  frame_id: gps_front
status:
  status: 2
  service: 3
latitude: 42.87846863643225
longitude: -77.03073487778241
altitude: 182.21243832167238
position_covariance:
- 2.5877221560222097e-05
- -8.203973266063258e-06
- 6.39190329820849e-06
- -8.203973266063258e-06
- 3.723816917045042e-05
- -8.464118764095474e-06
- 6.39190329820849e-06
- -8.464118764095474e-06
- 8.519284892827272e-05
position_covariance_type: 3
---
header:
  stamp:
    sec: 1722522357
    nanosec: 302231207
  frame_id: gps_front
status:
  status: 2
  service: 3
latitude: 42.87846864873631
longitude: -77.0307348815737
altitude: 182.2133709937334
position_covariance:
- 2.5878465748974122e-05
- -8.177506970241666e-06
- 6.286310963332653e-06
- -8.177506970241666e-06
- 3.7324247387005016e-05
- -8.314129445352592e-06
- 6.286310963332653e-06
- -8.314129445352592e-06
- 8.526685269316658e-05
position_covariance_type: 3
---
header:
  stamp:
    sec: 1722522357
    nanosec: 402579755
  frame_id: gps_front
status:
  status: 2
  service: 3
latitude: 42.878468641407984
longitude: -77.0307348814413
altitude: 182.2129353247583
position_covariance:
- 2.582389788585715e-05
- -8.136358701449353e-06
- 6.203087650646921e-06
- -8.136358701449353e-06
- 3.7442834582179785e-05
- -8.156330295605585e-06
- 6.203087650646921e-06
- -8.156330295605585e-06
- 8.523745782440528e-05
position_covariance_type: 3
---
header:
  stamp:
    sec: 1722522357
    nanosec: 502147110
  frame_id: gps_front
status:
  status: 2
  service: 3
latitude: 42.8784686378132
longitude: -77.03073489159127
altitude: 182.2145253866911
position_covariance:
- 2.584677167760674e-05
- -8.205855920095928e-06
- 6.200672032719012e-06
- -8.205855920095928e-06
- 3.774540891754441e-05
- -8.419885489274748e-06
- 6.200672032719012e-06
- -8.419885489274748e-06
- 8.587092452216893e-05
position_covariance_type: 3
---
header:
  stamp:
    sec: 1722522357
    nanosec: 602461443
  frame_id: gps_front
status:
  status: 2
  service: 3
latitude: 42.87846862728204
longitude: -77.03073487450666
altitude: 182.2148657348007
position_covariance:
- 2.59569933405146e-05
- -8.396254088438582e-06
- 6.15737963016727e-06
- -8.396254088438582e-06
- 3.8121597754070535e-05
- -8.502506716467906e-06
- 6.15737963016727e-06
- -8.502506716467906e-06
- 8.657393482280895e-05
position_covariance_type: 3
---
header:
  stamp:
    sec: 1722522357
    nanosec: 702546932
  frame_id: gps_front
status:
  status: 2
  service: 3
latitude: 42.87846862089267
longitude: -77.0307348669675
altitude: 182.2150552412495
position_covariance:
- 2.601898813736625e-05
- -8.36721756058978e-06
- 6.199023573572049e-06
- -8.36721756058978e-06
- 3.83161059289705e-05
- -8.443626029475126e-06
- 6.199023573572049e-06
- -8.443626029475126e-06
- 8.689509559189901e-05
position_covariance_type: 3
---
header:
  stamp:
    sec: 1722522357
    nanosec: 802410009
  frame_id: gps_front
status:
  status: 2
  service: 3
latitude: 42.878468607589156
longitude: -77.03073484395141
altitude: 182.21506574563682
position_covariance:
- 2.5997074772021733e-05
- -8.284751856990624e-06
- 6.315358405117877e-06
- -8.284751856990624e-06
- 3.8268954085651785e-05
- -8.494787834933959e-06
- 6.315358405117877e-06
- -8.494787834933959e-06
- 8.666333451401442e-05
position_covariance_type: 3
---
header:
  stamp:
    sec: 1722522357
    nanosec: 906783473
  frame_id: gps_front
status:
  status: 2
  service: 3
latitude: 42.87846861032959
longitude: -77.0307348411416
altitude: 182.21460808906704
position_covariance:
- 2.5951168936444446e-05
- -8.232853360823356e-06
- 6.3262018556997646e-06
- -8.232853360823356e-06
- 3.8131242035888135e-05
- -8.482906196149997e-06
- 6.3262018556997646e-06
- -8.482906196149997e-06
- 8.632351091364399e-05
position_covariance_type: 3
---
header:
  stamp:
    sec: 1722522358
    nanosec: 2846862
  frame_id: gps_front
status:
  status: 2
  service: 3
latitude: 42.87846859536173
longitude: -77.03073482771535
altitude: 182.21515204850584
position_covariance:
- 2.5859630113700405e-05
- -8.230005732912105e-06
- 6.232878604350844e-06
- -8.230005732912105e-06
- 3.786399247474037e-05
- -8.545196578779723e-06
- 6.232878604350844e-06
- -8.545196578779723e-06
- 8.6076463048812e-05
position_covariance_type: 3
---
header:
  stamp:
    sec: 1722522358
    nanosec: 102206116
  frame_id: gps_front
status:
  status: 2
  service: 3
latitude: 42.878468597021474
longitude: -77.0307348362593
altitude: 182.21648318506777
position_covariance:
- 2.5785579055082053e-05
- -8.245848221122287e-06
- 6.307766398094827e-06
- -8.245848221122287e-06
- 3.7449601222760975e-05
- -8.908893505576998e-06
- 6.307766398094827e-06
- -8.908893505576998e-06
- 8.564526797272265e-05
position_covariance_type: 3
---
header:
  stamp:
    sec: 1722522358
    nanosec: 202271895
  frame_id: gps_front
status:
  status: 2
  service: 3
latitude: 42.878468600257236
longitude: -77.0307348408345
altitude: 182.21633773017675
position_covariance:
- 2.579411375336349e-05
- -8.180919394362718e-06
- 6.341493190120673e-06
- -8.180919394362718e-06
- 3.744396599358879e-05
- -8.92370462679537e-06
- 6.341493190120673e-06
- -8.92370462679537e-06
- 8.557736873626709e-05
position_covariance_type: 3
---
header:
  stamp:
    sec: 1722522358
    nanosec: 302569031
  frame_id: gps_front
status:
  status: 2
  service: 3
latitude: 42.87846859202924
longitude: -77.03073483758824
altitude: 182.21483429148793
position_covariance:
- 2.575267353677191e-05
- -8.122671715682372e-06
- 6.308260708465241e-06
- -8.122671715682372e-06
- 3.732496770680882e-05
- -8.647702998132445e-06
- 6.308260708465241e-06
- -8.647702998132445e-06
- 8.51619042805396e-05
position_covariance_type: 3
---
header:
  stamp:
    sec: 1722522358
    nanosec: 402582330
  frame_id: gps_front
status:
  status: 2
  service: 3
latitude: 42.87846860177802
longitude: -77.03073484315382
altitude: 182.21397533081472
position_covariance:
- 2.578867679403629e-05
- -8.098377293208614e-06
- 6.146000032458687e-06
- -8.098377293208614e-06
- 3.7470166716957465e-05
- -8.596491170465015e-06
- 6.146000032458687e-06
- -8.596491170465015e-06
- 8.560360583942384e-05
position_covariance_type: 3
---
header:
  stamp:
    sec: 1722522358
    nanosec: 502446858
  frame_id: gps_front
status:
  status: 2
  service: 3
latitude: 42.87846859279291
longitude: -77.03073484175557
altitude: 182.21488327533007
position_covariance:
- 2.586808113846928e-05
- -8.190322660084348e-06
- 6.094468062656233e-06
- -8.190322660084348e-06
- 3.778385143959895e-05
- -8.674789569340646e-06
- 6.094468062656233e-06
- -8.674789569340646e-06
- 8.61400185385719e-05
position_covariance_type: 3
---
header:
  stamp:
    sec: 1722522358
    nanosec: 602127198
  frame_id: gps_front
status:
  status: 2
  service: 3
latitude: 42.87846859592455
longitude: -77.03073484280765
altitude: 182.21307425852865
position_covariance:
- 2.595290970930364e-05
- -8.448556400253437e-06
- 6.240185484784888e-06
- -8.448556400253437e-06
- 3.822012877208181e-05
- -8.556664397474378e-06
- 6.240185484784888e-06
- -8.556664397474378e-06
- 8.647979848319665e-05
position_covariance_type: 3
---
header:
  stamp:
    sec: 1722522358
    nanosec: 702717409
  frame_id: gps_front
status:
  status: 2
  service: 3
latitude: 42.8784686013311
longitude: -77.0307348469609
altitude: 182.2090736264363
position_covariance:
- 2.592101191112306e-05
- -8.431948117504362e-06
- 6.243835287023103e-06
- -8.431948117504362e-06
- 3.844105958705768e-05
- -8.520794835931156e-06
- 6.243835287023103e-06
- -8.520794835931156e-06
- 8.667567453812808e-05
position_covariance_type: 3
---
header:
  stamp:
    sec: 1722522358
    nanosec: 802427392
  frame_id: gps_front
status:
  status: 2
  service: 3
latitude: 42.878468607554645
longitude: -77.03073484653622
altitude: 182.20631935540587
position_covariance:
- 2.5835177439148538e-05
- -8.344175512320362e-06
- 6.099584879848408e-06
- -8.344175512320362e-06
- 3.8325131754390895e-05
- -8.34297406981932e-06
- 6.099584879848408e-06
- -8.34297406981932e-06
- 8.632062963442877e-05
position_covariance_type: 3
---
header:
  stamp:
    sec: 1722522358
    nanosec: 902392599
  frame_id: gps_front
status:
  status: 2
  service: 3
latitude: 42.878468612185074
longitude: -77.03073484413684
altitude: 182.2039300603792
position_covariance:
- 2.5767190891201608e-05
- -8.236999747168738e-06
- 5.975981821393361e-06
- -8.236999747168738e-06
- 3.807583561865613e-05
- -8.077166967268568e-06
- 5.975981821393361e-06
- -8.077166967268568e-06
- 8.585058822063729e-05
position_covariance_type: 3
---
header:
  stamp:
    sec: 1722522359
    nanosec: 2651654
  frame_id: gps_front
status:
  status: 2
  service: 3
latitude: 42.878468620428855
longitude: -77.03073484314386
altitude: 182.2034685080871
position_covariance:
- 2.5760598873603158e-05
- -8.258109119196888e-06
- 6.083180323912529e-06
- -8.258109119196888e-06
- 3.790382106672041e-05
- -8.502105629304424e-06
- 6.083180323912529e-06
- -8.502105629304424e-06
- 8.583797898609191e-05
position_covariance_type: 3
---
header:
  stamp:
    sec: 1722522359
    nanosec: 102193479
  frame_id: gps_front
status:
  status: 2
  service: 3
latitude: 42.87846862304415
longitude: -77.03073484345559
altitude: 182.20334278326482
position_covariance:
- 2.5642928449087776e-05
- -8.265996257250663e-06
- 6.066332389309537e-06
- -8.265996257250663e-06
- 3.7357971450546756e-05
- -8.703672392584849e-06
- 6.066332389309537e-06
- -8.703672392584849e-06
- 8.512337080901489e-05
position_covariance_type: 3
---
header:
  stamp:
    sec: 1722522359
    nanosec: 202637414
  frame_id: gps_front
status:
  status: 2
  service: 3
latitude: 42.87846862379388
longitude: -77.0307348426519
altitude: 182.20185740478337
position_covariance:
- 2.5671522962511517e-05
- -8.216527930926532e-06
- 6.081138053559698e-06
- -8.216527930926532e-06
- 3.74740338884294e-05
- -8.562456059735268e-06
- 6.081138053559698e-06
- -8.562456059735268e-06
- 8.521449490217492e-05
position_covariance_type: 3
---
header:
  stamp:
    sec: 1722522359
    nanosec: 302588769
  frame_id: gps_front
status:
  status: 2
  service: 3
latitude: 42.878468617289194
longitude: -77.03073484678679
altitude: 182.2024384168908
position_covariance:
- 2.5640205421950668e-05
- -8.204119694710243e-06
- 6.131465852377005e-06
- -8.204119694710243e-06
- 3.7570200220216066e-05
- -8.52685570862377e-06
- 6.131465852377005e-06
- -8.52685570862377e-06
- 8.510160114383325e-05
position_covariance_type: 3
---
header:
  stamp:
    sec: 1722522359
    nanosec: 402600655
  frame_id: gps_front
status:
  status: 2
  service: 3
latitude: 42.87846862350081
longitude: -77.03073484389115
altitude: 182.2022152170539
position_covariance:
- 2.564507485658396e-05
- -8.218278708227444e-06
- 6.068714810680831e-06
- -8.218278708227444e-06
- 3.75653435185086e-05
- -8.356571015610825e-06
- 6.068714810680831e-06
- -8.356571015610825e-06
- 8.507544407621026e-05
position_covariance_type: 3
---
header:
  stamp:
    sec: 1722522359
    nanosec: 502510198
  frame_id: gps_front
status:
  status: 2
  service: 3
latitude: 42.87846862794816
longitude: -77.0307348425766
altitude: 182.20118873100728
position_covariance:
- 2.5764906240510754e-05
- -8.292744496429805e-06
- 6.048460818419699e-06
- -8.292744496429805e-06
- 3.786999513977207e-05
- -8.485331818519626e-06
- 6.048460818419699e-06
- -8.485331818519626e-06
- 8.577432163292542e-05
position_covariance_type: 3
---
header:
  stamp:
    sec: 1722522359
    nanosec: 602604824
  frame_id: gps_front
status:
  status: 2
  service: 3
latitude: 42.878468625672454
longitude: -77.0307348415066
altitude: 182.20214266236871
position_covariance:
- 2.57974534179084e-05
- -8.3736922533717e-06
- 5.9562225942499936e-06
- -8.3736922533717e-06
- 3.822728103841655e-05
- -8.571486432629172e-06
- 5.9562225942499936e-06
- -8.571486432629172e-06
- 8.645332854939625e-05
position_covariance_type: 3
---
header:
  stamp:
    sec: 1722522359
    nanosec: 702744907
  frame_id: gps_front
status:
  status: 2
  service: 3
latitude: 42.87846862244963
longitude: -77.03073483666189
altitude: 182.20406750030816
position_covariance:
- 2.590326221252326e-05
- -8.341165994352195e-06
- 6.0281186051724944e-06
- -8.341165994352195e-06
- 3.849530185107142e-05
- -8.645249181427062e-06
- 6.0281186051724944e-06
- -8.645249181427062e-06
- 8.692791016073897e-05
position_covariance_type: 3
---
header:
  stamp:
    sec: 1722522359
    nanosec: 802370769
  frame_id: gps_front
status:
  status: 2
  service: 3
latitude: 42.878468627350664
longitude: -77.03073483004184
altitude: 182.20508648268878
position_covariance:
- 2.5946495952666737e-05
- -8.375814104510937e-06
- 6.1055829974066e-06
- -8.375814104510937e-06
- 3.8609399780398235e-05
- -8.462103323836345e-06
- 6.1055829974066e-06
- -8.462103323836345e-06
- 8.696186705492437e-05
position_covariance_type: 3
---
header:
  stamp:
    sec: 1722522359
    nanosec: 902372569
  frame_id: gps_front
status:
  status: 2
  service: 3
latitude: 42.87846864051967
longitude: -77.03073482310673
altitude: 182.2068956810981
position_covariance:
- 2.5799126888159662e-05
- -8.350490134034771e-06
- 6.055996436771238e-06
- -8.350490134034771e-06
- 3.840240970021114e-05
- -8.309493750857655e-06
- 6.055996436771238e-06
- -8.309493750857655e-06
- 8.628620707895607e-05
position_covariance_type: 3
---
header:
  stamp:
    sec: 1722522360
    nanosec: 2444857
  frame_id: gps_front
status:
  status: 2
  service: 3
latitude: 42.8784686320755
longitude: -77.03073482139372
altitude: 182.20950941275805
position_covariance:
- 2.5681827537482604e-05
- -8.215944944822695e-06
- 5.883488483959809e-06
- -8.215944944822695e-06
- 3.79003795387689e-05
- -8.53217989060795e-06
- 5.883488483959809e-06
- -8.53217989060795e-06
- 8.555683598387986e-05
position_covariance_type: 3
---
header:
  stamp:
    sec: 1722522360
    nanosec: 102192071
  frame_id: gps_front
status:
  status: 2
  service: 3
latitude: 42.87846863268124
longitude: -77.03073481852815
altitude: 182.20861754193902
position_covariance:
- 2.558759842941072e-05
- -8.180719305528328e-06
- 5.864565991942072e-06
- -8.180719305528328e-06
- 3.7342862924560905e-05
- -8.6233640104183e-06
- 5.864565991942072e-06
- -8.6233640104183e-06
- 8.48589843371883e-05
position_covariance_type: 3
---
header:
  stamp:
    sec: 1722522360
    nanosec: 203050229
  frame_id: gps_front
status:
  status: 2
  service: 3
latitude: 42.87846864355138
longitude: -77.03073481756718
