header:
  stamp:
    sec: 1722521594
    nanosec: 100820886
  frame_id: gps_front
pose:
  pose:
    position:
      x: -77.03073486564975
      y: 42.87846867373085
      z: 182.18214607518166
    orientation:
      x: 0.0010075167587629498
      y: 0.024207134626202106
      z: -0.04157244392992461
      w: 0.9988416948890666
  covariance:
  - 2.2451769837061875e-05
  - -4.971313956048107e-06
  - 4.174442892690422e-06
  - 0.0
  - 0.0
  - 0.0
  - -4.971313956048107e-06
  - 3.3181851904373616e-05
  - -6.270925496210111e-06
  - 0.0
  - 0.0
  - 0.0
  - 4.174442892690422e-06
  - -6.270925496210111e-06
  - 9.09541777218692e-05
  - 0.0
  - 0.0
  - 0.0
  - 0.0
  - 0.0
  - 0.0
  - 0.0
  - 0.0
  - 0.0
  - 0.0
  - 0.0
  - 0.0
  - 0.0
  - 3.957730223191902e-05
  - 7.4883450906781945e-06
  - 0.0
  - 0.0
  - 0.0
  - 0.0
  - 7.4883450906781945e-06
  - 1.3311597285792232e-05
---
header:
  stamp:
    sec: 1722521594
    nanosec: 201396588
  frame_id: gps_front
pose:
  pose:
    position:
      x: -77.03073485892514
      y: 42.87846866847259
      z: 182.18369696848094
    orientation:
      x: 0.001004350477882672
      y: 0.024203781312336664
      z: -0.041447756026340404
      w: 0.9988469611360307
  covariance:
  - 2.2363756215781905e-05
  - -4.928769158141222e-06
  - 4.366992016002769e-06
  - 0.0
  - 0.0
  - 0.0
  - -4.928769158141222e-06
  - 3.305684731458314e-05
  - -6.149467935756547e-06
  - 0.0
  - 0.0
  - 0.0
  - 4.366992016002769e-06
  - -6.149467935756547e-06
  - 9.032998787006363e-05
  - 0.0
  - 0.0
  - 0.0
  - 0.0
  - 0.0
  - 0.0
  - 0.0
  - 0.0
  - 0.0
  - 0.0
  - 0.0
  - 0.0
  - 0.0
  - 3.9607792132301256e-05
  - 7.4936201599484775e-06
  - 0.0
  - 0.0
  - 0.0
  - 0.0
  - 7.4936201599484775e-06
  - 1.3320097423275001e-05
---
header:
  stamp:
    sec: 1722521594
    nanosec: 300807566
  frame_id: gps_front
pose:
  pose:
    position:
      x: -77.03073486076867
      y: 42.87846866362816
      z: 182.18500752002
    orientation:
      x: 0.0010143556899393532
      y: 0.024370825589258238
      z: -0.041573342283874985
      w: 0.9988376700715587
  covariance:
  - 2.2430449462262914e-05
  - -4.946347416989738e-06
  - 4.4503672143036965e-06
  - 0.0
  - 0.0
  - 0.0
  - -4.946347416989738e-06
  - 3.321853364468552e-05
  - -6.18728699919302e-06
  - 0.0
  - 0.0
  - 0.0
  - 4.4503672143036965e-06
  - -6.18728699919302e-06
  - 9.064553159987554e-05
  - 0.0
  - 0.0
  - 0.0
  - 0.0
  - 0.0
  - 0.0
  - 0.0
  - 0.0
  - 0.0
  - 0.0
  - 0.0
  - 0.0
  - 0.0
  - 3.9556394767714664e-05
  - 7.478721727238735e-06
  - 0.0
  - 0.0
  - 0.0
  - 0.0
  - 7.478721727238735e-06
  - 1.3304736057762057e-05
---
header:
  stamp:
    sec: 1722521594
    nanosec: 400790784
  frame_id: gps_front
pose:
  pose:
    position:
      x: -77.03073484805229
      y: 42.87846866229929
      z: 182.18279915861785
    orientation:
      x: 0.0010089883830180727
      y: 0.024357281723116592
      z: -0.0413767100151966
      w: 0.9988461706578355
  covariance:
  - 2.245739415229764e-05
  - -4.8809788495418616e-06
  - 4.190879280940862e-06
  - 0.0
  - 0.0
  - 0.0
  - -4.8809788495418616e-06
  - 3.336464942549355e-05
  - -6.083756943553453e-06
  - 0.0
  - 0.0
  - 0.0
  - 4.190879280940862e-06
  - -6.083756943553453e-06
  - 9.102858166443184e-05
  - 0.0
  - 0.0
  - 0.0
  - 0.0
  - 0.0
  - 0.0
  - 0.0
  - 0.0
  - 0.0
  - 0.0
  - 0.0
  - 0.0
  - 0.0
  - 3.962019764003344e-05
  - 7.480343356291996e-06
  - 0.0
  - 0.0
  - 0.0
  - 0.0
  - 7.480343356291996e-06
  - 1.3328585737326648e-05
---
header:
  stamp:
    sec: 1722521594
    nanosec: 500797153
  frame_id: gps_front
pose:
  pose:
    position:
      x: -77.03073484685001
      y: 42.87846865325918
      z: 182.18262874428183
    orientation:
      x: 0.00101370694552955
      y: 0.024469061900366615
      z: -0.04138018794612004
      w: 0.9988432897374284
  covariance:
  - 2.2507947505800985e-05
  - -4.924489530822029e-06
  - 4.098979843547568e-06
  - 0.0
  - 0.0
  - 0.0
  - -4.924489530822029e-06
  - 3.353567808517255e-05
  - -5.938514277659124e-06
  - 0.0
  - 0.0
  - 0.0
  - 4.098979843547568e-06
  - -5.938514277659124e-06
  - 9.116042929235846e-05
  - 0.0
  - 0.0
  - 0.0
  - 0.0
  - 0.0
  - 0.0
  - 0.0
  - 0.0
  - 0.0
  - 0.0
  - 0.0
  - 0.0
  - 0.0
  - 3.96483410440851e-05
  - 7.472710422007367e-06
  - 0.0
  - 0.0
  - 0.0
  - 0.0
  - 7.472710422007367e-06
  - 1.3337854397832416e-05
---
header:
  stamp:
    sec: 1722521594
    nanosec: 601222125
  frame_id: gps_front
pose:
  pose:
    position:
      x: -77.03073484866336
      y: 42.87846865476393
      z: 182.18474872596562
    orientation:
      x: 0.0010174649162715077
      y: 0.02431546809232209
      z: -0.041795379954972345
      w: 0.9988297497526868
  covariance:
  - 2.2648779122391716e-05
  - -5.057102498540189e-06
  - 4.1059379327634815e-06
  - 0.0
  - 0.0
  - 0.0
  - -5.057102498540189e-06
  - 3.388332333997823e-05
  - -5.949400019744644e-06
  - 0.0
  - 0.0
  - 0.0
  - 4.1059379327634815e-06
  - -5.949400019744644e-06
  - 9.185908857034519e-05
  - 0.0
  - 0.0
  - 0.0
  - 0.0
  - 0.0
  - 0.0
  - 0.0
  - 0.0
  - 0.0
  - 0.0
  - 0.0
  - 0.0
  - 0.0
  - 3.9661208575125784e-05
  - 7.457257197529543e-06
  - 0.0
  - 0.0
  - 0.0
  - 0.0
  - 7.457257197529543e-06
  - 1.3339712495508138e-05
---
header:
  stamp:
    sec: 1722521594
    nanosec: 700767322
  frame_id: gps_front
pose:
  pose:
    position:
      x: -77.03073484058378
      y: 42.87846864786531
      z: 182.18708924297243
    orientation:
      x: 0.0010242001150879098
      y: 0.024674680752610537
      z: -0.041459780187583124
      w: 0.9988349201798455
  covariance:
  - 2.2727610485162586e-05
  - -5.035323283664184e-06
  - 4.177493792667519e-06
  - 0.0
  - 0.0
  - 0.0
  - -5.035323283664184e-06
  - 3.412043588468805e-05
  - -6.057387054170249e-06
  - 0.0
  - 0.0
  - 0.0
  - 4.177493792667519e-06
  - -6.057387054170249e-06
  - 9.243335080100223e-05
  - 0.0
  - 0.0
  - 0.0
  - 0.0
  - 0.0
  - 0.0
  - 0.0
  - 0.0
  - 0.0
  - 0.0
  - 0.0
  - 0.0
  - 0.0
  - 3.9695270970696583e-05
  - 7.450052635249449e-06
  - 0.0
  - 0.0
  - 0.0
  - 0.0
  - 7.450052635249449e-06
  - 1.335727301920997e-05
---
header:
  stamp:
    sec: 1722521594
    nanosec: 801481578
  frame_id: gps_front
pose:
  pose:
    position:
      x: -77.03073484273709
      y: 42.878468644501694
      z: 182.1876374585554
    orientation:
      x: 0.0010286240576063504
      y: 0.024856785047423176
      z: -0.041333838887213016
      w: 0.9988356200759464
  covariance:
  - 2.274128928547725e-05
  - -5.018544470658526e-06
  - 4.1299176700704265e-06
  - 0.0
  - 0.0
  - 0.0
  - -5.018544470658526e-06
  - 3.411551733734086e-05
  - -6.144398867036216e-06
  - 0.0
  - 0.0
  - 0.0
  - 4.1299176700704265e-06
  - -6.144398867036216e-06
  - 9.247759589925408e-05
  - 0.0
  - 0.0
  - 0.0
  - 0.0
  - 0.0
  - 0.0
  - 0.0
  - 0.0
  - 0.0
  - 0.0
  - 0.0
  - 0.0
  - 0.0
  - 3.967378142988309e-05
  - 7.436673058691667e-06
  - 0.0
  - 0.0
  - 0.0
  - 0.0
  - 7.436673058691667e-06
  - 1.3355072951526381e-05
---
header:
  stamp:
    sec: 1722521594
    nanosec: 900759645
  frame_id: gps_front
pose:
  pose:
    position:
      x: -77.0307348441598
      y: 42.87846864903748
      z: 182.18879007734358
    orientation:
      x: 0.0010237554930382152
      y: 0.02473204083969442
      z: -0.04134580431820605
      w: 0.9988382264140049
  covariance:
  - 2.2719448679708876e-05
  - -4.9722643780114595e-06
  - 4.124691258766688e-06
  - 0.0
  - 0.0
  - 0.0
  - -4.9722643780114595e-06
  - 3.391856080270372e-05
  - -6.164088517834898e-06
  - 0.0
  - 0.0
  - 0.0
  - 4.124691258766688e-06
  - -6.164088517834898e-06
  - 9.214127203449607e-05
  - 0.0
  - 0.0
  - 0.0
  - 0.0
  - 0.0
  - 0.0
  - 0.0
  - 0.0
  - 0.0
  - 0.0
  - 0.0
  - 0.0
  - 0.0
  - 3.9729708078084514e-05
  - 7.4417553150851745e-06
  - 0.0
  - 0.0
  - 0.0
  - 0.0
  - 7.4417553150851745e-06
  - 1.3372441571846139e-05
---
header:
  stamp:
    sec: 1722521595
    nanosec: 1386620
  frame_id: gps_front
pose:
  pose:
    position:
      x: -77.03073484193898
      y: 42.87846863793891
      z: 182.19023765716702
    orientation:
      x: 0.0010259679233699417
      y: 0.02484304720033361
      z: -0.0412500610503324
      w: 0.9988394279657598
  covariance:
  - 2.2622822143603116e-05
  - -4.947041361447191e-06
  - 4.181879830866819e-06
  - 0.0
  - 0.0
  - 0.0
  - -4.947041361447191e-06
  - 3.363414361956529e-05
  - -6.2844987951393705e-06
  - 0.0
  - 0.0
  - 0.0
  - 4.181879830866819e-06
  - -6.2844987951393705e-06
  - 9.164232324110344e-05
  - 0.0
  - 0.0
  - 0.0
  - 0.0
  - 0.0
  - 0.0
  - 0.0
  - 0.0
  - 0.0
  - 0.0
  - 0.0
  - 0.0
  - 0.0
  - 3.971442856709473e-05
  - 7.439110504492419e-06
  - 0.0
  - 0.0
  - 0.0
  - 0.0
  - 7.439110504492419e-06
  - 1.3370520719035994e-05
---
header:
  stamp:
    sec: 1722521595
    nanosec: 100815328
  frame_id: gps_front
pose:
  pose:
    position:
      x: -77.03073483718785
      y: 42.87846864309023
      z: 182.19124337751418
    orientation:
      x: 0.0010403571562063619
      y: 0.02491974478080887
      z: -0.041698996488011446
      w: 0.9988188612901439
  covariance:
  - 2.2521608116221614e-05
  - -4.9222621782973874e-06
  - 4.2383176150906365e-06
  - 0.0
  - 0.0
  - 0.0
  - -4.9222621782973874e-06
  - 3.3226020605070516e-05
  - -6.6949119172932114e-06
  - 0.0
  - 0.0
  - 0.0
  - 4.2383176150906365e-06
  - -6.6949119172932114e-06
  - 9.114384738495573e-05
  - 0.0
  - 0.0
  - 0.0
  - 0.0
  - 0.0
  - 0.0
  - 0.0
  - 0.0
  - 0.0
  - 0.0
  - 0.0
  - 0.0
  - 0.0
  - 3.9695631130598485e-05
  - 7.437837666657288e-06
  - 0.0
  - 0.0
  - 0.0
  - 0.0
  - 7.437837666657288e-06
  - 1.3361974197323434e-05
---
header:
  stamp:
    sec: 1722521595
    nanosec: 201101864
  frame_id: gps_front
pose:
  pose:
    position:
      x: -77.03073483718353
      y: 42.87846864359435
      z: 182.19098352454603
    orientation:
      x: 0.0010369457507950312
      y: 0.024937188354853628
      z: -0.041533458525544256
      w: 0.9988253266729731
  covariance:
  - 2.2076599634601735e-05
  - -4.857928161072778e-06
  - 3.4256247545272345e-06
  - 0.0
  - 0.0
  - 0.0
  - -4.857928161072778e-06
  - 3.242175080231391e-05
  - -7.2130596890929155e-06
  - 0.0
  - 0.0
  - 0.0
  - 3.4256247545272345e-06
  - -7.2130596890929155e-06
  - 8.72503369464539e-05
  - 0.0
  - 0.0
  - 0.0
  - 0.0
  - 0.0
  - 0.0
  - 0.0
  - 0.0
  - 0.0
  - 0.0
  - 0.0
  - 0.0
  - 0.0
  - 3.9684498915448785e-05
  - 7.445717074006097e-06
  - 0.0
  - 0.0
  - 0.0
  - 0.0
  - 7.445717074006097e-06
  - 1.335718116024509e-05
---
header:
  stamp:
    sec: 1722521595
    nanosec: 300862283
  frame_id: gps_front
pose:
  pose:
    position:
      x: -77.03073484476757
      y: 42.878468642047274
      z: 182.19058912619948
    orientation:
      x: 0.0010183540724982047
      y: 0.024744316983915826
      z: -0.04110764837345402
      w: 0.9988477576573854
  covariance:
  - 2.211797072959598e-05
  - -4.813217856280971e-06
  - 3.408613792998949e-06
  - 0.0
  - 0.0
  - 0.0
  - -4.813217856280971e-06
  - 3.246768028475344e-05
  - -7.000072400842328e-06
  - 0.0
  - 0.0
  - 0.0
  - 3.408613792998949e-06
  - -7.000072400842328e-06
  - 8.73632961884141e-05
  - 0.0
  - 0.0
  - 0.0
  - 0.0
  - 0.0
  - 0.0
  - 0.0
  - 0.0
  - 0.0
  - 0.0
  - 0.0
  - 0.0
  - 0.0
  - 3.970372199546546e-05
  - 7.447252755810041e-06
  - 0.0
  - 0.0
  - 0.0
  - 0.0
  - 7.447252755810041e-06
  - 1.336934928986011e-05
---
header:
  stamp:
    sec: 1722521595
    nanosec: 400799891
  frame_id: gps_front
pose:
  pose:
    position:
      x: -77.03073484371
      y: 42.878468643070164
      z: 182.18979631364346
    orientation:
      x: 0.0010208149521643273
      y: 0.02455808686187166
      z: -0.04151895278961545
      w: 0.9988353392155145
  covariance:
  - 2.2197506041266024e-05
  - -4.836679181607906e-06
  - 3.471331865512184e-06
  - 0.0
  - 0.0
  - 0.0
  - -4.836679181607906e-06
  - 3.262120299041271e-05
  - -6.9429893301276024e-06
  - 0.0
  - 0.0
  - 0.0
  - 3.471331865512184e-06
  - -6.9429893301276024e-06
  - 8.773004810791463e-05
  - 0.0
  - 0.0
  - 0.0
  - 0.0
  - 0.0
  - 0.0
  - 0.0
  - 0.0
  - 0.0
  - 0.0
  - 0.0
  - 0.0
  - 0.0
  - 3.968287637690082e-05
  - 7.429252036672551e-06
  - 0.0
  - 0.0
  - 0.0
  - 0.0
  - 7.429252036672551e-06
  - 1.3358907381189056e-05
---
header:
  stamp:
    sec: 1722521595
    nanosec: 501509654
  frame_id: gps_front
pose:
  pose:
    position:
      x: -77.03073483917822
      y: 42.878468641323416
      z: 182.1907486524433
    orientation:
      x: 0.001012502597407488
      y: 0.02435115912381076
      z: -0.04153100068867899
      w: 0.9988399130339226
  covariance:
  - 2.2257470845943317e-05
  - -4.8339288696297444e-06
  - 3.4951724501297576e-06
  - 0.0
  - 0.0
  - 0.0
  - -4.8339288696297444e-06
  - 3.2820367778185755e-05
  - -7.137372904253425e-06
  - 0.0
  - 0.0
  - 0.0
  - 3.4951724501297576e-06
  - -7.137372904253425e-06
  - 8.8226814114023e-05
  - 0.0
  - 0.0
  - 0.0
  - 0.0
  - 0.0
  - 0.0
  - 0.0
  - 0.0
  - 0.0
  - 0.0
  - 0.0
  - 0.0
  - 0.0
  - 3.968963210354559e-05
  - 7.4109825618506875e-06
  - 0.0
  - 0.0
  - 0.0
  - 0.0
  - 7.4109825618506875e-06
  - 1.3358424439502414e-05
---
header:
  stamp:
    sec: 1722521595
    nanosec: 601073581
  frame_id: gps_front
pose:
  pose:
    position:
      x: -77.0307348438369
      y: 42.878468645631344
      z: 182.1895915074274
    orientation:
      x: 0.0010138505952993432
      y: 0.02444663333942343
      z: -0.04142396896288829
      w: 0.9988420240562068
  covariance:
  - 2.2301448552752845e-05
  - -4.9163822950504255e-06
  - 3.49205720340251e-06
  - 0.0
  - 0.0
  - 0.0
  - -4.9163822950504255e-06
  - 3.3152919058920816e-05
  - -7.0498913373739924e-06
  - 0.0
  - 0.0
  - 0.0
  - 3.49205720340251e-06
  - -7.0498913373739924e-06
  - 8.863008406478912e-05
  - 0.0
  - 0.0
  - 0.0
  - 0.0
  - 0.0
  - 0.0
  - 0.0
  - 0.0
  - 0.0
  - 0.0
  - 0.0
  - 0.0
  - 0.0
  - 3.968688179156743e-05
  - 7.386042852886021e-06
  - 0.0
  - 0.0
  - 0.0
  - 0.0
  - 7.386042852886021e-06
  - 1.3358505384530872e-05
---
header:
  stamp:
    sec: 1722521595
    nanosec: 700854290
  frame_id: gps_front
pose:
  pose:
    position:
      x: -77.03073485074546
      y: 42.878468656801694
      z: 182.1902351398021
    orientation:
      x: 0.0010319324437021704
      y: 0.024651548515168632
      z: -0.04181139435278373
      w: 0.9988208265617573
  covariance:
  - 2.2400208763428964e-05
  - -4.959130365023157e-06
  - 3.4746933579299366e-06
  - 0.0
  - 0.0
  - 0.0
  - -4.959130365023157e-06
  - 3.341909541632049e-05
  - -6.832080998719903e-06
  - 0.0
  - 0.0
  - 0.0
  - 3.4746933579299366e-06
  - -6.832080998719903e-06
  - 8.897084626369178e-05
  - 0.0
  - 0.0
  - 0.0
  - 0.0
  - 0.0
  - 0.0
  - 0.0
  - 0.0
  - 0.0
  - 0.0
  - 0.0
  - 0.0
  - 0.0
  - 3.96575742342975e-05
  - 7.357864433288341e-06
  - 0.0
  - 0.0
  - 0.0
  - 0.0
  - 7.357864433288341e-06
  - 1.334419721388258e-05
---
header:
  stamp:
    sec: 1722521595
    nanosec: 801163956
  frame_id: gps_front
pose:
  pose:
    position:
      x: -77.03073486601076
      y: 42.87846865757728
      z: 182.18929829448462
    orientation:
      x: 0.0010202012476358433
      y: 0.024498865307796294
      z: -0.04159422633450732
      w: 0.9988336623901292
  covariance:
  - 2.2432270270655863e-05
  - -4.9343539103574585e-06
  - 3.511974682623986e-06
  - 0.0
  - 0.0
  - 0.0
  - -4.9343539103574585e-06
  - 3.3453397918492556e-05
  - -6.779217073926702e-06
  - 0.0
  - 0.0
  - 0.0
  - 3.511974682623986e-06
  - -6.779217073926702e-06
  - 8.918279490899295e-05
  - 0.0
  - 0.0
  - 0.0
  - 0.0
  - 0.0
  - 0.0
  - 0.0
  - 0.0
  - 0.0
  - 0.0
  - 0.0
  - 0.0
  - 0.0
  - 3.96722462028265e-05
  - 7.341243872360792e-06
  - 0.0
  - 0.0
  - 0.0
  - 0.0
  - 7.341243872360792e-06
  - 1.3348311767913401e-05
---
header:
  stamp:
    sec: 1722521595
    nanosec: 901075719
  frame_id: gps_front
pose:
  pose:
    position:
      x: -77.03073487144563
      y: 42.8784686657433
      z: 182.188396547921
    orientation:
      x: 0.0010229564504608934
      y: 0.024451421008996332
      z: -0.04178719447732301
      w: 0.9988267677372566
  covariance:
  - 2.2382448150892742e-05
  - -4.9176719585375395e-06
  - 3.5003108678210992e-06
  - 0.0
  - 0.0
  - 0.0
  - -4.9176719585375395e-06
  - 3.33365096594207e-05
  - -6.7126870817446616e-06
  - 0.0
  - 0.0
  - 0.0
  - 3.5003108678210992e-06
  - -6.7126870817446616e-06
  - 8.905176218831912e-05
  - 0.0
  - 0.0
  - 0.0
  - 0.0
  - 0.0
  - 0.0
  - 0.0
  - 0.0
  - 0.0
  - 0.0
  - 0.0
  - 0.0
  - 0.0
  - 3.966708391089924e-05
  - 7.324913440243108e-06
  - 0.0
  - 0.0
  - 0.0
  - 0.0
  - 7.324913440243108e-06
  - 1.3343166756385472e-05
---
header:
  stamp:
    sec: 1722521596
    nanosec: 1433770
  frame_id: gps_front
pose:
  pose:
    position:
      x: -77.03073487154144
      y: 42.878468668363325
      z: 182.1871892530471
    orientation:
      x: 0.0010136742479805495
      y: 0.024420035738383646
      z: -0.041461835499772365
      w: 0.998841103737749
  covariance:
  - 2.2385798729374073e-05
  - -4.9259629122389015e-06
  - 3.4708284601947526e-06
  - 0.0
  - 0.0
  - 0.0
  - -4.9259629122389015e-06
  - 3.3286789403064176e-05
  - -6.876868155814009e-06
  - 0.0
  - 0.0
  - 0.0
  - 3.4708284601947526e-06
  - -6.876868155814009e-06
  - 8.88872382347472e-05
  - 0.0
  - 0.0
  - 0.0
  - 0.0
  - 0.0
  - 0.0
  - 0.0
  - 0.0
  - 0.0
  - 0.0
  - 0.0
  - 0.0
  - 0.0
  - 3.968057717429474e-05
  - 7.319050382648129e-06
  - 0.0
  - 0.0
  - 0.0
  - 0.0
  - 7.319050382648129e-06
  - 1.3351299458008725e-05
---
header:
  stamp:
    sec: 1722521596
    nanosec: 101281582
  frame_id: gps_front
pose:
  pose:
    position:
      x: -77.03073487934081
      y: 42.8784686614582
      z: 182.1880958955735
    orientation:
      x: 0.0010114076615627002
      y: 0.024508291730006376
      z: -0.041220476553254864
      w: 0.9988489340254318
  covariance:
  - 2.2299031115835533e-05
  - -4.924960194330197e-06
  - 3.5515304261934943e-06
  - 0.0
  - 0.0
  - 0.0
  - -4.924960194330197e-06
  - 3.29440226778388e-05
  - -7.010171430010814e-06
  - 0.0
  - 0.0
  - 0.0
  - 3.5515304261934943e-06
  - -7.010171430010814e-06
  - 8.823369716992602e-05
  - 0.0
  - 0.0
  - 0.0
  - 0.0
  - 0.0
  - 0.0
  - 0.0
  - 0.0
  - 0.0
  - 0.0
  - 0.0
  - 0.0
  - 0.0
  - 3.960566391469911e-05
  - 7.300769993889844e-06
  - 0.0
  - 0.0
  - 0.0
  - 0.0
  - 7.300769993889844e-06
  - 1.3331791706150398e-05
---
header:
  stamp:
    sec: 1722521596
    nanosec: 200772405
  frame_id: gps_front
pose:
  pose:
    position:
      x: -77.03073487327048
      y: 42.87846866736321
      z: 182.18891404476017
    orientation:
      x: 0.0010168149510535697
      y: 0.024387121315314272
      z: -0.04164614481080035
      w: 0.9988342370101785
  covariance:
  - 2.2231970433495007e-05
  - -4.8832139327714685e-06
  - 3.514174750307575e-06
  - 0.0
  - 0.0
  - 0.0
  - -4.8832139327714685e-06
  - 3.290323002147488e-05
  - -7.0437631620734464e-06
  - 0.0
  - 0.0
  - 0.0
  - 3.514174750307575e-06
  - -7.0437631620734464e-06
  - 8.838405483402312e-05
  - 0.0
  - 0.0
  - 0.0
  - 0.0
  - 0.0
  - 0.0
  - 0.0
  - 0.0
  - 0.0
  - 0.0
  - 0.0
  - 0.0
  - 0.0
  - 3.9653903513681144e-05
  - 7.312064553843811e-06
  - 0.0
  - 0.0
  - 0.0
  - 0.0
  - 7.312064553843811e-06
  - 1.3343013961275574e-05
---
header:
  stamp:
    sec: 1722521596
    nanosec: 301182020
  frame_id: gps_front
pose:
  pose:
    position:
      x: -77.03073487367213
      y: 42.87846866838458
      z: 182.1891403226182
    orientation:
      x: 0.001025813595823457
      y: 0.024622675850706915
      z: -0.041612586854502955
      w: 0.9988298474493511
  covariance:
  - 2.2163141693454236e-05
  - -4.795274890057044e-06
  - 3.295024498584098e-06
  - 0.0
  - 0.0
  - 0.0
  - -4.795274890057044e-06
  - 3.3073662052629516e-05
  - -7.167722287704237e-06
  - 0.0
  - 0.0
  - 0.0
  - 3.295024498584098e-06
  - -7.167722287704237e-06
  - 8.854745829012245e-05
  - 0.0
  - 0.0
  - 0.0
  - 0.0
  - 0.0
  - 0.0
  - 0.0
  - 0.0
  - 0.0
  - 0.0
  - 0.0
  - 0.0
  - 0.0
  - 3.9683935028733686e-05
  - 7.330763310164912e-06
  - 0.0
  - 0.0
  - 0.0
  - 0.0
  - 7.330763310164912e-06
  - 1.3350112567422912e-05
---
header:
  stamp:
    sec: 1722521596
    nanosec: 401214943
  frame_id: gps_front
pose:
  pose:
    position:
      x: -77.03073487407033
      y: 42.878468664651855
      z: 182.18885789532214
    orientation:
      x: 0.0010260464522817282
      y: 0.024492169721757648
      z: -0.04184354530251242
      w: 0.9988234070983293
  covariance:
  - 2.2011510736774653e-05
  - -4.8614169827487785e-06
  - 3.0705159588251263e-06
  - 0.0
  - 0.0
  - 0.0
  - -4.8614169827487785e-06
  - 3.3252541470574215e-05
  - -7.151292265916709e-06
  - 0.0
  - 0.0
  - 0.0
  - 3.0705159588251263e-06
  - -7.151292265916709e-06
  - 8.823259850032628e-05
  - 0.0
  - 0.0
  - 0.0
  - 0.0
  - 0.0
  - 0.0
  - 0.0
  - 0.0
  - 0.0
  - 0.0
  - 0.0
  - 0.0
  - 0.0
  - 3.968450255342759e-05
  - 7.350124178628903e-06
  - 0.0
  - 0.0
  - 0.0
  - 0.0
  - 7.350124178628903e-06
  - 1.3342209967959207e-05
---
header:
  stamp:
    sec: 1722521596
    nanosec: 501252345
  frame_id: gps_front
pose:
  pose:
    position:
      x: -77.03073487434119
      y: 42.87846866960423
      z: 182.18917849101126
    orientation:
      x: 0.0010152088393924994
      y: 0.02426383393359858
      z: -0.04179150892971492
      w: 0.9988311696654409
  covariance:
  - 2.1885274691157974e-05
  - -4.9665368351270445e-06
  - 2.8542731342895422e-06
  - 0.0
  - 0.0
  - 0.0
  - -4.9665368351270445e-06
  - 3.335184374009259e-05
  - -7.037860086711589e-06
  - 0.0
  - 0.0
  - 0.0
  - 2.8542731342895422e-06
  - -7.037860086711589e-06
  - 8.789845742285252e-05
  - 0.0
  - 0.0
  - 0.0
  - 0.0
  - 0.0
  - 0.0
  - 0.0
  - 0.0
  - 0.0
  - 0.0
  - 0.0
  - 0.0
  - 0.0
  - 3.973606726503931e-05
  - 7.388413450826192e-06
  - 0.0
  - 0.0
  - 0.0
  - 0.0
  - 7.388413450826192e-06
  - 1.3348186257644556e-05
---
header:
  stamp:
    sec: 1722521596
    nanosec: 600996936
  frame_id: gps_front
pose:
  pose:
    position:
      x: -77.03073487588841
      y: 42.878468676242946
      z: 182.18723389692605
    orientation:
      x: 0.001020407780061705
      y: 0.024579920613580056
      z: -0.04146559629950718
      w: 0.9988370190346966
  covariance:
  - 2.1792060579173267e-05
  - -5.087889348942554e-06
  - 2.4215321445808513e-06
  - 0.0
  - 0.0
  - 0.0
  - -5.087889348942554e-06
  - 3.37109922838863e-05
  - -7.036959686956834e-06
  - 0.0
  - 0.0
  - 0.0
  - 2.4215321445808513e-06
  - -7.036959686956834e-06
  - 8.798308408586308e-05
  - 0.0
  - 0.0
  - 0.0
  - 0.0
  - 0.0
  - 0.0
  - 0.0
  - 0.0
  - 0.0
  - 0.0
  - 0.0
  - 0.0
  - 0.0
  - 3.983503484050743e-05
  - 7.447528787452029e-06
  - 0.0
  - 0.0
  - 0.0
  - 0.0
  - 7.447528787452029e-06
  - 1.3371255590755027e-05
---
header:
  stamp:
    sec: 1722521596
    nanosec: 701427832
  frame_id: gps_front
pose:
  pose:
    position:
      x: -77.03073487706078
      y: 42.878468686291455
      z: 182.18499343656003
    orientation:
      x: 0.001026738490531285
      y: 0.024823422133242665
      z: -0.041313590259400255
      w: 0.9988372894428528
  covariance:
  - 2.1679228666471317e-05
  - -5.027312909078319e-06
  - 2.1916414425504627e-06
  - 0.0
  - 0.0
  - 0.0
  - -5.027312909078319e-06
  - 3.392689905012958e-05
  - -7.04289277564385e-06
  - 0.0
  - 0.0
  - 0.0
  - 2.1916414425504627e-06
  - -7.04289277564385e-06
  - 8.793917368166149e-05
  - 0.0
  - 0.0
  - 0.0
  - 0.0
  - 0.0
  - 0.0
  - 0.0
  - 0.0
  - 0.0
  - 0.0
  - 0.0
  - 0.0
  - 0.0
  - 3.989719698438421e-05
  - 7.490841653634561e-06
  - 0.0
  - 0.0
  - 0.0
  - 0.0
  - 7.490841653634561e-06
  - 1.339574737357907e-05
---
header:
  stamp:
    sec: 1722521596
    nanosec: 800816658
  frame_id: gps_front
pose:
  pose:
    position:
      x: -77.03073487787576
      y: 42.878468688383975
      z: 182.18402648158371
    orientation:
      x: 0.001030865802399615
      y: 0.025190058701534786
      z: -0.04087629552961632
      w: 0.9988460976156868
  covariance:
  - 2.1569436285062693e-05
  - -4.941638053423958e-06
  - 2.0312154447310604e-06
  - 0.0
  - 0.0
  - 0.0
  - -4.941638053423958e-06
  - 3.3835323847597465e-05
  - -6.932662927283673e-06
  - 0.0
  - 0.0
  - 0.0
  - 2.0312154447310604e-06
  - -6.932662927283673e-06
  - 8.729653927730396e-05
  - 0.0
  - 0.0
  - 0.0
  - 0.0
  - 0.0
  - 0.0
  - 0.0
  - 0.0
  - 0.0
  - 0.0
  - 0.0
  - 0.0
  - 0.0
  - 3.9957696571946144e-05
  - 7.526258286816301e-06
  - 0.0
  - 0.0
  - 0.0
  - 0.0
  - 7.526258286816301e-06
  - 1.341940605925629e-05
---
header:
  stamp:
    sec: 1722521596
    nanosec: 900808638
  frame_id: gps_front
pose:
  pose:
    position:
      x: -77.03073487951198
      y: 42.87846870126976
      z: 182.18205414153636
    orientation:
      x: 0.001029952277273759
      y: 0.025076319658483805
      z: -0.04102517788889688
      w: 0.9988428565945078
  covariance:
  - 2.1464729798026383e-05
  - -4.9313657655147836e-06
  - 1.939055437105708e-06
  - 0.0
  - 0.0
  - 0.0
  - -4.9313657655147836e-06
  - 3.371106868144125e-05
  - -7.1077197389968205e-06
  - 0.0
  - 0.0
  - 0.0
  - 1.939055437105708e-06
  - -7.1077197389968205e-06
  - 8.671823161421344e-05
  - 0.0
  - 0.0
  - 0.0
  - 0.0
  - 0.0
  - 0.0
  - 0.0
  - 0.0
  - 0.0
  - 0.0
  - 0.0
  - 0.0
  - 0.0
  - 3.997634121333249e-05
  - 7.540618298662594e-06
  - 0.0
  - 0.0
  - 0.0
  - 0.0
  - 7.540618298662594e-06
  - 1.3417504305834882e-05
---
header:
  stamp:
    sec: 1722521597
    nanosec: 975724
  frame_id: gps_front
pose:
  pose:
    position:
      x: -77.03073487483844
      y: 42.878468713099245
      z: 182.17908828053623
    orientation:
      x: 0.0010426034835597463
      y: 0.02537774636112175
      z: -0.04103550542758013
      w: 0.9988348062927672
  covariance:
  - 2.125303217326291e-05
  - -4.954187261319021e-06
  - 1.954827894223854e-06
  - 0.0
  - 0.0
  - 0.0
  - -4.954187261319021e-06
  - 3.338378155604005e-05
  - -7.25986228644615e-06
  - 0.0
  - 0.0
  - 0.0
  - 1.954827894223854e-06
  - -7.25986228644615e-06
  - 8.605869516031817e-05
  - 0.0
  - 0.0
  - 0.0
  - 0.0
  - 0.0
  - 0.0
  - 0.0
  - 0.0
  - 0.0
  - 0.0
  - 0.0
  - 0.0
  - 0.0
  - 4.005662049166858e-05
  - 7.560011454188498e-06
  - 0.0
  - 0.0
  - 0.0
  - 0.0
  - 7.560011454188498e-06
  - 1.3438750102068298e-05
---
header:
  stamp:
    sec: 1722521597
    nanosec: 100946512
  frame_id: gps_front
pose:
  pose:
    position:
      x: -77.03073488146525
      y: 42.87846871283441
      z: 182.1791917765513
    orientation:
      x: 0.001038093318390444
      y: 0.025116860551055546
      z: -0.04128223082765552
      w: 0.998831238546439
  covariance:
  - 2.1106241547386162e-05
  - -4.969280780642293e-06
  - 1.8113039459421998e-06
  - 0.0
  - 0.0
  - 0.0
  - -4.969280780642293e-06
  - 3.296160139143467e-05
  - -7.302090580196818e-06
  - 0.0
  - 0.0
  - 0.0
  - 1.8113039459421998e-06
  - -7.302090580196818e-06
  - 8.524272561771795e-05
  - 0.0
  - 0.0
  - 0.0
  - 0.0
  - 0.0
  - 0.0
  - 0.0
  - 0.0
  - 0.0
  - 0.0
  - 0.0
  - 0.0
  - 0.0
  - 4.000805347459391e-05
  - 7.543337233073544e-06
  - 0.0
  - 0.0
  - 0.0
  - 0.0
  - 7.543337233073544e-06
  - 1.3419732567854226e-05
---
header:
  stamp:
    sec: 1722521597
    nanosec: 201729497
  frame_id: gps_front
pose:
  pose:
    position:
      x: -77.03073488793058
      y: 42.878468716049056
      z: 182.17907141987234
    orientation:
      x: 0.0010312254680910251
      y: 0.024948356687777777
      z: -0.04128626244945556
      w: 0.9988353020421175
  covariance:
  - 2.1221780116320588e-05
  - -5.092641913506668e-06
  - 1.8070837768391357e-06
  - 0.0
  - 0.0
  - 0.0
  - -5.092641913506668e-06
  - 3.321445547044277e-05
  - -7.520858162024524e-06
  - 0.0
  - 0.0
  - 0.0
  - 1.8070837768391357e-06
  - -7.520858162024524e-06
  - 8.560626156395301e-05
  - 0.0
  - 0.0
  - 0.0
  - 0.0
  - 0.0
  - 0.0
  - 0.0
  - 0.0
  - 0.0
  - 0.0
  - 0.0
  - 0.0
  - 0.0
  - 3.992342317360453e-05
  - 7.517219273722731e-06
  - 0.0
  - 0.0
  - 0.0
  - 0.0
  - 7.517219273722731e-06
  - 1.3396100257523358e-05
---
header:
  stamp:
    sec: 1722521597
    nanosec: 302210964
  frame_id: gps_front
pose:
  pose:
    position:
      x: -77.03073488466343
      y: 42.87846871904999
      z: 182.17677977774292
    orientation:
      x: 0.001022584766911771
      y: 0.024624844031020256
      z: -0.04147818563685942
      w: 0.9988353875855204
  covariance:
  - 2.1202064090175554e-05
  - -5.161815352039412e-06
  - 1.826384959713323e-06
  - 0.0
  - 0.0
  - 0.0
  - -5.161815352039412e-06
  - 3.3311247534584254e-05
  - -7.6735113907489e-06
  - 0.0
  - 0.0
  - 0.0
  - 1.826384959713323e-06
  - -7.6735113907489e-06
  - 8.581921429140493e-05
  - 0.0
  - 0.0
  - 0.0
  - 0.0
  - 0.0
  - 0.0
  - 0.0
  - 0.0
  - 0.0
  - 0.0
  - 0.0
  - 0.0
  - 0.0
  - 3.991095582023263e-05
  - 7.503184406232322e-06
  - 0.0
  - 0.0
  - 0.0
  - 0.0
  - 7.503184406232322e-06
  - 1.3390651474765036e-05
---
header:
  stamp:
    sec: 1722521597
    nanosec: 400808210
  frame_id: gps_front
pose:
  pose:
    position:
      x: -77.03073488625529
      y: 42.87846871596121
      z: 182.1781555423513
    orientation:
      x: 0.001009770701589728
      y: 0.024381466423180526
      z: -0.04136770778773322
      w: 0.9988459526926934
  covariance:
  - 2.1187772290431894e-05
  - -5.125126790517243e-06
  - 1.625204845367989e-06
  - 0.0
  - 0.0
  - 0.0
  - -5.125126790517243e-06
  - 3.332747655804269e-05
  - -7.425989679177292e-06
  - 0.0
  - 0.0
  - 0.0
  - 1.625204845367989e-06
  - -7.425989679177292e-06
  - 8.594088285462931e-05
  - 0.0
  - 0.0
  - 0.0
  - 0.0
  - 0.0
  - 0.0
  - 0.0
  - 0.0
  - 0.0
  - 0.0
  - 0.0
  - 0.0
  - 0.0
  - 3.987393210991286e-05
  - 7.486288268410135e-06
  - 0.0
  - 0.0
  - 0.0
  - 0.0
  - 7.486288268410135e-06
  - 1.3380619748204481e-05
---
header:
  stamp:
    sec: 1722521597
    nanosec: 501193695
  frame_id: gps_front
pose:
  pose:
    position:
      x: -77.03073489559402
      y: 42.87846871563838
      z: 182.17843292560428
    orientation:
      x: 0.000983537045195545
      y: 0.023910371129378254
      z: -0.04108780164093954
      w: 0.9988689200108546
  covariance:
  - 2.120712088071741e-05
  - -5.193369361222722e-06
  - 1.5468053788936231e-06
  - 0.0
  - 0.0
  - 0.0
  - -5.193369361222722e-06
  - 3.345359073136933e-05
  - -7.1267809289565776e-06
  - 0.0
  - 0.0
  - 0.0
  - 1.5468053788936231e-06
  - -7.1267809289565776e-06
  - 8.595758845331147e-05
  - 0.0
  - 0.0
  - 0.0
  - 0.0
  - 0.0
  - 0.0
  - 0.0
  - 0.0
  - 0.0
  - 0.0
  - 0.0
  - 0.0
  - 0.0
  - 3.978035965701565e-05
  - 7.459493190253852e-06
  - 0.0
  - 0.0
  - 0.0
  - 0.0
  - 7.459493190253852e-06
  - 1.3350643712328747e-05
---
header:
  stamp:
    sec: 1722521597
    nanosec: 600810468
  frame_id: gps_front
pose:
  pose:
    position:
      x: -77.03073489624093
      y: 42.878468714136964
      z: 182.17985127866268
    orientation:
      x: 0.0010064295480405126
      y: 0.024198500904645908
      z: -0.0415424602818198
      w: 0.9988431526757672
  covariance:
  - 2.128137566614896e-05
  - -5.327420694811735e-06
  - 1.3957793498775573e-06
  - 0.0
  - 0.0
  - 0.0
  - -5.327420694811735e-06
  - 3.3894979424076155e-05
  - -7.150949841161491e-06
  - 0.0
  - 0.0
  - 0.0
  - 1.3957793498775573e-06
  - -7.150949841161491e-06
  - 8.663062180858105e-05
  - 0.0
  - 0.0
  - 0.0
  - 0.0
  - 0.0
  - 0.0
  - 0.0
  - 0.0
  - 0.0
  - 0.0
  - 0.0
  - 0.0
  - 0.0
  - 3.9692979044048116e-05
  - 7.433366135956021e-06
  - 0.0
  - 0.0
  - 0.0
  - 0.0
  - 7.433366135956021e-06
  - 1.3319629033503588e-05
---
header:
  stamp:
    sec: 1722521597
    nanosec: 701180823
  frame_id: gps_front
pose:
  pose:
    position:
      x: -77.03073488678866
      y: 42.87846871987242
      z: 182.17860527522862
    orientation:
      x: 0.0010128731886562476
      y: 0.024187614836525217
      z: -0.0418267654186935
      w: 0.9988315448918468
  covariance:
  - 2.128753112629056e-05
  - -5.293915819493122e-06
  - 1.3509541076928144e-06
  - 0.0
  - 0.0
  - 0.0
  - -5.293915819493122e-06
  - 3.4148724807891995e-05
  - -7.185067715909099e-06
  - 0.0
  - 0.0
  - 0.0
  - 1.3509541076928144e-06
  - -7.185067715909099e-06
  - 8.698095189174637e-05
  - 0.0
  - 0.0
  - 0.0
  - 0.0
  - 0.0
  - 0.0
  - 0.0
  - 0.0
  - 0.0
  - 0.0
  - 0.0
  - 0.0
  - 0.0
  - 3.9717633626423776e-05
  - 7.431804533553077e-06
  - 0.0
  - 0.0
  - 0.0
  - 0.0
  - 7.431804533553077e-06
  - 1.3326997759577353e-05
---
header:
  stamp:
    sec: 1722521597
    nanosec: 801154656
  frame_id: gps_front
pose:
  pose:
    position:
      x: -77.03073487850676
      y: 42.87846871887242
      z: 182.1797356493771
    orientation:
      x: 0.0010187697672215301
      y: 0.024556125424173566
      z: -0.04143921946027031
      w: 0.9988387006433208
  covariance:
  - 2.116763062076643e-05
  - -5.189003331906861e-06
  - 1.4121704907665844e-06
  - 0.0
  - 0.0
  - 0.0
  - -5.189003331906861e-06
  - 3.3988009818131104e-05
  - -7.112175353540806e-06
  - 0.0
  - 0.0
  - 0.0
  - 1.4121704907665844e-06
  - -7.112175353540806e-06
  - 8.658837032271549e-05
  - 0.0
  - 0.0
  - 0.0
  - 0.0
  - 0.0
  - 0.0
  - 0.0
  - 0.0
  - 0.0
  - 0.0
  - 0.0
  - 0.0
  - 0.0
  - 3.96513678424526e-05
  - 7.419357189064613e-06
  - 0.0
  - 0.0
  - 0.0
  - 0.0
  - 7.419357189064613e-06
  - 1.3304365893418435e-05
---
header:
  stamp:
    sec: 1722521597
    nanosec: 901276172
  frame_id: gps_front
pose:
  pose:
    position:
      x: -77.0307348779384
      y: 42.87846871698391
      z: 182.180651194416
    orientation:
      x: 0.0010135199753727373
      y: 0.02457921884518757
      z: -0.04118735301149807
      w: 0.9988485554527904
  covariance:
  - 2.106256943079643e-05
  - -5.199265160626965e-06
  - 1.440972596356005e-06
  - 0.0
  - 0.0
  - 0.0
  - -5.199265160626965e-06
  - 3.385501986485906e-05
  - -7.168153388192877e-06
  - 0.0
  - 0.0
  - 0.0
  - 1.440972596356005e-06
  - -7.168153388192877e-06
  - 8.628040814073756e-05
  - 0.0
  - 0.0
  - 0.0
  - 0.0
  - 0.0
  - 0.0
  - 0.0
  - 0.0
  - 0.0
  - 0.0
  - 0.0
  - 0.0
  - 0.0
  - 3.970917532569729e-05
  - 7.430165624100482e-06
  - 0.0
  - 0.0
  - 0.0
  - 0.0
  - 7.430165624100482e-06
  - 1.332733972958522e-05
---
header:
  stamp:
    sec: 1722521598
    nanosec: 1053416
  frame_id: gps_front
pose:
  pose:
    position:
      x: -77.0307348811969
      y: 42.87846871371594
      z: 182.18184076063335
    orientation:
      x: 0.001013211870115752
      y: 0.024764764257539377
      z: -0.04086668881888988
      w: 0.9988571437387604
  covariance:
  - 2.1006229872000404e-05
  - -5.191178388486151e-06
  - 1.410383561051276e-06
  - 0.0
  - 0.0
  - 0.0
  - -5.191178388486151e-06
  - 3.358867979841307e-05
  - -7.385136996163055e-06
  - 0.0
  - 0.0
  - 0.0
  - 1.410383561051276e-06
  - -7.385136996163055e-06
  - 8.571754005970433e-05
  - 0.0
  - 0.0
  - 0.0
  - 0.0
  - 0.0
  - 0.0
  - 0.0
  - 0.0
  - 0.0
  - 0.0
  - 0.0
  - 0.0
  - 0.0
  - 3.96774776163511e-05
  - 7.42536303732777e-06
  - 0.0
  - 0.0
  - 0.0
  - 0.0
  - 7.42536303732777e-06
  - 1.3322593076736666e-05
---
header:
  stamp:
    sec: 1722521598
    nanosec: 101208771
  frame_id: gps_front
pose:
  pose:
    position:
      x: -77.03073487622218
      y: 42.878468717175814
      z: 182.18137919250876
    orientation:
      x: 0.0010254170782105702
      y: 0.02475507101149579
      z: -0.04137430985894543
      w: 0.9988364738347952
  covariance:
  - 2.088482324325014e-05
  - -5.117407454235945e-06
  - 1.4145698514766991e-06
  - 0.0
  - 0.0
  - 0.0
  - -5.117407454235945e-06
  - 3.309902604087256e-05
  - -7.449761596944882e-06
  - 0.0
  - 0.0
  - 0.0
  - 1.4145698514766991e-06
  - -7.449761596944882e-06
  - 8.474844071315601e-05
  - 0.0
  - 0.0
  - 0.0
  - 0.0
  - 0.0
  - 0.0
  - 0.0
  - 0.0
  - 0.0
  - 0.0
  - 0.0
  - 0.0
  - 0.0
  - 3.973203638452105e-05
  - 7.434756753355032e-06
  - 0.0
  - 0.0
  - 0.0
  - 0.0
  - 7.434756753355032e-06
  - 1.3337536984181497e-05
---
header:
  stamp:
    sec: 1722521598
    nanosec: 201135232
  frame_id: gps_front
pose:
  pose:
    position:
      x: -77.0307348759637
      y: 42.87846871333512
      z: 182.1812654910609
    orientation:
      x: 0.0010208709217942313
      y: 0.024760132220736322
      z: -0.04118277963253489
      w: 0.9988442683104863
  covariance:
  - 2.0880326701444574e-05
  - -5.101568604004569e-06
  - 1.5290567034753622e-06
  - 0.0
  - 0.0
  - 0.0
  - -5.101568604004569e-06
  - 3.307676888653077e-05
  - -7.349282441282412e-06
  - 0.0
  - 0.0
  - 0.0
  - 1.5290567034753622e-06
  - -7.349282441282412e-06
  - 8.471569890389219e-05
  - 0.0
  - 0.0
  - 0.0
  - 0.0
  - 0.0
  - 0.0
  - 0.0
  - 0.0
  - 0.0
  - 0.0
  - 0.0
  - 0.0
  - 0.0
  - 3.966659278376028e-05
  - 7.427010132232681e-06
  - 0.0
  - 0.0
  - 0.0
  - 0.0
  - 7.427010132232681e-06
  - 1.3321388905751519e-05
---
header:
  stamp:
    sec: 1722521598
    nanosec: 300813650
  frame_id: gps_front
pose:
  pose:
    position:
      x: -77.03073487467807
      y: 42.878468716499384
      z: 182.18171902839094
    orientation:
      x: 0.0010199951509248942
      y: 0.024597840817715586
      z: -0.04141869438362431
      w: 0.998838524283357
  covariance:
  - 2.0896861315122806e-05
  - -5.053231234342093e-06
  - 1.4628260487370426e-06
  - 0.0
  - 0.0
  - 0.0
  - -5.053231234342093e-06
  - 3.310323882033117e-05
  - -7.369692866632249e-06
  - 0.0
  - 0.0
  - 0.0
  - 1.4628260487370426e-06
  - -7.369692866632249e-06
  - 8.493037603329867e-05
  - 0.0
  - 0.0
  - 0.0
  - 0.0
  - 0.0
  - 0.0
  - 0.0
  - 0.0
  - 0.0
  - 0.0
  - 0.0
  - 0.0
  - 0.0
  - 3.968672899645753e-05
  - 7.4339727689221036e-06
  - 0.0
  - 0.0
  - 0.0
  - 0.0
  - 7.4339727689221036e-06
  - 1.3329021385288797e-05
---
header:
  stamp:
    sec: 1722521598
    nanosec: 400925741
  frame_id: gps_front
pose:
  pose:
    position:
      x: -77.03073487308899
      y: 42.87846872135091
      z: 182.18159512616694
    orientation:
      x: 0.0010170522615250703
      y: 0.02450716298132034
      z: -0.041452037676795624
      w: 0.9988393730424054
  covariance:
  - 2.08674136956688e-05
  - -5.072567091701785e-06
  - 1.468438654228521e-06
  - 0.0
  - 0.0
  - 0.0
  - -5.072567091701785e-06
  - 3.3270604035351425e-05
  - -7.351871317951009e-06
  - 0.0
  - 0.0
  - 0.0
  - 1.468438654228521e-06
  - -7.351871317951009e-06
  - 8.512222848366946e-05
  - 0.0
  - 0.0
  - 0.0
  - 0.0
  - 0.0
  - 0.0
  - 0.0
  - 0.0
  - 0.0
  - 0.0
  - 0.0
  - 0.0
  - 0.0
  - 3.97607363993302e-05
  - 7.455920240317937e-06
  - 0.0
  - 0.0
  - 0.0
  - 0.0
  - 7.455920240317937e-06
  - 1.3361163837544154e-05
---
header:
  stamp:
    sec: 1722521598
    nanosec: 500770516
  frame_id: gps_front
pose:
  pose:
    position:
      x: -77.0307348695527
      y: 42.878468715749875
      z: 182.18230474367738
    orientation:
      x: 0.0010104127151467923
      y: 0.024383931692275648
      z: -0.04138978398906181
      w: 0.9988449773226626
  covariance:
  - 2.0928968297084793e-05
  - -5.132359092385741e-06
  - 1.4268767927205772e-06
  - 0.0
  - 0.0
  - 0.0
  - -5.132359092385741e-06
  - 3.344766446389258e-05
  - -7.236009423650103e-06
  - 0.0
  - 0.0
  - 0.0
  - 1.4268767927205772e-06
  - -7.236009423650103e-06
  - 8.527528552804142e-05
  - 0.0
  - 0.0
  - 0.0
  - 0.0
  - 0.0
  - 0.0
  - 0.0
  - 0.0
  - 0.0
  - 0.0
  - 0.0
  - 0.0
  - 0.0
  - 3.98561533074826e-05
  - 7.486389222322032e-06
  - 0.0
  - 0.0
  - 0.0
  - 0.0
  - 7.486389222322032e-06
  - 1.34093061205931e-05
---
header:
  stamp:
    sec: 1722521598
    nanosec: 600814631
  frame_id: gps_front
pose:
  pose:
    position:
      x: -77.03073487348848
      y: 42.878468714092335
      z: 182.181776734069
    orientation:
      x: 0.0010104788056128178
      y: 0.024454404625882453
      z: -0.04127333391403994
      w: 0.9988480729993913
  covariance:
  - 2.107662112393882e-05
  - -5.284411599859595e-06
  - 1.4534839465341065e-06
  - 0.0
  - 0.0
  - 0.0
  - -5.284411599859595e-06
  - 3.379711415618658e-05
  - -7.255835953401402e-06
  - 0.0
  - 0.0
  - 0.0
  - 1.4534839465341065e-06
  - -7.255835953401402e-06
  - 8.577865082770586e-05
  - 0.0
  - 0.0
  - 0.0
  - 0.0
  - 0.0
  - 0.0
  - 0.0
  - 0.0
  - 0.0
  - 0.0
  - 0.0
  - 0.0
  - 0.0
  - 3.9991518860915676e-05
  - 7.527272373408778e-06
  - 0.0
  - 0.0
  - 0.0
  - 0.0
  - 7.527272373408778e-06
  - 1.3473117178364191e-05
---
header:
  stamp:
    sec: 1722521598
    nanosec: 700847327
  frame_id: gps_front
pose:
  pose:
    position:
      x: -77.03073487300617
      y: 42.87846871730612
      z: 182.1797416470945
    orientation:
      x: 0.0010072720011878207
      y: 0.024318392664212266
      z: -0.04137242662424388
      w: 0.9988472973866258
  covariance:
  - 2.1115409253980033e-05
  - -5.230012902757153e-06
  - 1.4421800642594462e-06
  - 0.0
  - 0.0
  - 0.0
  - -5.230012902757153e-06
  - 3.398222179384902e-05
  - -7.458128038706491e-06
  - 0.0
  - 0.0
  - 0.0
  - 1.4421800642594462e-06
  - -7.458128038706491e-06
  - 8.621206507086754e-05
  - 0.0
  - 0.0
  - 0.0
  - 0.0
  - 0.0
  - 0.0
  - 0.0
  - 0.0
  - 0.0
  - 0.0
  - 0.0
  - 0.0
  - 0.0
  - 4.010182965430431e-05
  - 7.559566711279331e-06
  - 0.0
  - 0.0
  - 0.0
  - 0.0
  - 7.559566711279331e-06
  - 1.35247801154037e-05
---
header:
  stamp:
    sec: 1722521598
    nanosec: 801175544
  frame_id: gps_front
pose:
  pose:
    position:
      x: -77.03073487541434
      y: 42.87846871415118
      z: 182.17804580833763
    orientation:
      x: 0.001006318170059386
      y: 0.02435111987213627
      z: -0.041277827340887654
      w: 0.9988504148543612
  covariance:
  - 2.1099662262713537e-05
  - -5.102955128677422e-06
  - 1.2970537000001059e-06
  - 0.0
  - 0.0
  - 0.0
  - -5.102955128677422e-06
  - 3.3877266105264425e-05
  - -7.386020570265828e-06
  - 0.0
  - 0.0
  - 0.0
  - 1.2970537000001059e-06
  - -7.386020570265828e-06
  - 8.608376083429903e-05
  - 0.0
  - 0.0
  - 0.0
  - 0.0
  - 0.0
  - 0.0
  - 0.0
  - 0.0
  - 0.0
  - 0.0
  - 0.0
  - 0.0
  - 0.0
  - 4.011889541288838e-05
  - 7.572100003017113e-06
  - 0.0
  - 0.0
  - 0.0
  - 0.0
  - 7.572100003017113e-06
  - 1.3543440218199976e-05
---
header:
  stamp:
    sec: 1722521598
    nanosec: 901220221
  frame_id: gps_front
pose:
  pose:
    position:
      x: -77.03073487410337
      y: 42.87846871244449
      z: 182.17871528491378
    orientation:
      x: 0.001007426088664169
      y: 0.024434121221336758
      z: -0.04118297763276492
      w: 0.9988523019776828
  covariance:
  - 2.1030828065704554e-05
  - -5.16590307597653e-06
  - 1.4068798463995336e-06
  - 0.0
  - 0.0
  - 0.0
  - -5.16590307597653e-06
  - 3.376670792931691e-05
  - -7.365440978901461e-06
  - 0.0
  - 0.0
  - 0.0
  - 1.4068798463995336e-06
  - -7.365440978901461e-06
  - 8.566700853407383e-05
  - 0.0
  - 0.0
  - 0.0
  - 0.0
  - 0.0
  - 0.0
  - 0.0
  - 0.0
  - 0.0
  - 0.0
  - 0.0
  - 0.0
  - 0.0
  - 4.0201695810537785e-05
  - 7.5918546826869715e-06
  - 0.0
  - 0.0
  - 0.0
  - 0.0
  - 7.5918546826869715e-06
  - 1.3576342098531313e-05
---
header:
  stamp:
    sec: 1722521599
    nanosec: 1281657
  frame_id: gps_front
pose:
  pose:
    position:
      x: -77.03073488734469
      y: 42.87846871316214
      z: 182.1777928955853
    orientation:
      x: 0.0010094484480744203
      y: 0.024343108753234744
      z: -0.041419618183934255
      w: 0.998844737333864
  covariance:
  - 2.097925971611403e-05
  - -5.2272471293690614e-06
  - 1.4564529919880442e-06
  - 0.0
  - 0.0
  - 0.0
  - -5.2272471293690614e-06
  - 3.3632739359745756e-05
  - -7.557994194939965e-06
  - 0.0
  - 0.0
  - 0.0
  - 1.4564529919880442e-06
  - -7.557994194939965e-06
  - 8.543453441234306e-05
  - 0.0
  - 0.0
  - 0.0
  - 0.0
  - 0.0
  - 0.0
  - 0.0
  - 0.0
  - 0.0
  - 0.0
  - 0.0
  - 0.0
  - 0.0
  - 4.015377999166958e-05
  - 7.584204922750359e-06
  - 0.0
  - 0.0
  - 0.0
  - 0.0
  - 7.584204922750359e-06
  - 1.3566700545197818e-05
---
header:
  stamp:
    sec: 1722521599
    nanosec: 101156919
  frame_id: gps_front
pose:
  pose:
    position:
      x: -77.0307348864376
      y: 42.878468712485805
      z: 182.17878831271082
    orientation:
      x: 0.001011549998800008
      y: 0.02432653178735427
      z: -0.04153395171758021
      w: 0.9988403913901962
  covariance:
  - 2.1101626771269366e-05
  - -5.01643307870836e-06
  - 2.3166548999142833e-06
  - 0.0
  - 0.0
  - 0.0
  - -5.01643307870836e-06
  - 3.304977872176096e-05
  - -7.386730885627912e-06
  - 0.0
  - 0.0
  - 0.0
  - 2.3166548999142833e-06
  - -7.386730885627912e-06
  - 8.712553244549781e-05
  - 0.0
  - 0.0
  - 0.0
  - 0.0
  - 0.0
  - 0.0
  - 0.0
  - 0.0
  - 0.0
  - 0.0
  - 0.0
  - 0.0
  - 0.0
  - 4.0135360904969275e-05
  - 7.5785169428854715e-06
  - 0.0
  - 0.0
  - 0.0
  - 0.0
  - 7.5785169428854715e-06
  - 1.3557648344431072e-05
---
header:
  stamp:
    sec: 1722521599
    nanosec: 200842065
  frame_id: gps_front
pose:
  pose:
    position:
      x: -77.03073487807373
      y: 42.87846871258334
      z: 182.17993722856045
    orientation:
      x: 0.0010106535796162643
      y: 0.024550842217626528
      z: -0.04111848526249264
      w: 0.9988520936031847
  covariance:
  - 2.1073587049613707e-05
  - -4.932940555590903e-06
  - 2.407765805401141e-06
  - 0.0
  - 0.0
  - 0.0
  - -4.932940555590903e-06
  - 3.2784853829070926e-05
  - -7.281015314219985e-06
  - 0.0
  - 0.0
  - 0.0
  - 2.407765805401141e-06
  - -7.281015314219985e-06
  - 8.67524795467034e-05
  - 0.0
  - 0.0
  - 0.0
  - 0.0
  - 0.0
  - 0.0
  - 0.0
  - 0.0
  - 0.0
  - 0.0
  - 0.0
  - 0.0
  - 0.0
  - 4.016991806565784e-05
  - 7.5912175816483796e-06
  - 0.0
  - 0.0
  - 0.0
  - 0.0
  - 7.5912175816483796e-06
  - 1.3559783837990835e-05
---
header:
  stamp:
    sec: 1722521599
    nanosec: 300844434
  frame_id: gps_front
pose:
  pose:
    position:
      x: -77.03073487973846
      y: 42.87846871881353
      z: 182.18135683890432
    orientation:
      x: 0.001015153470654554
      y: 0.02448903676832393
      z: -0.04140537187771036
      w: 0.9988417550949996
  covariance:
  - 2.122269506799057e-05
  - -4.937531230098102e-06
  - 2.4722869511606405e-06
  - 0.0
  - 0.0
  - 0.0
  - -4.937531230098102e-06
  - 3.2824507798068225e-05
  - -7.0708028943045065e-06
  - 0.0
  - 0.0
  - 0.0
  - 2.4722869511606405e-06
  - -7.0708028943045065e-06
  - 8.7359243480023e-05
  - 0.0
  - 0.0
  - 0.0
  - 0.0
  - 0.0
  - 0.0
  - 0.0
  - 0.0
  - 0.0
  - 0.0
  - 0.0
  - 0.0
  - 0.0
  - 4.0131584682967514e-05
  - 7.5883217505179346e-06
  - 0.0
  - 0.0
  - 0.0
  - 0.0
  - 7.5883217505179346e-06
  - 1.3539041901822202e-05
---
header:
  stamp:
    sec: 1722521599
    nanosec: 401112039
  frame_id: gps_front
pose:
  pose:
    position:
      x: -77.03073488532625
      y: 42.87846872105041
      z: 182.18253429047763
    orientation:
      x: 0.0010223399448246592
      y: 0.024627017138984065
      z: -0.041464617119447975
      w: 0.9988358976203303
  covariance:
  - 2.1491305233212188e-05
  - -4.924080712953582e-06
  - 2.681922751435195e-06
  - 0.0
  - 0.0
  - 0.0
  - -4.924080712953582e-06
  - 3.293469490017742e-05
  - -6.920819032529835e-06
  - 0.0
  - 0.0
  - 0.0
  - 2.681922751435195e-06
  - -6.920819032529835e-06
  - 8.806302503217012e-05
  - 0.0
  - 0.0
  - 0.0
  - 0.0
  - 0.0
  - 0.0
  - 0.0
  - 0.0
  - 0.0
  - 0.0
  - 0.0
  - 0.0
  - 0.0
  - 4.006484232377261e-05
  - 7.5808643487107474e-06
  - 0.0
  - 0.0
  - 0.0
  - 0.0
  - 7.5808643487107474e-06
  - 1.3507851690519601e-05
---
header:
  stamp:
    sec: 1722521599
    nanosec: 500821729
  frame_id: gps_front
pose:
  pose:
    position:
      x: -77.03073487353014
      y: 42.87846871950727
      z: 182.18280123453587
    orientation:
      x: 0.0010173457503427125
      y: 0.02463184124589665
      z: -0.04125433369380137
      w: 0.9988444910775358
  covariance:
  - 2.1894795281696133e-05
  - -5.043148121330887e-06
  - 3.3465873912064126e-06
  - 0.0
  - 0.0
  - 0.0
  - -5.043148121330887e-06
  - 3.325804209453054e-05
  - -6.993724127823953e-06
  - 0.0
  - 0.0
  - 0.0
  - 3.3465873912064126e-06
  - -6.993724127823953e-06
  - 8.925646397983655e-05
  - 0.0
  - 0.0
  - 0.0
  - 0.0
  - 0.0
  - 0.0
  - 0.0
  - 0.0
  - 0.0
  - 0.0
  - 0.0
  - 0.0
  - 0.0
  - 4.0065209759632125e-05
  - 7.5866719271289185e-06
  - 0.0
  - 0.0
  - 0.0
  - 0.0
  - 7.5866719271289185e-06
  - 1.3492805919668172e-05
---
header:
  stamp:
    sec: 1722521599
    nanosec: 600839510
  frame_id: gps_front
pose:
  pose:
    position:
      x: -77.0307348788333
      y: 42.8784687077123
      z: 182.18472550529987
    orientation:
      x: 0.0010250566959649563
      y: 0.02473812600135523
      z: -0.041388093059379946
      w: 0.9988363229947232
  covariance:
  - 2.2513129806611687e-05
  - -5.185257577977609e-06
  - 4.0677673496247735e-06
  - 0.0
  - 0.0
  - 0.0
  - -5.185257577977609e-06
  - 3.375434971530922e-05
  - -7.138896762626246e-06
  - 0.0
  - 0.0
  - 0.0
  - 4.0677673496247735e-06
  - -7.138896762626246e-06
  - 9.13568728719838e-05
  - 0.0
  - 0.0
  - 0.0
  - 0.0
  - 0.0
  - 0.0
  - 0.0
  - 0.0
  - 0.0
  - 0.0
  - 0.0
  - 0.0
  - 0.0
  - 4.005352093372494e-05
  - 7.5909697443421464e-06
  - 0.0
  - 0.0
  - 0.0
  - 0.0
  - 7.5909697443421464e-06
  - 1.3475046216626652e-05
---
header:
  stamp:
    sec: 1722521599
    nanosec: 700817351
  frame_id: gps_front
pose:
  pose:
    position:
      x: -77.03073488082535
      y: 42.87846870266807
      z: 182.18554265517741
    orientation:
      x: 0.0010208355086456977
      y: 0.02468261629225022
      z: -0.04131054250215932
      w: 0.998840910969315
  covariance:
  - 2.3161201170296408e-05
  - -5.117855380376568e-06
  - 4.566619736579014e-06
  - 0.0
  - 0.0
  - 0.0
  - -5.117855380376568e-06
  - 3.414442835492082e-05
  - -7.261002792802174e-06
  - 0.0
  - 0.0
  - 0.0
  - 4.566619736579014e-06
  - -7.261002792802174e-06
  - 9.326184226665646e-05
  - 0.0
  - 0.0
  - 0.0
  - 0.0
  - 0.0
  - 0.0
  - 0.0
  - 0.0
  - 0.0
  - 0.0
  - 0.0
  - 0.0
  - 0.0
  - 4.001659181085415e-05
  - 7.584227660117904e-06
  - 0.0
  - 0.0
  - 0.0
  - 0.0
  - 7.584227660117904e-06
  - 1.3463519280776381e-05
---
header:
  stamp:
    sec: 1722521599
    nanosec: 800872237
  frame_id: gps_front
pose:
  pose:
    position:
      x: -77.0307348717831
      y: 42.87846869815372
      z: 182.18597980588675
    orientation:
      x: 0.0010237139146717091
      y: 0.024758880295048937
      z: -0.041299358658435946
      w: 0.9988394830155436
  covariance:
  - 2.340789978916291e-05
  - -5.028027771913912e-06
  - 4.935654033033643e-06
  - 0.0
  - 0.0
  - 0.0
  - -5.028027771913912e-06
  - 3.417236439418048e-05
  - -7.1337062763632275e-06
  - 0.0
  - 0.0
  - 0.0
  - 4.935654033033643e-06
  - -7.1337062763632275e-06
  - 9.375427180202678e-05
  - 0.0
  - 0.0
  - 0.0
  - 0.0
  - 0.0
  - 0.0
  - 0.0
  - 0.0
  - 0.0
  - 0.0
  - 0.0
  - 0.0
  - 0.0
  - 4.00520657422021e-05
  - 7.590281711600255e-06
  - 0.0
  - 0.0
  - 0.0
  - 0.0
  - 7.590281711600255e-06
  - 1.347285524389008e-05
---
header:
  stamp:
    sec: 1722521599
    nanosec: 901210272
  frame_id: gps_front
pose:
  pose:
    position:
      x: -77.03073487517858
      y: 42.87846869516657
      z: 182.18631868064404
    orientation:
      x: 0.0010186182211640376
      y: 0.024656996417167627
      z: -0.04126375133949932
      w: 0.9988434801158763
  covariance:
  - 2.357821722398512e-05
  - -5.003704700357048e-06
  - 5.254514690022916e-06
  - 0.0
  - 0.0
  - 0.0
  - -5.003704700357048e-06
  - 3.403323353268206e-05
  - -7.051241482258774e-06
  - 0.0
  - 0.0
  - 0.0
  - 5.254514690022916e-06
  - -7.051241482258774e-06
  - 9.38779630814679e-05
  - 0.0
  - 0.0
  - 0.0
  - 0.0
  - 0.0
  - 0.0
  - 0.0
  - 0.0
  - 0.0
  - 0.0
  - 0.0
  - 0.0
  - 0.0
  - 4.003532012575306e-05
  - 7.588223979837494e-06
  - 0.0
  - 0.0
  - 0.0
  - 0.0
  - 7.588223979837494e-06
  - 1.3465371011989191e-05
---
header:
  stamp:
    sec: 1722521600
    nanosec: 1130441
  frame_id: gps_front
pose:
  pose:
    position:
      x: -77.03073487754517
      y: 42.87846868295554
      z: 182.1876165913418
    orientation:
      x: 0.0010264709059009168
      y: 0.024817673051463075
      z: -0.04131239914038155
      w: 0.998837481845298
  covariance:
  - 2.349595342820976e-05
  - -5.021993729315e-06
  - 5.407344815466786e-06
  - 0.0
  - 0.0
  - 0.0
  - -5.021993729315e-06
  - 3.3675132726784796e-05
  - -7.065612862788839e-06
  - 0.0
  - 0.0
  - 0.0
  - 5.407344815466786e-06
  - -7.065612862788839e-06
  - 9.324827988166362e-05
  - 0.0
  - 0.0
  - 0.0
  - 0.0
  - 0.0
  - 0.0
  - 0.0
  - 0.0
  - 0.0
  - 0.0
  - 0.0
  - 0.0
  - 0.0
  - 4.000659828307107e-05
  - 7.5849416134587955e-06
  - 0.0
  - 0.0
  - 0.0
  - 0.0
  - 7.5849416134587955e-06
  - 1.3451498489303049e-05
---
header:
  stamp:
    sec: 1722521600
    nanosec: 101268494
  frame_id: gps_front
pose:
  pose:
    position:
      x: -77.03073487214888
      y: 42.87846868231089
      z: 182.18697003275156
    orientation:
      x: 0.0010276973512086767
      y: 0.024816872870024334
      z: -0.04136300759595478
      w: 0.9988354059912596
  covariance:
  - 2.3207036065286957e-05
  - -4.951994924340397e-06
  - 5.266810148896184e-06
  - 0.0
  - 0.0
  - 0.0
  - -4.951994924340397e-06
  - 3.315351568744518e-05
  - -7.396149158012122e-06
  - 0.0
  - 0.0
  - 0.0
  - 5.266810148896184e-06
  - -7.396149158012122e-06
  - 9.221446816809475e-05
  - 0.0
  - 0.0
  - 0.0
  - 0.0
  - 0.0
  - 0.0
  - 0.0
  - 0.0
  - 0.0
  - 0.0
  - 0.0
  - 0.0
  - 0.0
  - 3.999360342277214e-05
  - 7.583937986055389e-06
  - 0.0
  - 0.0
  - 0.0
  - 0.0
  - 7.583937986055389e-06
  - 1.3445015611068811e-05
---
header:
  stamp:
    sec: 1722521600
    nanosec: 200879712
  frame_id: gps_front
pose:
  pose:
    position:
      x: -77.030734871896
      y: 42.87846868831439
      z: 182.18730413448066
    orientation:
      x: 0.0010199322533732756
      y: 0.024615763125397684
      z: -0.041386023768007936
      w: 0.998839437037118
  covariance:
  - 2.3324726498685777e-05
  - -4.9602481340116356e-06
  - 5.29824410477886e-06
  - 0.0
  - 0.0
  - 0.0
  - -4.9602481340116356e-06
  - 3.332241976750083e-05
  - -7.62046829549945e-06
  - 0.0
  - 0.0
  - 0.0
  - 5.29824410477886e-06
  - -7.62046829549945e-06
  - 9.280010999646038e-05
  - 0.0
  - 0.0
  - 0.0
  - 0.0
  - 0.0
  - 0.0
  - 0.0
  - 0.0
  - 0.0
  - 0.0
  - 0.0
  - 0.0
  - 0.0
  - 3.999092587037012e-05
  - 7.5836078394786455e-06
  - 0.0
  - 0.0
  - 0.0
  - 0.0
  - 7.5836078394786455e-06
  - 1.3443946954794228e-05
---
header:
  stamp:
    sec: 1722521600
    nanosec: 301101214
  frame_id: gps_front
pose:
  pose:
    position:
      x: -77.03073486869512
      y: 42.878468688988114
      z: 182.1870093345642
    orientation:
      x: 0.0010160867614994237
      y: 0.024505479336951345
      z: -0.04141559643861737
      w: 0.9988409269857703
  covariance:
  - 2.3273207261809148e-05
  - -5.004716058465419e-06
  - 5.368747224565595e-06
  - 0.0
  - 0.0
  - 0.0
  - -5.004716058465419e-06
  - 3.333650602144189e-05
  - -7.4324311754025985e-06
  - 0.0
  - 0.0
  - 0.0
  - 5.368747224565595e-06
  - -7.4324311754025985e-06
  - 9.247498383047059e-05
  - 0.0
  - 0.0
  - 0.0
  - 0.0
  - 0.0
  - 0.0
  - 0.0
  - 0.0
  - 0.0
  - 0.0
  - 0.0
  - 0.0
  - 0.0
  - 3.9992672100197524e-05
  - 7.581899353681365e-06
  - 0.0
  - 0.0
  - 0.0
  - 0.0
  - 7.581899353681365e-06
  - 1.3442743693303782e-05
---
header:
  stamp:
    sec: 1722521600
    nanosec: 400963047
  frame_id: gps_front
pose:
  pose:
    position:
      x: -77.03073486857791
      y: 42.87846868652073
      z: 182.18461002409458
    orientation:
      x: 0.0010045484809905042
      y: 0.024246822026444452
      z: -0.04138240753740639
      w: 0.9988486265948285
  covariance:
  - 2.31720205192687e-05
  - -5.123342816659715e-06
  - 5.450235676107695e-06
  - 0.0
  - 0.0
  - 0.0
  - -5.123342816659715e-06
  - 3.327888771309517e-05
  - -7.27362566976808e-06
  - 0.0
  - 0.0
  - 0.0
  - 5.450235676107695e-06
  - -7.27362566976808e-06
  - 9.192091238219291e-05
  - 0.0
  - 0.0
  - 0.0
  - 0.0
  - 0.0
  - 0.0
  - 0.0
  - 0.0
  - 0.0
  - 0.0
  - 0.0
  - 0.0
  - 0.0
  - 3.9947237382875755e-05
  - 7.5695729719882365e-06
  - 0.0
  - 0.0
  - 0.0
  - 0.0
  - 7.5695729719882365e-06
  - 1.3426607438304927e-05
---
header:
  stamp:
    sec: 1722521600
    nanosec: 501143554
  frame_id: gps_front
pose:
  pose:
    position:
      x: -77.03073486198144
      y: 42.87846868189877
      z: 182.18655874114484
    orientation:
      x: 0.001010646180056461
      y: 0.024520749019704968
      z: -0.041168592085073195
      w: 0.9988507688776859
  covariance:
  - 2.3213800886878744e-05
  - -5.206481091590831e-06
  - 5.314314876159187e-06
  - 0.0
  - 0.0
  - 0.0
  - -5.206481091590831e-06
  - 3.35339100274723e-05
  - -7.1865247264213394e-06
  - 0.0
  - 0.0
  - 0.0
  - 5.314314876159187e-06
  - -7.1865247264213394e-06
  - 9.24817577470094e-05
  - 0.0
  - 0.0
  - 0.0
  - 0.0
  - 0.0
  - 0.0
  - 0.0
  - 0.0
  - 0.0
  - 0.0
  - 0.0
  - 0.0
  - 0.0
  - 3.9885493606561795e-05
  - 7.556679520348553e-06
  - 0.0
  - 0.0
  - 0.0
  - 0.0
  - 7.556679520348553e-06
  - 1.3406675861915573e-05
---
header:
  stamp:
    sec: 1722521600
    nanosec: 600802891
  frame_id: gps_front
pose:
  pose:
    position:
      x: -77.03073485887191
      y: 42.87846868415457
      z: 182.18746167887002
    orientation:
      x: 0.0010174682404226706
      y: 0.02465148567436885
      z: -0.04122644932628203
      w: 0.9988451576137182
  covariance:
  - 2.3252126993611455e-05
  - -5.240522114036139e-06
  - 5.1717129281314556e-06
  - 0.0
  - 0.0
  - 0.0
  - -5.240522114036139e-06
  - 3.385942545719445e-05
  - -7.133555754990084e-06
  - 0.0
  - 0.0
  - 0.0
  - 5.1717129281314556e-06
  - -7.133555754990084e-06
  - 9.286931162932888e-05
  - 0.0
  - 0.0
  - 0.0
  - 0.0
  - 0.0
  - 0.0
  - 0.0
  - 0.0
  - 0.0
  - 0.0
  - 0.0
  - 0.0
  - 0.0
  - 3.982804628321901e-05
  - 7.54223219701089e-06
  - 0.0
  - 0.0
  - 0.0
  - 0.0
  - 7.54223219701089e-06
  - 1.33850926431478e-05
---
header:
  stamp:
    sec: 1722521600
    nanosec: 700869628
  frame_id: gps_front
pose:
  pose:
    position:
      x: -77.03073486168394
      y: 42.87846868024476
      z: 182.18575658556074
    orientation:
      x: 0.001010667175844521
      y: 0.024609021636545315
      z: -0.041021931097679494
      w: 0.9988546319535035
  covariance:
  - 2.3285980205400847e-05
  - -5.236752713244641e-06
  - 5.2523560043482576e-06
  - 0.0
  - 0.0
  - 0.0
  - -5.236752713244641e-06
  - 3.403927985345945e-05
  - -7.199761512310943e-06
  - 0.0
  - 0.0
  - 0.0
  - 5.2523560043482576e-06
  - -7.199761512310943e-06
  - 9.308964217780158e-05
  - 0.0
  - 0.0
  - 0.0
  - 0.0
  - 0.0
  - 0.0
  - 0.0
  - 0.0
  - 0.0
  - 0.0
  - 0.0
  - 0.0
  - 0.0
  - 3.980501423939131e-05
  - 7.535794793511741e-06
  - 0.0
  - 0.0
  - 0.0
  - 0.0
  - 7.535794793511741e-06
  - 1.3378511539485771e-05
---
header:
  stamp:
    sec: 1722521600
    nanosec: 801101546
  frame_id: gps_front
pose:
  pose:
    position:
      x: -77.03073487350387
      y: 42.87846868527686
      z: 182.18524195067585
    orientation:
      x: 0.0010144373865831463
      y: 0.024732150008883198
      z: -0.04096993419708
      w: 0.9988537211046539
  covariance:
  - 2.3317570594372228e-05
  - -5.203290129429661e-06
  - 5.257008524495177e-06
  - 0.0
  - 0.0
  - 0.0
  - -5.203290129429661e-06
  - 3.408242992009036e-05
  - -7.210946023405995e-06
  - 0.0
  - 0.0
  - 0.0
  - 5.257008524495177e-06
  - -7.210946023405995e-06
  - 9.329972817795351e-05
  - 0.0
  - 0.0
  - 0.0
  - 0.0
  - 0.0
  - 0.0
  - 0.0
  - 0.0
  - 0.0
  - 0.0
  - 0.0
  - 0.0
  - 0.0
  - 3.9786194975022227e-05
  - 7.530127732024994e-06
  - 0.0
  - 0.0
  - 0.0
  - 0.0
  - 7.530127732024994e-06
  - 1.3373721230891533e-05
---
header:
  stamp:
    sec: 1722521600
    nanosec: 901240180
  frame_id: gps_front
pose:
  pose:
    position:
      x: -77.03073486146
      y: 42.878468688439156
      z: 182.18303649220616
    orientation:
      x: 0.001025378850166103
      y: 0.02493573690629862
      z: -0.04107333694848834
      w: 0.998844401603708
  covariance:
  - 2.3276248612091877e-05
  - -5.17312582815066e-06
  - 5.305113063514e-06
  - 0.0
  - 0.0
  - 0.0
