header:
  stamp:
    sec: 1722524089
    nanosec: 1889415
  frame_id: gps_front
pose:
  pose:
    position:
      x: -77.03073845392335
      y: 42.8784686453115
      z: 182.17909605056047
    orientation:
      x: -9.426372038175975e-05
      y: 0.021287141365757985
      z: 0.0044271532046678075
      w: 0.9997635965773748
  covariance:
  - 3.1662282708566636e-05
  - -1.2174031326139811e-05
  - 4.321080723457271e-06
  - 0.0
  - 0.0
  - 0.0
  - -1.2174031326139811e-05
  - 5.167140261619352e-05
  - -2.5495044610579498e-05
  - 0.0
  - 0.0
  - 0.0
  - 4.321080723457271e-06
  - -2.5495044610579498e-05
  - 0.00010281250433763489
  - 0.0
  - 0.0
  - 0.0
  - 0.0
  - 0.0
  - 0.0
  - 0.0
  - 0.0
  - 0.0
  - 0.0
  - 0.0
  - 0.0
  - 0.0
  - 5.0243277655681595e-05
  - 1.1108474609500263e-05
  - 0.0
  - 0.0
  - 0.0
  - 0.0
  - 1.1108474609500263e-05
  - 1.7956841475097463e-05
---
header:
  stamp:
    sec: 1722524089
    nanosec: 101733269
  frame_id: gps_front
pose:
  pose:
    position:
      x: -77.03073846419123
      y: 42.87846864608554
      z: 182.17905542068183
    orientation:
      x: -8.139503574666015e-05
      y: 0.021336289859698848
      z: 0.0038139674113509283
      w: 0.9997650772868876
  covariance:
  - 3.1594172469340265e-05
  - -1.2205641723994631e-05
  - 4.322463610151317e-06
  - 0.0
  - 0.0
  - 0.0
  - -1.2205641723994631e-05
  - 5.128543853061274e-05
  - -2.5375135010108352e-05
  - 0.0
  - 0.0
  - 0.0
  - 4.322463610151317e-06
  - -2.5375135010108352e-05
  - 0.00010242644202662632
  - 0.0
  - 0.0
  - 0.0
  - 0.0
  - 0.0
  - 0.0
  - 0.0
  - 0.0
  - 0.0
  - 0.0
  - 0.0
  - 0.0
  - 0.0
  - 5.01953654747922e-05
  - 1.1094197361671831e-05
  - 0.0
  - 0.0
  - 0.0
  - 0.0
  - 1.1094197361671831e-05
  - 1.793614683265332e-05
---
header:
  stamp:
    sec: 1722524089
    nanosec: 201787461
  frame_id: gps_front
pose:
  pose:
    position:
      x: -77.03073845211661
      y: 42.87846865726304
      z: 182.17842652462423
    orientation:
      x: -7.996373370040838e-05
      y: 0.02126054083175309
      z: 0.003760256822840229
      w: 0.9997668945699137
  covariance:
  - 3.1457799195777625e-05
  - -1.2011003491352312e-05
  - 4.510192411544267e-06
  - 0.0
  - 0.0
  - 0.0
  - -1.2011003491352312e-05
  - 5.0942067900905386e-05
  - -2.5432042093598284e-05
  - 0.0
  - 0.0
  - 0.0
  - 4.510192411544267e-06
  - -2.5432042093598284e-05
  - 0.00010139832011191174
  - 0.0
  - 0.0
  - 0.0
  - 0.0
  - 0.0
  - 0.0
  - 0.0
  - 0.0
  - 0.0
  - 0.0
  - 0.0
  - 0.0
  - 0.0
  - 5.030736429034732e-05
  - 1.1122784599137958e-05
  - 0.0
  - 0.0
  - 0.0
  - 0.0
  - 1.1122784599137958e-05
  - 1.7978945834329352e-05
---
header:
  stamp:
    sec: 1722524089
    nanosec: 301782313
  frame_id: gps_front
pose:
  pose:
    position:
      x: -77.03073846065934
      y: 42.878468645962165
      z: 182.17966808006167
    orientation:
      x: -9.402602266958628e-05
      y: 0.021393976376371956
      z: 0.004393928099370383
      w: 0.9997614627148678
  covariance:
  - 3.134058715659194e-05
  - -1.1998093214060646e-05
  - 4.8791725930641405e-06
  - 0.0
  - 0.0
  - 0.0
  - -1.1998093214060646e-05
  - 5.0875558372354135e-05
  - -2.5585091862012632e-05
  - 0.0
  - 0.0
  - 0.0
  - 4.8791725930641405e-06
  - -2.5585091862012632e-05
  - 0.00010047947580460459
  - 0.0
  - 0.0
  - 0.0
  - 0.0
  - 0.0
  - 0.0
  - 0.0
  - 0.0
  - 0.0
  - 0.0
  - 0.0
  - 0.0
  - 0.0
  - 5.029269595979713e-05
  - 1.1129672202514485e-05
  - 0.0
  - 0.0
  - 0.0
  - 0.0
  - 1.1129672202514485e-05
  - 1.7990880223806016e-05
---
header:
  stamp:
    sec: 1722524089
    nanosec: 401385677
  frame_id: gps_front
pose:
  pose:
    position:
      x: -77.03073846362886
      y: 42.87846865073297
      z: 182.17793994117528
    orientation:
      x: -9.226479099490804e-05
      y: 0.021325674349432833
      z: 0.0043254409262715775
      w: 0.9997632207985766
  covariance:
  - 3.110225225100294e-05
  - -1.2035890904371627e-05
  - 5.306751063471893e-06
  - 0.0
  - 0.0
  - 0.0
  - -1.2035890904371627e-05
  - 5.0684284360613674e-05
  - -2.5320097847725265e-05
  - 0.0
  - 0.0
  - 0.0
  - 5.306751063471893e-06
  - -2.5320097847725265e-05
  - 9.865015454124659e-05
  - 0.0
  - 0.0
  - 0.0
  - 0.0
  - 0.0
  - 0.0
  - 0.0
  - 0.0
  - 0.0
  - 0.0
  - 0.0
  - 0.0
  - 0.0
  - 5.0382266636006534e-05
  - 1.1165622709086165e-05
  - 0.0
  - 0.0
  - 0.0
  - 0.0
  - 1.1165622709086165e-05
  - 1.8041613657260314e-05
---
header:
  stamp:
    sec: 1722524089
    nanosec: 501757892
  frame_id: gps_front
pose:
  pose:
    position:
      x: -77.0307384627025
      y: 42.87846864743671
      z: 182.17904183454812
    orientation:
      x: -9.551032817225608e-05
      y: 0.02142146507183971
      z: 0.0044575598327164945
      w: 0.9997605922781168
  covariance:
  - 3.095985812251456e-05
  - -1.203426654683426e-05
  - 5.914204393775435e-06
  - 0.0
  - 0.0
  - 0.0
  - -1.203426654683426e-05
  - 5.090543709229678e-05
  - -2.5426852516829967e-05
  - 0.0
  - 0.0
  - 0.0
  - 5.914204393775435e-06
  - -2.5426852516829967e-05
  - 9.757892257766798e-05
  - 0.0
  - 0.0
  - 0.0
  - 0.0
  - 0.0
  - 0.0
  - 0.0
  - 0.0
  - 0.0
  - 0.0
  - 0.0
  - 0.0
  - 0.0
  - 5.056478039477952e-05
  - 1.123006222769618e-05
  - 0.0
  - 0.0
  - 0.0
  - 0.0
  - 1.123006222769618e-05
  - 1.8145277863368392e-05
---
header:
  stamp:
    sec: 1722524089
    nanosec: 601513885
  frame_id: gps_front
pose:
  pose:
    position:
      x: -77.03073847015162
      y: 42.87846865175698
      z: 182.1786197591573
    orientation:
      x: -8.897610326769981e-05
      y: 0.021213558263669823
      z: 0.0041933228178158
      w: 0.9997661691979742
  covariance:
  - 3.079083762713708e-05
  - -1.2013634659524541e-05
  - 6.518300779134734e-06
  - 0.0
  - 0.0
  - 0.0
  - -1.2013634659524541e-05
  - 5.162654269952327e-05
  - -2.5995286705438048e-05
  - 0.0
  - 0.0
  - 0.0
  - 6.518300779134734e-06
  - -2.5995286705438048e-05
  - 9.732256876304746e-05
  - 0.0
  - 0.0
  - 0.0
  - 0.0
  - 0.0
  - 0.0
  - 0.0
  - 0.0
  - 0.0
  - 0.0
  - 0.0
  - 0.0
  - 0.0
  - 5.0717630074359477e-05
  - 1.1290819202258717e-05
  - 0.0
  - 0.0
  - 0.0
  - 0.0
  - 1.1290819202258717e-05
  - 1.8241771613247693e-05
---
header:
  stamp:
    sec: 1722524089
    nanosec: 702051387
  frame_id: gps_front
pose:
  pose:
    position:
      x: -77.03073847693553
      y: 42.878468656526074
      z: 182.17695690318942
    orientation:
      x: -8.241269301892557e-05
      y: 0.02137732910742952
      z: 0.003854234876997728
      w: 0.9997640461038262
  covariance:
  - 3.067805664613843e-05
  - -1.1718489076883998e-05
  - 7.064038982207421e-06
  - 0.0
  - 0.0
  - 0.0
  - -1.1718489076883998e-05
  - 5.202296233619563e-05
  - -2.6026336854556575e-05
  - 0.0
  - 0.0
  - 0.0
  - 7.064038982207421e-06
  - -2.6026336854556575e-05
  - 9.585686348145828e-05
  - 0.0
  - 0.0
  - 0.0
  - 0.0
  - 0.0
  - 0.0
  - 0.0
  - 0.0
  - 0.0
  - 0.0
  - 0.0
  - 0.0
  - 0.0
  - 5.0760823796736076e-05
  - 1.1323895705572795e-05
  - 0.0
  - 0.0
  - 0.0
  - 0.0
  - 1.1323895705572795e-05
  - 1.827579217206221e-05
---
header:
  stamp:
    sec: 1722524089
    nanosec: 801643615
  frame_id: gps_front
pose:
  pose:
    position:
      x: -77.03073847518431
      y: 42.87846864492795
      z: 182.17638778220862
    orientation:
      x: -9.437876997517488e-05
      y: 0.021336862500501968
      z: 0.004422222833102244
      w: 0.9997625584790105
  covariance:
  - 3.0643026548204944e-05
  - -1.1546782843652181e-05
  - 7.60726925363997e-06
  - 0.0
  - 0.0
  - 0.0
  - -1.1546782843652181e-05
  - 5.214194970903918e-05
  - -2.599966319394298e-05
  - 0.0
  - 0.0
  - 0.0
  - 7.60726925363997e-06
  - -2.599966319394298e-05
  - 9.463074093218893e-05
  - 0.0
  - 0.0
  - 0.0
  - 0.0
  - 0.0
  - 0.0
  - 0.0
  - 0.0
  - 0.0
  - 0.0
  - 0.0
  - 0.0
  - 0.0
  - 5.0956452469108626e-05
  - 1.1384656318114139e-05
  - 0.0
  - 0.0
  - 0.0
  - 0.0
  - 1.1384656318114139e-05
  - 1.8370847101323307e-05
---
header:
  stamp:
    sec: 1722524089
    nanosec: 901859827
  frame_id: gps_front
pose:
  pose:
    position:
      x: -77.03073848513682
      y: 42.87846864685723
      z: 182.17709205765277
    orientation:
      x: -8.884142201049443e-05
      y: 0.021446652994367956
      z: 0.004141449277226617
      w: 0.999761412328174
  covariance:
  - 3.057495996472426e-05
  - -1.1434233783802483e-05
  - 7.667183126613963e-06
  - 0.0
  - 0.0
  - 0.0
  - -1.1434233783802483e-05
  - 5.21394467796199e-05
  - -2.6000865545938723e-05
  - 0.0
  - 0.0
  - 0.0
  - 7.667183126613963e-06
  - -2.6000865545938723e-05
  - 9.450010838918388e-05
  - 0.0
  - 0.0
  - 0.0
  - 0.0
  - 0.0
  - 0.0
  - 0.0
  - 0.0
  - 0.0
  - 0.0
  - 0.0
  - 0.0
  - 0.0
  - 5.1024217100348324e-05
  - 1.1409962098696269e-05
  - 0.0
  - 0.0
  - 0.0
  - 0.0
  - 1.1409962098696269e-05
  - 1.8411956261843443e-05
---
header:
  stamp:
    sec: 1722524090
    nanosec: 1997456
  frame_id: gps_front
pose:
  pose:
    position:
      x: -77.03073848317402
      y: 42.878468642548036
      z: 182.1762694856152
    orientation:
      x: -9.759577609160693e-05
      y: 0.021522487896944092
      z: 0.00453349846352608
      w: 0.9997580809283172
  covariance:
  - 3.0328876164276153e-05
  - -1.1405695659050252e-05
  - 7.64212654758012e-06
  - 0.0
  - 0.0
  - 0.0
  - -1.1405695659050252e-05
  - 5.163135574548505e-05
  - -2.5968580303015187e-05
  - 0.0
  - 0.0
  - 0.0
  - 7.64212654758012e-06
  - -2.5968580303015187e-05
  - 9.37286822590977e-05
  - 0.0
  - 0.0
  - 0.0
  - 0.0
  - 0.0
  - 0.0
  - 0.0
  - 0.0
  - 0.0
  - 0.0
  - 0.0
  - 0.0
  - 0.0
  - 5.106455137138255e-05
  - 1.1420968803577125e-05
  - 0.0
  - 0.0
  - 0.0
  - 0.0
  - 1.1420968803577125e-05
  - 1.842927849793341e-05
---
header:
  stamp:
    sec: 1722524090
    nanosec: 101431935
  frame_id: gps_front
pose:
  pose:
    position:
      x: -77.03073849281792
      y: 42.87846864615011
      z: 182.1761782616377
    orientation:
      x: -9.373482658959777e-05
      y: 0.021520724465118428
      z: 0.0043545108655095414
      w: 0.9997589148726812
  covariance:
  - 3.0074936148594134e-05
  - -1.1472979167592712e-05
  - 7.59754311729921e-06
  - 0.0
  - 0.0
  - 0.0
  - -1.1472979167592712e-05
  - 5.073225838714279e-05
  - -2.58790187217528e-05
  - 0.0
  - 0.0
  - 0.0
  - 7.59754311729921e-06
  - -2.58790187217528e-05
  - 9.273894102079794e-05
  - 0.0
  - 0.0
  - 0.0
  - 0.0
  - 0.0
  - 0.0
  - 0.0
  - 0.0
  - 0.0
  - 0.0
  - 0.0
  - 0.0
  - 0.0
  - 5.101660644868389e-05
  - 1.1404915312596131e-05
  - 0.0
  - 0.0
  - 0.0
  - 0.0
  - 1.1404915312596131e-05
  - 1.8399487089482136e-05
---
header:
  stamp:
    sec: 1722524090
    nanosec: 201440604
  frame_id: gps_front
pose:
  pose:
    position:
      x: -77.03073848827248
      y: 42.8784686507045
      z: 182.17715844511986
    orientation:
      x: -9.340291989819368e-05
      y: 0.021646365723372807
      z: 0.004313895742859217
      w: 0.9997563785394841
  covariance:
  - 3.0202967536752112e-05
  - -1.1570956303330604e-05
  - 7.620475116709713e-06
  - 0.0
  - 0.0
  - 0.0
  - -1.1570956303330604e-05
  - 5.08126977365464e-05
  - -2.5708968678372912e-05
  - 0.0
  - 0.0
  - 0.0
  - 7.620475116709713e-06
  - -2.5708968678372912e-05
  - 9.321648394688964e-05
  - 0.0
  - 0.0
  - 0.0
  - 0.0
  - 0.0
  - 0.0
  - 0.0
  - 0.0
  - 0.0
  - 0.0
  - 0.0
  - 0.0
  - 0.0
  - 5.101749411551282e-05
  - 1.1405693840060849e-05
  - 0.0
  - 0.0
  - 0.0
  - 0.0
  - 1.1405693840060849e-05
  - 1.84080363396788e-05
---
header:
  stamp:
    sec: 1722524090
    nanosec: 301330110
  frame_id: gps_front
pose:
  pose:
    position:
      x: -77.0307384984303
      y: 42.878468653922724
      z: 182.17668134719133
    orientation:
      x: -9.560313223607627e-05
      y: 0.021588965366331182
      z: 0.004427257670759576
      w: 0.9997571239175888
  covariance:
  - 3.0226990929804742e-05
  - -1.1680408533720765e-05
  - 7.625598755112151e-06
  - 0.0
  - 0.0
  - 0.0
  - -1.1680408533720765e-05
  - 5.0776074203895405e-05
  - -2.5384546461282298e-05
  - 0.0
  - 0.0
  - 0.0
  - 7.625598755112151e-06
  - -2.5384546461282298e-05
  - 9.314094495493919e-05
  - 0.0
  - 0.0
  - 0.0
  - 0.0
  - 0.0
  - 0.0
  - 0.0
  - 0.0
  - 0.0
  - 0.0
  - 0.0
  - 0.0
  - 0.0
  - 5.0835831643780693e-05
  - 1.1371906111889984e-05
  - 0.0
  - 0.0
  - 0.0
  - 0.0
  - 1.1371906111889984e-05
  - 1.8349081074120477e-05
---
header:
  stamp:
    sec: 1722524090
    nanosec: 402145065
  frame_id: gps_front
pose:
  pose:
    position:
      x: -77.03073849530618
      y: 42.87846866147396
      z: 182.1759710079059
    orientation:
      x: -9.250530965410545e-05
      y: 0.021859282451778546
      z: 0.004230805740596544
      w: 0.9997521010211713
  covariance:
  - 3.0228120522224344e-05
  - -1.175575380329974e-05
  - 7.786243259033654e-06
  - 0.0
  - 0.0
  - 0.0
  - -1.175575380329974e-05
  - 5.0910857680719346e-05
  - -2.5473133064224385e-05
  - 0.0
  - 0.0
  - 0.0
  - 7.786243259033654e-06
  - -2.5473133064224385e-05
  - 9.313679038314149e-05
  - 0.0
  - 0.0
  - 0.0
  - 0.0
  - 0.0
  - 0.0
  - 0.0
  - 0.0
  - 0.0
  - 0.0
  - 0.0
  - 0.0
  - 0.0
  - 5.0755796110024676e-05
  - 1.1369877029210329e-05
  - 0.0
  - 0.0
  - 0.0
  - 0.0
  - 1.1369877029210329e-05
  - 1.8331083992961794e-05
---
header:
  stamp:
    sec: 1722524090
    nanosec: 501838419
  frame_id: gps_front
pose:
  pose:
    position:
      x: -77.03073849013319
      y: 42.87846865673844
      z: 182.17746050748974
    orientation:
      x: -0.00010246830085217554
      y: 0.02183990745708639
      z: 0.004690621163599318
      w: 0.9997504718756639
  covariance:
  - 3.0277726182248443e-05
  - -1.1773105143220164e-05
  - 7.803019798302557e-06
  - 0.0
  - 0.0
  - 0.0
  - -1.1773105143220164e-05
  - 5.1137460104655474e-05
  - -2.5802293748711236e-05
  - 0.0
  - 0.0
  - 0.0
  - 7.803019798302557e-06
  - -2.5802293748711236e-05
  - 9.368413884658366e-05
  - 0.0
  - 0.0
  - 0.0
  - 0.0
  - 0.0
  - 0.0
  - 0.0
  - 0.0
  - 0.0
  - 0.0
  - 0.0
  - 0.0
  - 0.0
  - 5.068535392638296e-05
  - 1.1377958799130283e-05
  - 0.0
  - 0.0
  - 0.0
  - 0.0
  - 1.1377958799130283e-05
  - 1.832808629842475e-05
---
header:
  stamp:
    sec: 1722524090
    nanosec: 601854085
  frame_id: gps_front
pose:
  pose:
    position:
      x: -77.030738487858
      y: 42.878468663990766
      z: 182.17666049022228
    orientation:
      x: -9.910875004339278e-05
      y: 0.022054642794967022
      z: 0.004492643272055998
      w: 0.9997466674438441
  covariance:
  - 3.028783612535335e-05
  - -1.1806512702605687e-05
  - 7.5949665188090876e-06
  - 0.0
  - 0.0
  - 0.0
  - -1.1806512702605687e-05
  - 5.141796646057628e-05
  - -2.6004037863458507e-05
  - 0.0
  - 0.0
  - 0.0
  - 7.5949665188090876e-06
  - -2.6004037863458507e-05
  - 9.418944682693109e-05
  - 0.0
  - 0.0
  - 0.0
  - 0.0
  - 0.0
  - 0.0
  - 0.0
  - 0.0
  - 0.0
  - 0.0
  - 0.0
  - 0.0
  - 0.0
  - 5.047950253356248e-05
  - 1.1365442333044484e-05
  - 0.0
  - 0.0
  - 0.0
  - 0.0
  - 1.1365442333044484e-05
  - 1.8280001313542016e-05
---
header:
  stamp:
    sec: 1722524090
    nanosec: 701465235
  frame_id: gps_front
pose:
  pose:
    position:
      x: -77.03073848829364
      y: 42.87846867237561
      z: 182.17672253027558
    orientation:
      x: -0.00010274588799614551
      y: 0.022241205473222576
      z: 0.004618426625391184
      w: 0.9997419608868512
  covariance:
  - 3.031885171367321e-05
  - -1.1855604498123284e-05
  - 7.481927241315134e-06
  - 0.0
  - 0.0
  - 0.0
  - -1.1855604498123284e-05
  - 5.161566150491126e-05
  - -2.5883406124194153e-05
  - 0.0
  - 0.0
  - 0.0
  - 7.481927241315134e-06
  - -2.5883406124194153e-05
  - 9.451701771467924e-05
  - 0.0
  - 0.0
  - 0.0
  - 0.0
  - 0.0
  - 0.0
  - 0.0
  - 0.0
  - 0.0
  - 0.0
  - 0.0
  - 0.0
  - 0.0
  - 5.047670492785983e-05
  - 1.137552044383483e-05
  - 0.0
  - 0.0
  - 0.0
  - 0.0
  - 1.137552044383483e-05
  - 1.8297094356967136e-05
---
header:
  stamp:
    sec: 1722524090
    nanosec: 801526951
  frame_id: gps_front
pose:
  pose:
    position:
      x: -77.03073849324394
      y: 42.87846867252624
      z: 182.17764764279127
    orientation:
      x: -0.00010060193411076263
      y: 0.02249658022013108
      z: 0.004470700285921285
      w: 0.9997369186924144
  covariance:
  - 3.024426223419141e-05
  - -1.1784333764808252e-05
  - 7.328767878789222e-06
  - 0.0
  - 0.0
  - 0.0
  - -1.1784333764808252e-05
  - 5.132236401550472e-05
  - -2.564229362178594e-05
  - 0.0
  - 0.0
  - 0.0
  - 7.328767878789222e-06
  - -2.564229362178594e-05
  - 9.44209677982144e-05
  - 0.0
  - 0.0
  - 0.0
  - 0.0
  - 0.0
  - 0.0
  - 0.0
  - 0.0
  - 0.0
  - 0.0
  - 0.0
  - 0.0
  - 0.0
  - 5.0372796977171674e-05
  - 1.1361610631865915e-05
  - 0.0
  - 0.0
  - 0.0
  - 0.0
  - 1.1361610631865915e-05
  - 1.8267384803039022e-05
---
header:
  stamp:
    sec: 1722524090
    nanosec: 901667986
  frame_id: gps_front
pose:
  pose:
    position:
      x: -77.03073848629928
      y: 42.87846867607141
      z: 182.17810048535466
    orientation:
      x: -0.00010610486822129132
      y: 0.022606978515023603
      z: 0.004692205194107192
      w: 0.9997334127029037
  covariance:
  - 3.0212509955163114e-05
  - -1.1807611372205429e-05
  - 7.446912150044227e-06
  - 0.0
  - 0.0
  - 0.0
  - -1.1807611372205429e-05
  - 5.110563870402984e-05
  - -2.5657844162196852e-05
  - 0.0
  - 0.0
  - 0.0
  - 7.446912150044227e-06
  - -2.5657844162196852e-05
  - 9.411697828909382e-05
  - 0.0
  - 0.0
  - 0.0
  - 0.0
  - 0.0
  - 0.0
  - 0.0
  - 0.0
  - 0.0
  - 0.0
  - 0.0
  - 0.0
  - 0.0
  - 5.036226139054634e-05
  - 1.1367829756636638e-05
  - 0.0
  - 0.0
  - 0.0
  - 0.0
  - 1.1367829756636638e-05
  - 1.8274133253726177e-05
---
header:
  stamp:
    sec: 1722524091
    nanosec: 1772210
  frame_id: gps_front
pose:
  pose:
    position:
      x: -77.0307384856743
      y: 42.87846868567512
      z: 182.1770937582478
    orientation:
      x: -0.00011224472163003934
      y: 0.022990858640956853
      z: 0.004880797029013509
      w: 0.999723754664475
  covariance:
  - 3.016831396962516e-05
  - -1.1818413440778386e-05
  - 7.609888598381076e-06
  - 0.0
  - 0.0
  - 0.0
  - -1.1818413440778386e-05
  - 5.091349521535449e-05
  - -2.5628454750403762e-05
  - 0.0
  - 0.0
  - 0.0
  - 7.609888598381076e-06
  - -2.5628454750403762e-05
  - 9.383118594996631e-05
  - 0.0
  - 0.0
  - 0.0
  - 0.0
  - 0.0
  - 0.0
  - 0.0
  - 0.0
  - 0.0
  - 0.0
  - 0.0
  - 0.0
  - 0.0
  - 5.028769010095857e-05
  - 1.1359972631908022e-05
  - 0.0
  - 0.0
  - 0.0
  - 0.0
  - 1.1359972631908022e-05
  - 1.825486651796382e-05
---
header:
  stamp:
    sec: 1722524091
    nanosec: 101835313
  frame_id: gps_front
pose:
  pose:
    position:
      x: -77.03073848430405
      y: 42.87846869042056
      z: 182.17780672293156
    orientation:
      x: -0.00010974549749298247
      y: 0.02272376619876696
      z: 0.00482824361371319
      w: 0.9997301168161716
  covariance:
  - 3.0024801162653603e-05
  - -1.1784516573243309e-05
  - 7.531235496571753e-06
  - 0.0
  - 0.0
  - 0.0
  - -1.1784516573243309e-05
  - 5.034998685005121e-05
  - -2.5482660930720158e-05
  - 0.0
  - 0.0
  - 0.0
  - 7.531235496571753e-06
  - -2.5482660930720158e-05
  - 9.32288749027066e-05
  - 0.0
  - 0.0
  - 0.0
  - 0.0
  - 0.0
  - 0.0
  - 0.0
  - 0.0
  - 0.0
  - 0.0
  - 0.0
  - 0.0
  - 0.0
  - 5.0312901294091716e-05
  - 1.136851278715767e-05
  - 0.0
  - 0.0
  - 0.0
  - 0.0
  - 1.136851278715767e-05
  - 1.8258064301335253e-05
---
header:
  stamp:
    sec: 1722524091
    nanosec: 201383245
  frame_id: gps_front
pose:
  pose:
    position:
      x: -77.03073847128461
      y: 42.87846868794021
      z: 182.17758870590478
    orientation:
      x: -0.00010471043918687017
      y: 0.02257342074924102
      z: 0.004637428773192347
      w: 0.9997344267183037
  covariance:
  - 2.997577394125983e-05
  - -1.1760814231820405e-05
  - 7.500094852730399e-06
  - 0.0
  - 0.0
  - 0.0
  - -1.1760814231820405e-05
  - 5.0306396587984636e-05
  - -2.5513218133710325e-05
  - 0.0
  - 0.0
  - 0.0
  - 7.500094852730399e-06
  - -2.5513218133710325e-05
  - 9.312127804150805e-05
  - 0.0
  - 0.0
  - 0.0
  - 0.0
  - 0.0
  - 0.0
  - 0.0
  - 0.0
  - 0.0
  - 0.0
  - 0.0
  - 0.0
  - 0.0
  - 5.0378075684420764e-05
  - 1.1378394447092433e-05
  - 0.0
  - 0.0
  - 0.0
  - 0.0
  - 1.1378394447092433e-05
  - 1.8271019143867306e-05
---
header:
  stamp:
    sec: 1722524091
    nanosec: 302500830
  frame_id: gps_front
pose:
  pose:
    position:
      x: -77.03073847016515
      y: 42.87846868679976
      z: 182.17747427895665
    orientation:
      x: -0.00010854404039687078
      y: 0.02219743746839947
      z: 0.004888672306802779
      w: 0.9997416480626905
  covariance:
  - 3.0050605346332304e-05
  - -1.1773656297009438e-05
  - 7.4883250817947555e-06
  - 0.0
  - 0.0
  - 0.0
  - -1.1773656297009438e-05
  - 5.0493232265580446e-05
  - -2.5597370040486567e-05
  - 0.0
  - 0.0
  - 0.0
  - 7.4883250817947555e-06
  - -2.5597370040486567e-05
  - 9.35407224460505e-05
  - 0.0
  - 0.0
  - 0.0
  - 0.0
  - 0.0
  - 0.0
  - 0.0
  - 0.0
  - 0.0
  - 0.0
  - 0.0
  - 0.0
  - 0.0
  - 5.0388058298267424e-05
  - 1.1368309969839174e-05
  - 0.0
  - 0.0
  - 0.0
  - 0.0
  - 1.1368309969839174e-05
  - 1.8268880012328736e-05
---
header:
  stamp:
    sec: 1722524091
    nanosec: 402206217
  frame_id: gps_front
pose:
  pose:
    position:
      x: -77.03073847394649
      y: 42.87846870665523
      z: 182.17666411865503
    orientation:
      x: -9.497866404395841e-05
      y: 0.021830659825164904
      z: 0.004349622532821663
      w: 0.9997522163288628
  covariance:
  - 3.0165925636538304e-05
  - -1.1807920600404032e-05
  - 7.402172286674613e-06
  - 0.0
  - 0.0
  - 0.0
  - -1.1807920600404032e-05
  - 5.0668535550357774e-05
  - -2.5690111215226352e-05
  - 0.0
  - 0.0
  - 0.0
  - 7.402172286674613e-06
  - -2.5690111215226352e-05
  - 9.410303027834743e-05
  - 0.0
  - 0.0
  - 0.0
  - 0.0
  - 0.0
  - 0.0
  - 0.0
  - 0.0
  - 0.0
  - 0.0
  - 0.0
  - 0.0
  - 0.0
  - 5.0518552598077804e-05
  - 1.1376239854143932e-05
  - 0.0
  - 0.0
  - 0.0
  - 0.0
  - 1.1376239854143932e-05
  - 1.8277685740031302e-05
---
header:
  stamp:
    sec: 1722524091
    nanosec: 501787564
  frame_id: gps_front
pose:
  pose:
    position:
      x: -77.03073847645172
      y: 42.878468699827316
      z: 182.17704018298537
    orientation:
      x: -9.823445467741972e-05
      y: 0.021665242299796553
      z: 0.004533085105402591
      w: 0.9997549993701008
  covariance:
  - 3.0184191928128712e-05
  - -1.1802070730482228e-05
  - 7.562870905530872e-06
  - 0.0
  - 0.0
  - 0.0
  - -1.1802070730482228e-05
  - 5.0833288696594536e-05
  - -2.5681181796244346e-05
  - 0.0
  - 0.0
  - 0.0
  - 7.562870905530872e-06
  - -2.5681181796244346e-05
  - 9.40183163038455e-05
  - 0.0
  - 0.0
  - 0.0
  - 0.0
  - 0.0
  - 0.0
  - 0.0
  - 0.0
  - 0.0
  - 0.0
  - 0.0
  - 0.0
  - 0.0
  - 5.063047501607798e-05
  - 1.1377212103980128e-05
  - 0.0
  - 0.0
  - 0.0
  - 0.0
  - 1.1377212103980128e-05
  - 1.82863022928359e-05
---
header:
  stamp:
    sec: 1722524091
    nanosec: 601631869
  frame_id: gps_front
pose:
  pose:
    position:
      x: -77.0307384731039
      y: 42.87846868984171
      z: 182.17784202564508
    orientation:
      x: -0.00010001672053450658
      y: 0.02178133427902784
      z: 0.004590716825708753
      w: 0.9997522136973276
  covariance:
  - 3.0254917874117382e-05
  - -1.185357086797012e-05
  - 7.714722414675634e-06
  - 0.0
  - 0.0
  - 0.0
  - -1.185357086797012e-05
  - 5.104193769511767e-05
  - -2.5616811399231665e-05
  - 0.0
  - 0.0
  - 0.0
  - 7.714722414675634e-06
  - -2.5616811399231665e-05
  - 9.390286868438125e-05
  - 0.0
  - 0.0
  - 0.0
  - 0.0
  - 0.0
  - 0.0
  - 0.0
  - 0.0
  - 0.0
  - 0.0
  - 0.0
  - 0.0
  - 0.0
  - 5.073243301012553e-05
  - 1.1371071195753757e-05
  - 0.0
  - 0.0
  - 0.0
  - 0.0
  - 1.1371071195753757e-05
  - 1.829083703341894e-05
---
header:
  stamp:
    sec: 1722524091
    nanosec: 701646555
  frame_id: gps_front
pose:
  pose:
    position:
      x: -77.03073846068418
      y: 42.87846867515211
      z: 182.18072170764208
    orientation:
      x: -0.00010360401104207174
      y: 0.021726177535871038
      z: 0.004767445991160894
      w: 0.9997525863605505
  covariance:
  - 3.0391884138225578e-05
  - -1.1831823940156028e-05
  - 7.535497388744261e-06
  - 0.0
  - 0.0
  - 0.0
  - -1.1831823940156028e-05
  - 5.109431367600337e-05
  - -2.564810711191967e-05
  - 0.0
  - 0.0
  - 0.0
  - 7.535497388744261e-06
  - -2.564810711191967e-05
  - 9.435341780772433e-05
  - 0.0
  - 0.0
  - 0.0
  - 0.0
  - 0.0
  - 0.0
  - 0.0
  - 0.0
  - 0.0
  - 0.0
  - 0.0
  - 0.0
  - 0.0
  - 5.09260717080906e-05
  - 1.1384106073819567e-05
  - 0.0
  - 0.0
  - 0.0
  - 0.0
  - 1.1384106073819567e-05
  - 1.8346243450650945e-05
---
header:
  stamp:
    sec: 1722524091
    nanosec: 801816420
  frame_id: gps_front
pose:
  pose:
    position:
      x: -77.03073846370465
      y: 42.87846866228202
      z: 182.1826288010925
    orientation:
      x: -0.00010379633287545492
      y: 0.021620703640506455
      z: 0.004799606679470393
      w: 0.9997547190066836
  covariance:
  - 3.0390727260964923e-05
  - -1.1832826203317381e-05
  - 7.5309417297830805e-06
  - 0.0
  - 0.0
  - 0.0
  - -1.1832826203317381e-05
  - 5.1101422286592424e-05
  - -2.5687751985969953e-05
  - 0.0
  - 0.0
  - 0.0
  - 7.5309417297830805e-06
  - -2.5687751985969953e-05
  - 9.443634917261079e-05
  - 0.0
  - 0.0
  - 0.0
  - 0.0
  - 0.0
  - 0.0
  - 0.0
  - 0.0
  - 0.0
  - 0.0
  - 0.0
  - 0.0
  - 0.0
  - 5.0972303142771125e-05
  - 1.1374097994121257e-05
  - 0.0
  - 0.0
  - 0.0
  - 0.0
  - 1.1374097994121257e-05
  - 1.8351896869717166e-05
---
header:
  stamp:
    sec: 1722524091
    nanosec: 901641438
  frame_id: gps_front
pose:
  pose:
    position:
      x: -77.03073846090568
      y: 42.878468652858665
      z: 182.1852999040857
    orientation:
      x: -0.00010054809944745368
      y: 0.021808200775052602
      z: 0.004609418195231181
      w: 0.9997515419007544
  covariance:
  - 3.0359835363924503e-05
  - -1.181204424938187e-05
  - 7.584866580145899e-06
  - 0.0
  - 0.0
  - 0.0
  - -1.181204424938187e-05
  - 5.107835750095546e-05
  - -2.5740693672560155e-05
  - 0.0
  - 0.0
  - 0.0
  - 7.584866580145899e-06
  - -2.5740693672560155e-05
  - 9.4371716841124e-05
  - 0.0
  - 0.0
  - 0.0
  - 0.0
  - 0.0
  - 0.0
  - 0.0
  - 0.0
  - 0.0
  - 0.0
  - 0.0
  - 0.0
  - 0.0
  - 5.1047871238552034e-05
  - 1.1381754120520782e-05
  - 0.0
  - 0.0
  - 0.0
  - 0.0
  - 1.1381754120520782e-05
  - 1.8363727576797828e-05
---
header:
  stamp:
    sec: 1722524092
    nanosec: 1867361
  frame_id: gps_front
pose:
  pose:
    position:
      x: -77.03073845130022
      y: 42.878468648704356
      z: 182.18631792068481
    orientation:
      x: -9.733400510530173e-05
      y: 0.0218919463671801
      z: 0.004445000659163948
      w: 0.9997504564537533
  covariance:
  - 3.0368653824552894e-05
  - -1.1837599231512286e-05
  - 7.528990408900427e-06
  - 0.0
  - 0.0
  - 0.0
  - -1.1837599231512286e-05
  - 5.0796013965737075e-05
  - -2.5796331101446413e-05
  - 0.0
  - 0.0
  - 0.0
  - 7.528990408900427e-06
  - -2.5796331101446413e-05
  - 9.439003770239651e-05
  - 0.0
  - 0.0
  - 0.0
  - 0.0
  - 0.0
  - 0.0
  - 0.0
  - 0.0
  - 0.0
  - 0.0
  - 0.0
  - 0.0
  - 0.0
  - 5.10379031766206e-05
  - 1.1378539966244716e-05
  - 0.0
  - 0.0
  - 0.0
  - 0.0
  - 1.1378539966244716e-05
  - 1.8351609469391406e-05
---
header:
  stamp:
    sec: 1722524092
    nanosec: 101784632
  frame_id: gps_front
pose:
  pose:
    position:
      x: -77.03073845191031
      y: 42.87846864050218
      z: 182.1859189402312
    orientation:
      x: -0.00010033647166790606
      y: 0.021613730734209236
      z: 0.00464112154057242
      w: 0.9997556184224159
  covariance:
  - 3.0253753720899113e-05
  - -1.1848925169033464e-05
  - 7.512976026191609e-06
  - 0.0
  - 0.0
  - 0.0
  - -1.1848925169033464e-05
  - 5.0178045057691634e-05
  - -2.55021241173381e-05
  - 0.0
  - 0.0
  - 0.0
  - 7.512976026191609e-06
  - -2.55021241173381e-05
  - 9.353697532787919e-05
  - 0.0
  - 0.0
  - 0.0
  - 0.0
  - 0.0
  - 0.0
  - 0.0
  - 0.0
  - 0.0
  - 0.0
  - 0.0
  - 0.0
  - 0.0
  - 5.1037786761298776e-05
  - 1.1384330719010904e-05
  - 0.0
  - 0.0
  - 0.0
  - 0.0
  - 1.1384330719010904e-05
  - 1.8349312085774727e-05
---
header:
  stamp:
    sec: 1722524092
    nanosec: 201713301
  frame_id: gps_front
pose:
  pose:
    position:
      x: -77.03073844615851
      y: 42.87846864084647
      z: 182.18729939870536
    orientation:
      x: -0.00010640603251232273
      y: 0.0215182026608359
      z: 0.004943725801179615
      w: 0.9997562278911825
  covariance:
  - 3.025949808943551e-05
  - -1.1815533071057871e-05
  - 7.81383459980134e-06
  - 0.0
  - 0.0
  - 0.0
  - -1.1815533071057871e-05
  - 5.001232784707099e-05
  - -2.5332272343803197e-05
  - 0.0
  - 0.0
  - 0.0
  - 7.81383459980134e-06
  - -2.5332272343803197e-05
  - 9.304351260652766e-05
  - 0.0
  - 0.0
  - 0.0
  - 0.0
  - 0.0
  - 0.0
  - 0.0
  - 0.0
  - 0.0
  - 0.0
  - 0.0
  - 0.0
  - 0.0
  - 5.0967875722562894e-05
  - 1.1364595593477134e-05
  - 0.0
  - 0.0
  - 0.0
  - 0.0
  - 1.1364595593477134e-05
  - 1.832881935115438e-05
---
header:
  stamp:
    sec: 1722524092
    nanosec: 301904689
  frame_id: gps_front
pose:
  pose:
    position:
      x: -77.03073845511297
      y: 42.878468637607945
      z: 182.18668366968632
    orientation:
      x: -0.0001058804869115841
      y: 0.021648020235628306
      z: 0.004889796221640414
      w: 0.9997536906168994
  covariance:
  - 3.0285822504083626e-05
  - -1.179283754026983e-05
  - 7.861223821237218e-06
  - 0.0
  - 0.0
  - 0.0
  - -1.179283754026983e-05
  - 5.017579678678885e-05
  - -2.562543704698328e-05
  - 0.0
  - 0.0
  - 0.0
  - 7.861223821237218e-06
  - -2.562543704698328e-05
  - 9.352331835543737e-05
  - 0.0
  - 0.0
  - 0.0
  - 0.0
  - 0.0
  - 0.0
  - 0.0
  - 0.0
  - 0.0
  - 0.0
  - 0.0
  - 0.0
  - 0.0
  - 5.0761937018251047e-05
  - 1.1299506695650052e-05
  - 0.0
  - 0.0
  - 0.0
  - 0.0
  - 1.1299506695650052e-05
  - 1.8268288840772584e-05
---
header:
  stamp:
    sec: 1722524092
    nanosec: 401397202
  frame_id: gps_front
pose:
  pose:
    position:
      x: -77.03073845429178
      y: 42.8784686474502
      z: 182.18626645300537
    orientation:
      x: -0.00010199026514629421
      y: 0.021548429690965775
      z: 0.004731919792112551
      w: 0.999756602234224
  covariance:
  - 3.028105311386753e-05
  - -1.1675811038003303e-05
  - 7.586973424622556e-06
  - 0.0
  - 0.0
  - 0.0
  - -1.1675811038003303e-05
  - 5.030934335081838e-05
  - -2.5555000320309773e-05
  - 0.0
  - 0.0
  - 0.0
  - 7.586973424622556e-06
  - -2.5555000320309773e-05
  - 9.392101492267102e-05
  - 0.0
  - 0.0
  - 0.0
  - 0.0
  - 0.0
  - 0.0
  - 0.0
  - 0.0
  - 0.0
  - 0.0
  - 0.0
  - 0.0
  - 0.0
  - 5.0632672355277464e-05
  - 1.1235001693421509e-05
  - 0.0
  - 0.0
  - 0.0
  - 0.0
  - 1.1235001693421509e-05
  - 1.8244290913571604e-05
---
header:
  stamp:
    sec: 1722524092
    nanosec: 501461011
  frame_id: gps_front
pose:
  pose:
    position:
      x: -77.03073845522644
      y: 42.8784686428546
      z: 182.18750810064375
    orientation:
      x: -0.00010756950486691837
      y: 0.021542615619083227
      z: 0.004992114323092479
      w: 0.9997554615683154
  covariance:
  - 3.031150481547229e-05
  - -1.1713932508428115e-05
  - 7.634269422851503e-06
  - 0.0
  - 0.0
  - 0.0
  - -1.1713932508428115e-05
  - 5.0669947086134925e-05
  - -2.5534154701745138e-05
  - 0.0
  - 0.0
  - 0.0
  - 7.634269422851503e-06
  - -2.5534154701745138e-05
  - 9.406934259459376e-05
  - 0.0
  - 0.0
  - 0.0
  - 0.0
  - 0.0
  - 0.0
  - 0.0
  - 0.0
  - 0.0
  - 0.0
  - 0.0
  - 0.0
  - 0.0
  - 5.0472553994040936e-05
  - 1.114805581892142e-05
  - 0.0
  - 0.0
  - 0.0
  - 0.0
  - 1.114805581892142e-05
  - 1.8220935089630075e-05
---
header:
  stamp:
    sec: 1722524092
    nanosec: 601355644
  frame_id: gps_front
pose:
  pose:
    position:
      x: -77.03073846084116
      y: 42.87846863723581
      z: 182.18652555998415
    orientation:
      x: -0.00010126080742891075
      y: 0.021649211370468477
      z: 0.004676196519327138
      w: 0.9997546872005143
  covariance:
  - 3.0368659281521104e-05
  - -1.1830336916318629e-05
  - 7.666938472539186e-06
  - 0.0
  - 0.0
  - 0.0
  - -1.1830336916318629e-05
  - 5.1200691814301535e-05
  - -2.5630015443312004e-05
  - 0.0
  - 0.0
  - 0.0
  - 7.666938472539186e-06
  - -2.5630015443312004e-05
  - 9.450029028812423e-05
  - 0.0
  - 0.0
  - 0.0
  - 0.0
  - 0.0
  - 0.0
  - 0.0
  - 0.0
  - 0.0
  - 0.0
  - 0.0
  - 0.0
  - 0.0
  - 5.023964695283212e-05
  - 1.1028566405002493e-05
  - 0.0
  - 0.0
  - 0.0
  - 0.0
  - 1.1028566405002493e-05
  - 1.8163525965064764e-05
---
header:
  stamp:
    sec: 1722524092
    nanosec: 701626825
  frame_id: gps_front
pose:
  pose:
    position:
      x: -77.03073846066992
      y: 42.878468648673426
      z: 182.18444478232414
    orientation:
      x: -9.04741863975679e-05
      y: 0.021825724120016578
      z: 0.004144277485730832
      w: 0.9997531968166843
  covariance:
  - 3.0376222639461048e-05
  - -1.18028256110847e-05
  - 7.615515187353594e-06
  - 0.0
  - 0.0
  - 0.0
  - -1.18028256110847e-05
  - 5.136175605002791e-05
  - -2.5620434826123528e-05
  - 0.0
  - 0.0
  - 0.0
  - 7.615515187353594e-06
  - -2.5620434826123528e-05
  - 9.459215652896091e-05
  - 0.0
  - 0.0
  - 0.0
  - 0.0
  - 0.0
  - 0.0
  - 0.0
  - 0.0
  - 0.0
  - 0.0
  - 0.0
  - 0.0
  - 0.0
  - 5.0124566769227386e-05
  - 1.0990945156663656e-05
  - 0.0
  - 0.0
  - 0.0
  - 0.0
  - 1.0990945156663656e-05
  - 1.8140150132239796e-05
---
header:
  stamp:
    sec: 1722524092
    nanosec: 802276626
  frame_id: gps_front
pose:
  pose:
    position:
      x: -77.03073847447219
      y: 42.87846863698172
      z: 182.18278334476054
    orientation:
      x: -0.00011154274386242523
      y: 0.022129997921955115
      z: 0.005039042950797277
      w: 0.9997423962183111
  covariance:
  - 3.0340439479914494e-05
  - -1.1734974577848334e-05
  - 7.4536792453727685e-06
  - 0.0
  - 0.0
  - 0.0
  - -1.1734974577848334e-05
  - 5.12704391439911e-05
  - -2.550600765971467e-05
  - 0.0
  - 0.0
  - 0.0
  - 7.4536792453727685e-06
  - -2.550600765971467e-05
  - 9.456177212996408e-05
  - 0.0
  - 0.0
  - 0.0
  - 0.0
  - 0.0
  - 0.0
  - 0.0
  - 0.0
  - 0.0
  - 0.0
  - 0.0
  - 0.0
  - 0.0
  - 5.007335857953876e-05
  - 1.0969497452606447e-05
  - 0.0
  - 0.0
  - 0.0
  - 0.0
  - 1.0969497452606447e-05
  - 1.8151369658880867e-05
---
header:
  stamp:
    sec: 1722524092
    nanosec: 901727308
  frame_id: gps_front
pose:
  pose:
    position:
      x: -77.03073848604345
      y: 42.87846863847559
      z: 182.1819234667346
    orientation:
      x: -0.0001050502183834757
      y: 0.022289311627244564
      z: 0.00471180782637762
      w: 0.9997404535271355
  covariance:
  - 3.0282641091616824e-05
  - -1.1762021131289657e-05
  - 7.292307145689847e-06
  - 0.0
  - 0.0
  - 0.0
  - -1.1762021131289657e-05
  - 5.099139525555074e-05
  - -2.5473394998698495e-05
  - 0.0
  - 0.0
  - 0.0
  - 7.292307145689847e-06
  - -2.5473394998698495e-05
  - 9.441695146961138e-05
  - 0.0
  - 0.0
  - 0.0
  - 0.0
  - 0.0
  - 0.0
  - 0.0
  - 0.0
  - 0.0
  - 0.0
  - 0.0
  - 0.0
  - 0.0
  - 5.002526449970901e-05
  - 1.0945360372716095e-05
  - 0.0
  - 0.0
  - 0.0
  - 0.0
  - 1.0945360372716095e-05
  - 1.8142112821806222e-05
---
header:
  stamp:
    sec: 1722524093
    nanosec: 1659960
  frame_id: gps_front
pose:
  pose:
    position:
      x: -77.03073849632747
      y: 42.87846863973664
      z: 182.1802665181458
    orientation:
      x: -9.71556306033621e-05
      y: 0.02240612394944794
      z: 0.00433499013277395
      w: 0.9997395480978504
  covariance:
  - 3.0279332349891774e-05
  - -1.1713156709447503e-05
  - 7.34484910935862e-06
  - 0.0
  - 0.0
  - 0.0
  - -1.1713156709447503e-05
  - 5.0570852181408554e-05
  - -2.5645107598393224e-05
  - 0.0
  - 0.0
  - 0.0
  - 7.34484910935862e-06
  - -2.5645107598393224e-05
  - 9.428676276002079e-05
  - 0.0
  - 0.0
  - 0.0
  - 0.0
  - 0.0
  - 0.0
  - 0.0
  - 0.0
  - 0.0
  - 0.0
  - 0.0
  - 0.0
  - 0.0
  - 5.0000013288808987e-05
  - 1.0926009963441174e-05
  - 0.0
  - 0.0
  - 0.0
  - 0.0
  - 1.0926009963441174e-05
  - 1.8139102394343354e-05
---
header:
  stamp:
    sec: 1722524093
    nanosec: 101796976
  frame_id: gps_front
pose:
  pose:
    position:
      x: -77.03073849384185
      y: 42.87846863910441
      z: 182.18060256540775
    orientation:
      x: -0.00010389997738571545
      y: 0.02242574017931441
      z: 0.004631853018741121
      w: 0.9997377762792689
  covariance:
  - 3.019559517269954e-05
  - -1.1710889339155983e-05
  - 7.440626632160274e-06
  - 0.0
  - 0.0
  - 0.0
  - -1.1710889339155983e-05
  - 5.000624150852673e-05
  - -2.5493698558420874e-05
  - 0.0
  - 0.0
  - 0.0
  - 7.440626632160274e-06
  - -2.5493698558420874e-05
  - 9.373544162372127e-05
  - 0.0
  - 0.0
  - 0.0
  - 0.0
  - 0.0
  - 0.0
  - 0.0
  - 0.0
  - 0.0
  - 0.0
  - 0.0
  - 0.0
  - 0.0
  - 4.993595939595252e-05
  - 1.0898078471655026e-05
  - 0.0
  - 0.0
  - 0.0
  - 0.0
  - 1.0898078471655026e-05
  - 1.8111797544406727e-05
---
header:
  stamp:
    sec: 1722524093
    nanosec: 202066789
  frame_id: gps_front
pose:
  pose:
    position:
      x: -77.03073848509584
      y: 42.87846864058897
      z: 182.1801616596058
    orientation:
      x: -0.00010336844777249457
      y: 0.022452987690842047
      z: 0.0046025631113016125
      w: 0.9997373000301256
  covariance:
  - 3.01519703498343e-05
  - -1.171445819636574e-05
  - 7.468756393791409e-06
  - 0.0
  - 0.0
  - 0.0
  - -1.171445819636574e-05
  - 5.0269958592252806e-05
  - -2.5676332370494492e-05
  - 0.0
  - 0.0
  - 0.0
  - 7.468756393791409e-06
  - -2.5676332370494492e-05
  - 9.388052421854809e-05
  - 0.0
  - 0.0
  - 0.0
  - 0.0
  - 0.0
  - 0.0
  - 0.0
  - 0.0
  - 0.0
  - 0.0
  - 0.0
  - 0.0
  - 0.0
  - 4.999336670152843e-05
  - 1.0910358469118364e-05
  - 0.0
  - 0.0
  - 0.0
  - 0.0
  - 1.0910358469118364e-05
  - 1.8128661395167e-05
---
header:
  stamp:
    sec: 1722524093
    nanosec: 301833955
  frame_id: gps_front
pose:
  pose:
    position:
      x: -77.03073849358155
      y: 42.878468638777726
      z: 182.1800207681954
    orientation:
      x: -0.00010462171194603511
      y: 0.02237667985926959
      z: 0.004674257873077059
      w: 0.9997386781384969
  covariance:
  - 3.013240529980976e-05
  - -1.1723487659764942e-05
  - 7.626999376952881e-06
  - 0.0
  - 0.0
  - 0.0
  - -1.1723487659764942e-05
  - 5.0408096285536885e-05
  - -2.5755583919817582e-05
  - 0.0
  - 0.0
  - 0.0
  - 7.626999376952881e-06
  - -2.5755583919817582e-05
  - 9.349917672807351e-05
  - 0.0
  - 0.0
  - 0.0
  - 0.0
  - 0.0
  - 0.0
  - 0.0
  - 0.0
  - 0.0
  - 0.0
  - 0.0
  - 0.0
  - 0.0
  - 4.9978989409282804e-05
  - 1.0900305824179668e-05
  - 0.0
  - 0.0
  - 0.0
  - 0.0
  - 1.0900305824179668e-05
  - 1.8129690943169408e-05
---
header:
  stamp:
    sec: 1722524093
    nanosec: 401386778
  frame_id: gps_front
pose:
  pose:
    position:
      x: -77.03073848370359
      y: 42.87846864474589
      z: 182.17992378678173
    orientation:
      x: -0.00010484758918168884
      y: 0.02237655607635348
      z: 0.004684375253270028
      w: 0.9997386335306001
  covariance:
  - 3.0046978281461634e-05
  - -1.1740278750949074e-05
  - 7.895584531070199e-06
  - 0.0
  - 0.0
  - 0.0
  - -1.1740278750949074e-05
  - 5.043418786954135e-05
  - -2.567386400187388e-05
  - 0.0
  - 0.0
  - 0.0
  - 7.895584531070199e-06
  - -2.567386400187388e-05
  - 9.267318819183856e-05
  - 0.0
  - 0.0
  - 0.0
  - 0.0
  - 0.0
  - 0.0
  - 0.0
  - 0.0
  - 0.0
  - 0.0
  - 0.0
  - 0.0
  - 0.0
  - 5.0075417675543576e-05
  - 1.0909193406405393e-05
  - 0.0
  - 0.0
  - 0.0
  - 0.0
  - 1.0909193406405393e-05
  - 1.8175111108575948e-05
---
header:
  stamp:
    sec: 1722524093
    nanosec: 501477060
  frame_id: gps_front
pose:
  pose:
    position:
      x: -77.03073848673843
      y: 42.878468651484006
      z: 182.17999638896435
    orientation:
      x: -9.825628047922012e-05
      y: 0.022178425409043762
      z: 0.004429130830853537
      w: 0.9997442125824796
  covariance:
  - 3.021926386281848e-05
  - -1.1767933756345883e-05
  - 7.587731488456484e-06
  - 0.0
  - 0.0
  - 0.0
  - -1.1767933756345883e-05
  - 5.055811925558373e-05
  - -2.542123729654122e-05
  - 0.0
  - 0.0
  - 0.0
  - 7.587731488456484e-06
  - -2.542123729654122e-05
  - 9.37196527956985e-05
  - 0.0
  - 0.0
  - 0.0
  - 0.0
  - 0.0
  - 0.0
  - 0.0
  - 0.0
  - 0.0
  - 0.0
  - 0.0
  - 0.0
  - 0.0
  - 5.015702481614426e-05
  - 1.0907867363130208e-05
  - 0.0
  - 0.0
  - 0.0
  - 0.0
  - 1.0907867363130208e-05
  - 1.8207483662990853e-05
---
header:
  stamp:
    sec: 1722524093
    nanosec: 601886148
  frame_id: gps_front
pose:
  pose:
    position:
      x: -77.03073849225927
      y: 42.87846864484845
      z: 182.1793127199635
    orientation:
      x: -0.00011230816331957303
      y: 0.0224664487363857
      z: 0.004997603946941989
      w: 0.9997350999253959
  covariance:
  - 3.1120067433221266e-05
  - -1.1957637980231084e-05
  - 5.551806680159643e-06
  - 0.0
  - 0.0
  - 0.0
  - -1.1957637980231084e-05
  - 5.098686960991472e-05
  - -2.5110573915299028e-05
  - 0.0
  - 0.0
  - 0.0
  - 5.551806680159643e-06
  - -2.5110573915299028e-05
  - 9.951186802936718e-05
  - 0.0
  - 0.0
  - 0.0
  - 0.0
  - 0.0
  - 0.0
  - 0.0
  - 0.0
  - 0.0
  - 0.0
  - 0.0
  - 0.0
  - 0.0
  - 5.025684731663205e-05
  - 1.0908367585216183e-05
  - 0.0
  - 0.0
  - 0.0
  - 0.0
  - 1.0908367585216183e-05
  - 1.82600379048381e-05
---
header:
  stamp:
    sec: 1722524093
    nanosec: 701732179
  frame_id: gps_front
pose:
  pose:
    position:
      x: -77.03073849645095
      y: 42.87846864735037
      z: 182.17866168543696
    orientation:
      x: -0.00010719857968613388
      y: 0.02223287860135515
      z: 0.004820376065127473
      w: 0.9997411923053648
  covariance:
  - 3.1320923881139606e-05
  - -1.1985072887910064e-05
  - 5.388194949773606e-06
  - 0.0
  - 0.0
  - 0.0
  - -1.1985072887910064e-05
  - 5.136103936820291e-05
  - -2.5299072149209678e-05
  - 0.0
  - 0.0
  - 0.0
  - 5.388194949773606e-06
  - -2.5299072149209678e-05
  - 0.00010050577111542225
  - 0.0
  - 0.0
  - 0.0
  - 0.0
  - 0.0
  - 0.0
  - 0.0
  - 0.0
  - 0.0
  - 0.0
  - 0.0
  - 0.0
  - 0.0
  - 5.0398026360198855e-05
  - 1.0913237929344177e-05
  - 0.0
  - 0.0
  - 0.0
  - 0.0
  - 1.0913237929344177e-05
  - 1.8317290596314706e-05
---
header:
  stamp:
    sec: 1722524093
    nanosec: 801674707
  frame_id: gps_front
pose:
  pose:
    position:
      x: -77.03073850051769
      y: 42.87846864701081
      z: 182.17849350906909
    orientation:
      x: -0.00010896704757625202
      y: 0.022419785776948187
      z: 0.004859028177464188
      w: 0.9997368309595626
  covariance:
  - 3.1404742912855e-05
  - -1.2137334124417976e-05
  - 5.363983291317709e-06
  - 0.0
  - 0.0
  - 0.0
  - -1.2137334124417976e-05
  - 5.12827537022531e-05
  - -2.474891698511783e-05
  - 0.0
  - 0.0
  - 0.0
  - 5.363983291317709e-06
  - -2.474891698511783e-05
  - 0.00010041934729088098
  - 0.0
  - 0.0
  - 0.0
  - 0.0
  - 0.0
  - 0.0
  - 0.0
  - 0.0
  - 0.0
  - 0.0
  - 0.0
  - 0.0
  - 0.0
  - 5.04049239680171e-05
  - 1.089872148440918e-05
  - 0.0
  - 0.0
  - 0.0
  - 0.0
  - 1.089872148440918e-05
  - 1.8318209185963497e-05
---
header:
  stamp:
    sec: 1722524093
    nanosec: 901581958
  frame_id: gps_front
pose:
  pose:
    position:
      x: -77.03073850664654
      y: 42.87846865094034
      z: 182.17662507202476
    orientation:
      x: -9.901080769882053e-05
      y: 0.022341015121909946
      z: 0.004430645713075018
      w: 0.9997405856614744
  covariance:
  - 3.1628020224161446e-05
  - -1.206402521347627e-05
  - 4.7857047320576385e-06
  - 0.0
  - 0.0
  - 0.0
  - -1.206402521347627e-05
  - 5.120468631503172e-05
  - -2.5149913199129514e-05
  - 0.0
  - 0.0
  - 0.0
  - 4.7857047320576385e-06
  - -2.5149913199129514e-05
  - 0.00010215393558610231
  - 0.0
  - 0.0
  - 0.0
  - 0.0
  - 0.0
  - 0.0
  - 0.0
  - 0.0
  - 0.0
  - 0.0
  - 0.0
  - 0.0
  - 0.0
  - 5.039658572059125e-05
  - 1.0886183190450538e-05
  - 0.0
  - 0.0
  - 0.0
  - 0.0
  - 1.0886183190450538e-05
  - 1.8304705008631572e-05
---
header:
  stamp:
    sec: 1722524094
    nanosec: 1646208
  frame_id: gps_front
pose:
  pose:
    position:
      x: -77.03073851345127
      y: 42.87846865172344
      z: 182.1794784674421
    orientation:
      x: -0.0001047233095591757
      y: 0.022257050792371145
      z: 0.004703956921970828
      w: 0.9997412092698441
  covariance:
  - 3.1948653486324474e-05
  - -1.2115091521991417e-05
  - 3.937936526199337e-06
  - 0.0
  - 0.0
  - 0.0
  - -1.2115091521991417e-05
  - 5.102866271045059e-05
  - -2.5165425540762953e-05
  - 0.0
  - 0.0
  - 0.0
  - 3.937936526199337e-06
  - -2.5165425540762953e-05
  - 0.00010395352001069114
  - 0.0
  - 0.0
  - 0.0
  - 0.0
  - 0.0
  - 0.0
  - 0.0
  - 0.0
  - 0.0
  - 0.0
  - 0.0
  - 0.0
  - 0.0
  - 5.0470753194531426e-05
  - 1.0901002497121226e-05
  - 0.0
  - 0.0
  - 0.0
  - 0.0
  - 1.0901002497121226e-05
  - 1.8336440916755237e-05
---
header:
  stamp:
    sec: 1722524094
    nanosec: 101444566
  frame_id: gps_front
pose:
  pose:
    position:
      x: -77.03073851180918
      y: 42.87846864943229
      z: 182.17775824759156
    orientation:
      x: -0.00010466675529069444
      y: 0.022196347393422793
      z: 0.00471428036413403
      w: 0.9997425102334646
  covariance:
  - 3.2171101338462904e-05
  - -1.2306355529290158e-05
  - 3.3429234918003203e-06
  - 0.0
  - 0.0
  - 0.0
  - -1.2306355529290158e-05
  - 5.063349090050906e-05
  - -2.478910937497858e-05
  - 0.0
  - 0.0
  - 0.0
  - 3.3429234918003203e-06
  - -2.478910937497858e-05
  - 0.00010459718032507226
  - 0.0
  - 0.0
  - 0.0
  - 0.0
  - 0.0
  - 0.0
  - 0.0
  - 0.0
  - 0.0
  - 0.0
  - 0.0
  - 0.0
  - 0.0
  - 5.0442409701645374e-05
  - 1.0902365829679184e-05
  - 0.0
  - 0.0
  - 0.0
  - 0.0
  - 1.0902365829679184e-05
  - 1.8329154045204632e-05
---
header:
  stamp:
    sec: 1722524094
    nanosec: 201769977
  frame_id: gps_front
pose:
  pose:
    position:
      x: -77.0307385011813
      y: 42.87846865033821
      z: 182.17657492123544
    orientation:
      x: -0.00011035629526071334
      y: 0.022094236348155504
      z: 0.004993518573520767
      w: 0.9997434157392265
  covariance:
  - 3.2340733014279976e-05
  - -1.2136319128330797e-05
  - 3.2504319733561715e-06
  - 0.0
  - 0.0
  - 0.0
  - -1.2136319128330797e-05
  - 5.068599421065301e-05
  - -2.4687315089977346e-05
  - 0.0
  - 0.0
  - 0.0
  - 3.2504319733561715e-06
  - -2.4687315089977346e-05
  - 0.00010413747804705054
  - 0.0
  - 0.0
  - 0.0
  - 0.0
  - 0.0
  - 0.0
  - 0.0
  - 0.0
  - 0.0
  - 0.0
  - 0.0
  - 0.0
  - 0.0
  - 5.03675764775835e-05
  - 1.0896760613832157e-05
  - 0.0
  - 0.0
  - 0.0
  - 0.0
  - 1.0896760613832157e-05
  - 1.830141991376877e-05
---
header:
  stamp:
    sec: 1722524094
    nanosec: 301428892
  frame_id: gps_front
pose:
  pose:
    position:
      x: -77.03073850617741
      y: 42.87846864698597
      z: 182.17840841133147
    orientation:
      x: -0.00010816553759457452
      y: 0.022123949085629716
      z: 0.00488781496723082
      w: 0.9997432812687062
  covariance:
  - 3.2516385545022786e-05
  - -1.2247513041074853e-05
  - 3.235922804378788e-06
  - 0.0
  - 0.0
  - 0.0
  - -1.2247513041074853e-05
  - 5.100438647787087e-05
  - -2.4562590624555014e-05
  - 0.0
  - 0.0
  - 0.0
  - 3.235922804378788e-06
  - -2.4562590624555014e-05
  - 0.0001042762232827954
  - 0.0
  - 0.0
  - 0.0
  - 0.0
  - 0.0
  - 0.0
  - 0.0
  - 0.0
  - 0.0
  - 0.0
  - 0.0
  - 0.0
  - 0.0
  - 5.0338006985839456e-05
  - 1.0897384527197573e-05
  - 0.0
  - 0.0
  - 0.0
  - 0.0
  - 1.0897384527197573e-05
  - 1.828417953220196e-05
---
header:
  stamp:
    sec: 1722524094
    nanosec: 401931538
  frame_id: gps_front
pose:
  pose:
    position:
      x: -77.03073849629611
      y: 42.87846865682597
      z: 182.17684342246503
    orientation:
      x: -9.835185338940861e-05
      y: 0.02196627265415985
      z: 0.00447627769114991
      w: 0.9997486864860727
  covariance:
  - 3.281484168837778e-05
  - -1.2442465958883986e-05
  - 3.18690240419528e-06
  - 0.0
  - 0.0
  - 0.0
  - -1.2442465958883986e-05
  - 5.158845306141302e-05
  - -2.46859053731896e-05
  - 0.0
  - 0.0
  - 0.0
  - 3.18690240419528e-06
  - -2.46859053731896e-05
  - 0.00010532764281379059
  - 0.0
  - 0.0
  - 0.0
  - 0.0
  - 0.0
  - 0.0
  - 0.0
  - 0.0
  - 0.0
  - 0.0
  - 0.0
  - 0.0
  - 0.0
  - 5.0184436986455694e-05
  - 1.0868178833334241e-05
  - 0.0
  - 0.0
  - 0.0
  - 0.0
  - 1.0868178833334241e-05
  - 1.8212153008789755e-05
---
header:
  stamp:
    sec: 1722524094
    nanosec: 501705197
  frame_id: gps_front
pose:
  pose:
    position:
      x: -77.03073848588224
      y: 42.878468644562986
      z: 182.1789347594604
    orientation:
      x: -0.00011067292636930267
      y: 0.022074941713867334
      z: 0.005012224615589619
      w: 0.9997437483196561
  covariance:
  - 3.3078766136895865e-05
  - -1.271718974749092e-05
  - 3.2504638056707336e-06
  - 0.0
  - 0.0
  - 0.0
  - -1.271718974749092e-05
  - 5.207137655816041e-05
  - -2.4815324650262482e-05
  - 0.0
  - 0.0
  - 0.0
  - 3.2504638056707336e-06
  - -2.4815324650262482e-05
  - 0.0001062993032974191
  - 0.0
  - 0.0
  - 0.0
  - 0.0
  - 0.0
  - 0.0
  - 0.0
  - 0.0
  - 0.0
  - 0.0
  - 0.0
  - 0.0
  - 0.0
  - 5.01326794619672e-05
  - 1.0863348506973125e-05
  - 0.0
  - 0.0
  - 0.0
  - 0.0
  - 1.0863348506973125e-05
  - 1.8186621673521586e-05
---
header:
  stamp:
    sec: 1722524094
    nanosec: 601518907
  frame_id: gps_front
pose:
  pose:
    position:
      x: -77.03073849691904
      y: 42.878468640313905
      z: 182.17756129428744
    orientation:
      x: -0.00010903768693783072
      y: 0.02203289202711124
      z: 0.0049475975272432315
      w: 0.9997449980162006
  covariance:
  - 3.317313166917302e-05
  - -1.2972482181794476e-05
  - 3.2369991913583362e-06
  - 0.0
  - 0.0
  - 0.0
  - -1.2972482181794476e-05
  - 5.242330371402204e-05
  - -2.51698093052255e-05
  - 0.0
  - 0.0
  - 0.0
  - 3.2369991913583362e-06
  - -2.51698093052255e-05
  - 0.0001072791637852788
  - 0.0
  - 0.0
  - 0.0
  - 0.0
  - 0.0
  - 0.0
  - 0.0
  - 0.0
  - 0.0
  - 0.0
  - 0.0
  - 0.0
  - 0.0
  - 4.988670480088331e-05
  - 1.0813123481057119e-05
  - 0.0
  - 0.0
  - 0.0
  - 0.0
  - 1.0813123481057119e-05
  - 1.8085162082570605e-05
---
header:
  stamp:
    sec: 1722524094
    nanosec: 701708003
  frame_id: gps_front
pose:
  pose:
    position:
      x: -77.03073848685162
      y: 42.87846863274558
      z: 182.17806082312018
    orientation:
      x: -0.00010227185739153754
      y: 0.02194753579300207
      z: 0.004658660219751535
      w: 0.9997482643636042
  covariance:
  - 3.3194723073393106e-05
  - -1.312761742155999e-05
  - 3.1908421078696847e-06
  - 0.0
  - 0.0
  - 0.0
  - -1.312761742155999e-05
  - 5.265158324618824e-05
  - -2.538599983381573e-05
  - 0.0
  - 0.0
  - 0.0
  - 3.1908421078696847e-06
  - -2.538599983381573e-05
  - 0.00010750754154287279
  - 0.0
  - 0.0
  - 0.0
  - 0.0
  - 0.0
  - 0.0
  - 0.0
  - 0.0
  - 0.0
  - 0.0
  - 0.0
  - 0.0
  - 0.0
  - 4.9786725867306814e-05
  - 1.0790110536618158e-05
  - 0.0
  - 0.0
  - 0.0
  - 0.0
  - 1.0790110536618158e-05
  - 1.804120074666571e-05
---
header:
  stamp:
    sec: 1722524094
    nanosec: 801625705
  frame_id: gps_front
pose:
  pose:
    position:
      x: -77.03073847172485
      y: 42.87846863422372
      z: 182.17736579012126
    orientation:
      x: -9.30854878225747e-05
      y: 0.021672453947282334
      z: 0.004294057598080769
      w: 0.9997558987794667
  covariance:
  - 3.331682091811672e-05
  - -1.3279294762469362e-05
  - 3.4072540984197985e-06
  - 0.0
  - 0.0
  - 0.0
  - -1.3279294762469362e-05
  - 5.282273195916787e-05
  - -2.580528234830126e-05
  - 0.0
  - 0.0
  - 0.0
  - 3.4072540984197985e-06
  - -2.580528234830126e-05
  - 0.00010778081195894629
  - 0.0
  - 0.0
  - 0.0
  - 0.0
  - 0.0
  - 0.0
  - 0.0
  - 0.0
  - 0.0
  - 0.0
  - 0.0
  - 0.0
  - 0.0
  - 4.977944990969263e-05
  - 1.0785695849335752e-05
  - 0.0
  - 0.0
  - 0.0
  - 0.0
  - 1.0785695849335752e-05
  - 1.8030375940725207e-05
---
header:
  stamp:
    sec: 1722524094
    nanosec: 901532637
  frame_id: gps_front
pose:
  pose:
    position:
      x: -77.03073846416764
      y: 42.87846864128508
      z: 182.1773654203862
    orientation:
      x: -8.767703513100788e-05
      y: 0.021548975272599507
      z: 0.004067754915909039
      w: 0.9997595147571152
  covariance:
  - 3.356285742484033e-05
  - -1.3490796845871955e-05
  - 3.581598548407783e-06
  - 0.0
  - 0.0
  - 0.0
  - -1.3490796845871955e-05
  - 5.2932387916371226e-05
  - -2.6024947146652266e-05
  - 0.0
  - 0.0
  - 0.0
  - 3.581598548407783e-06
  - -2.6024947146652266e-05
  - 0.00010831436520675197
  - 0.0
  - 0.0
  - 0.0
  - 0.0
  - 0.0
  - 0.0
  - 0.0
  - 0.0
  - 0.0
  - 0.0
  - 0.0
  - 0.0
  - 0.0
  - 4.977539720130153e-05
  - 1.078437617252348e-05
  - 0.0
  - 0.0
  - 0.0
  - 0.0
  - 1.078437617252348e-05
  - 1.8027072655968368e-05
---
header:
  stamp:
    sec: 1722524095
    nanosec: 1808061
  frame_id: gps_front
pose:
  pose:
    position:
      x: -77.03073845964146
      y: 42.87846862039394
      z: 182.17749824468046
    orientation:
      x: -0.00010744710945415002
      y: 0.021545108234696207
      z: 0.0049858571570573175
      w: 0.9997554390923229
  covariance:
  - 3.362381175975315e-05
  - -1.3725737517233938e-05
  - 3.785081844398519e-06
  - 0.0
  - 0.0
  - 0.0
  - -1.3725737517233938e-05
  - 5.2957897423766553e-05
  - -2.6067138605867513e-05
  - 0.0
  - 0.0
  - 0.0
  - 3.785081844398519e-06
  - -2.6067138605867513e-05
  - 0.00010825196659425274
  - 0.0
  - 0.0
  - 0.0
  - 0.0
  - 0.0
  - 0.0
  - 0.0
  - 0.0
  - 0.0
  - 0.0
  - 0.0
  - 0.0
  - 0.0
  - 4.9734288040781394e-05
  - 1.0777778697956819e-05
  - 0.0
  - 0.0
  - 0.0
  - 0.0
  - 1.0777778697956819e-05
  - 1.802549377316609e-05
---
header:
  stamp:
    sec: 1722524095
    nanosec: 101447658
  frame_id: gps_front
pose:
  pose:
    position:
      x: -77.03073846445726
      y: 42.87846863562081
      z: 182.17564983293414
    orientation:
      x: -0.00010555601205422247
      y: 0.02152424964743524
      z: 0.004902855601710507
      w: 0.9997562990759259
  covariance:
  - 3.3499971323180944e-05
  - -1.3948529158369638e-05
  - 3.882270448229974e-06
  - 0.0
  - 0.0
  - 0.0
  - -1.3948529158369638e-05
  - 5.287113890517503e-05
  - -2.603913344501052e-05
  - 0.0
  - 0.0
  - 0.0
  - 3.882270448229974e-06
  - -2.603913344501052e-05
  - 0.00010754872346296906
  - 0.0
  - 0.0
  - 0.0
  - 0.0
  - 0.0
  - 0.0
  - 0.0
  - 0.0
  - 0.0
  - 0.0
  - 0.0
  - 0.0
  - 0.0
  - 4.9735375796444714e-05
  - 1.07791538539459e-05
  - 0.0
  - 0.0
  - 0.0
  - 0.0
  - 1.07791538539459e-05
  - 1.802118458726909e-05
---
header:
  stamp:
    sec: 1722524095
    nanosec: 201388380
  frame_id: gps_front
pose:
  pose:
    position:
      x: -77.0307384581351
      y: 42.87846864391319
      z: 182.17673512734473
    orientation:
      x: -9.212544719212921e-05
      y: 0.021634728731567632
      z: 0.004257185297336028
      w: 0.9997568736442664
  covariance:
  - 3.3451473427703604e-05
  - -1.4019638911122456e-05
  - 4.028381226817146e-06
  - 0.0
  - 0.0
  - 0.0
  - -1.4019638911122456e-05
  - 5.2762978157261387e-05
  - -2.5723924409248866e-05
  - 0.0
  - 0.0
  - 0.0
  - 4.028381226817146e-06
  - -2.5723924409248866e-05
  - 0.00010685042798286304
  - 0.0
  - 0.0
  - 0.0
  - 0.0
  - 0.0
  - 0.0
  - 0.0
  - 0.0
  - 0.0
  - 0.0
  - 0.0
  - 0.0
  - 0.0
  - 4.9754951760405675e-05
  - 1.0782557183119934e-05
  - 0.0
  - 0.0
  - 0.0
  - 0.0
  - 1.0782557183119934e-05
  - 1.8007696780841798e-05
---
header:
  stamp:
    sec: 1722524095
    nanosec: 302287761
  frame_id: gps_front
pose:
  pose:
    position:
      x: -77.03073845112432
      y: 42.87846863592955
      z: 182.1756021808833
    orientation:
      x: -0.00010694311217964795
      y: 0.021788461166046585
      z: 0.004907020966926924
      w: 0.9997505552228598
  covariance:
  - 3.342673153383657e-05
  - -1.393593083776068e-05
  - 4.418235675984761e-06
  - 0.0
  - 0.0
  - 0.0
  - -1.393593083776068e-05
  - 5.255752694210969e-05
  - -2.571849836385809e-05
  - 0.0
  - 0.0
  - 0.0
  - 4.418235675984761e-06
  - -2.571849836385809e-05
  - 0.00010597807704471052
  - 0.0
  - 0.0
  - 0.0
  - 0.0
  - 0.0
  - 0.0
  - 0.0
  - 0.0
  - 0.0
  - 0.0
  - 0.0
  - 0.0
  - 0.0
  - 4.983695180271752e-05
  - 1.0804048542922828e-05
  - 0.0
  - 0.0
  - 0.0
  - 0.0
  - 1.0804048542922828e-05
  - 1.804093517421279e-05
---
header:
  stamp:
    sec: 1722524095
    nanosec: 401437106
  frame_id: gps_front
pose:
  pose:
    position:
      x: -77.03073845823302
      y: 42.87846863442735
      z: 182.1754562733695
    orientation:
      x: -0.00011897318097416447
      y: 0.021888985528198828
      z: 0.005433916431177697
      w: 0.9997456330037893
  covariance:
  - 3.3506636100355536e-05
  - -1.4055187421035953e-05
  - 4.26430233346764e-06
  - 0.0
  - 0.0
  - 0.0
  - -1.4055187421035953e-05
  - 5.2967727242503315e-05
  - -2.5817527784965932e-05
  - 0.0
  - 0.0
  - 0.0
  - 4.26430233346764e-06
  - -2.5817527784965932e-05
  - 0.00010657162783900276
  - 0.0
  - 0.0
  - 0.0
  - 0.0
  - 0.0
  - 0.0
  - 0.0
  - 0.0
  - 0.0
  - 0.0
  - 0.0
  - 0.0
  - 0.0
  - 4.990664092474617e-05
  - 1.0824656783370301e-05
  - 0.0
  - 0.0
  - 0.0
  - 0.0
  - 1.0824656783370301e-05
  - 1.807049375202041e-05
---
header:
  stamp:
    sec: 1722524095
    nanosec: 501512646
  frame_id: gps_front
pose:
  pose:
    position:
      x: -77.03073845826637
      y: 42.87846863369376
      z: 182.17589699104428
    orientation:
      x: -0.00011008476701109179
      y: 0.021795534592496335
      z: 0.005049530276210115
      w: 0.9997496910713006
  covariance:
  - 3.3505049941595644e-05
  - -1.4099106920184568e-05
  - 4.387508397485362e-06
  - 0.0
  - 0.0
  - 0.0
  - -1.4099106920184568e-05
  - 5.3150648454902694e-05
  - -2.598620812932495e-05
  - 0.0
  - 0.0
  - 0.0
  - 4.387508397485362e-06
  - -2.598620812932495e-05
  - 0.00010665812442312017
  - 0.0
  - 0.0
  - 0.0
  - 0.0
  - 0.0
  - 0.0
  - 0.0
  - 0.0
  - 0.0
  - 0.0
  - 0.0
  - 0.0
  - 0.0
  - 5.014291309635155e-05
  - 1.0879970432142727e-05
  - 0.0
  - 0.0
  - 0.0
  - 0.0
  - 1.0879970432142727e-05
  - 1.8139862731914036e-05
---
header:
  stamp:
    sec: 1722524095
    nanosec: 601513582
  frame_id: gps_front
pose:
  pose:
    position:
      x: -77.03073845283228
      y: 42.87846863840689
      z: 182.1778029371053
    orientation:
      x: -0.00010608291795121945
      y: 0.02186952153909963
      z: 0.004849502443740644
      w: 0.9997490660661372
  covariance:
  - 3.3574699045857415e-05
  - -1.4063843082112726e-05
  - 4.4905245886184275e-06
  - 0.0
  - 0.0
  - 0.0
  - -1.4063843082112726e-05
  - 5.3353218390839174e-05
  - -2.6118397727259435e-05
  - 0.0
  - 0.0
  - 0.0
  - 4.4905245886184275e-06
  - -2.6118397727259435e-05
  - 0.00010717321129050106
  - 0.0
  - 0.0
  - 0.0
  - 0.0
  - 0.0
  - 0.0
  - 0.0
  - 0.0
  - 0.0
  - 0.0
  - 0.0
  - 0.0
  - 0.0
  - 5.0432776333764195e-05
  - 1.0950701835099608e-05
  - 0.0
  - 0.0
  - 0.0
  - 0.0
  - 1.0950701835099608e-05
  - 1.823649654397741e-05
---
header:
  stamp:
    sec: 1722524095
    nanosec: 701678599
  frame_id: gps_front
pose:
  pose:
    position:
      x: -77.03073845778398
      y: 42.87846861799213
      z: 182.1806818479672
    orientation:
      x: -0.00010922518324953227
      y: 0.022042309858461086
      z: 0.00495398645510783
      w: 0.9997447587580369
  covariance:
  - 3.367319732205942e-05
  - -1.4037895198271144e-05
  - 4.025542239105562e-06
  - 0.0
  - 0.0
  - 0.0
  - -1.4037895198271144e-05
  - 5.390354635892436e-05
  - -2.6381596399005502e-05
  - 0.0
  - 0.0
  - 0.0
  - 4.025542239105562e-06
  - -2.6381596399005502e-05
  - 0.00010879256296902895
  - 0.0
  - 0.0
  - 0.0
  - 0.0
  - 0.0
  - 0.0
  - 0.0
  - 0.0
  - 0.0
  - 0.0
  - 0.0
  - 0.0
  - 0.0
  - 5.0645416195038706e-05
  - 1.100496228900738e-05
  - 0.0
  - 0.0
  - 0.0
  - 0.0
  - 1.100496228900738e-05
  - 1.831721056078095e-05
---
header:
  stamp:
    sec: 1722524095
    nanosec: 801405830
  frame_id: gps_front
pose:
  pose:
    position:
