header:
  stamp:
    sec: 1722525283
    nanosec: 900272165
  frame_id: gps_front
status:
  status: 2
  service: 3
latitude: 42.8784671724488
longitude: -77.0307327286384
altitude: 182.16612942703068
position_covariance:
- 3.0460299967671745e-05
- -4.33913237429806e-06
- -2.926145043602446e-06
- -4.33913237429806e-06
- 7.01599201420322e-05
- -7.346310303546488e-05
- -2.926145043602446e-06
- -7.346310303546488e-05
- 0.00018252186418976635
position_covariance_type: 3
---
header:
  stamp:
    sec: 1722525284
    nanosec: 454249
  frame_id: gps_front
status:
  status: 2
  service: 3
latitude: 42.87846716364213
longitude: -77.03073273197981
altitude: 182.16747570596635
position_covariance:
- 3.036039197468199e-05
- -4.3774384721473325e-06
- -2.7729197427106556e-06
- -4.3774384721473325e-06
- 6.938631850061938e-05
- -7.280907448148355e-05
- -2.7729197427106556e-06
- -7.280907448148355e-05
- 0.00018206606910098344
position_covariance_type: 3
---
header:
  stamp:
    sec: 1722525284
    nanosec: 100223614
  frame_id: gps_front
status:
  status: 2
  service: 3
latitude: 42.87846717750659
longitude: -77.03073272491321
altitude: 182.1664800075814
position_covariance:
- 3.017098060809076e-05
- -4.58347949461313e-06
- -2.5273650408053072e-06
- -4.58347949461313e-06
- 6.834061059635133e-05
- -7.141179958125576e-05
- -2.5273650408053072e-06
- -7.141179958125576e-05
- 0.00018034465028904378
position_covariance_type: 3
---
header:
  stamp:
    sec: 1722525284
    nanosec: 200539887
  frame_id: gps_front
status:
  status: 2
  service: 3
latitude: 42.878467183318385
longitude: -77.03073271630976
altitude: 182.16458473354578
position_covariance:
- 2.9877475753892213e-05
- -4.703489594248822e-06
- -2.4521484647266334e-06
- -4.703489594248822e-06
- 6.687940185656771e-05
- -6.985780055401847e-05
- -2.4521484647266334e-06
- -6.985780055401847e-05
- 0.0001775739947333932
position_covariance_type: 3
---
header:
  stamp:
    sec: 1722525284
    nanosec: 300499635
  frame_id: gps_front
status:
  status: 2
  service: 3
latitude: 42.878467196100665
longitude: -77.03073270603426
altitude: 182.16018718015403
position_covariance:
- 2.994413262058515e-05
- -4.725029612018261e-06
- -2.523179546187748e-06
- -4.725029612018261e-06
- 6.712497270200402e-05
- -7.031657150946558e-05
- -2.523179546187748e-06
- -7.031657150946558e-05
- 0.00017769883561413735
position_covariance_type: 3
---
header:
  stamp:
    sec: 1722525284
    nanosec: 400385513
  frame_id: gps_front
status:
  status: 2
  service: 3
latitude: 42.878467210932534
longitude: -77.03073271146017
altitude: 182.1594964209944
position_covariance:
- 2.9969101888127625e-05
- -4.74003400086076e-06
- -2.448245368213975e-06
- -4.74003400086076e-06
- 6.755303911631927e-05
- -7.070253195706755e-05
- -2.448245368213975e-06
- -7.070253195706755e-05
- 0.00017813641170505434
position_covariance_type: 3
---
header:
  stamp:
    sec: 1722525284
    nanosec: 500348439
  frame_id: gps_front
status:
  status: 2
  service: 3
latitude: 42.87846721233221
longitude: -77.03073270239935
altitude: 182.15825020894408
position_covariance:
- 3.0038310796953738e-05
- -4.75651631859364e-06
- -2.493613692422514e-06
- -4.75651631859364e-06
- 6.792227941332385e-05
- -7.098460628185421e-05
- -2.493613692422514e-06
- -7.098460628185421e-05
- 0.0001782916660886258
position_covariance_type: 3
---
header:
  stamp:
    sec: 1722525284
    nanosec: 600333774
  frame_id: gps_front
status:
  status: 2
  service: 3
latitude: 42.87846719975645
longitude: -77.03073270116009
altitude: 182.1596214659512
position_covariance:
- 3.0190221878001466e-05
- -4.6796558308415115e-06
- -2.4498749553458765e-06
- -4.6796558308415115e-06
- 6.846249743830413e-05
- -7.174119673436508e-05
- -2.4498749553458765e-06
- -7.174119673436508e-05
- 0.00017965960432775319
position_covariance_type: 3
---
header:
  stamp:
    sec: 1722525284
    nanosec: 700370316
  frame_id: gps_front
status:
  status: 2
  service: 3
latitude: 42.87846720270155
longitude: -77.03073270013866
altitude: 182.15902218874544
position_covariance:
- 3.028999526577536e-05
- -4.5212855184217915e-06
- -2.5775557332963217e-06
- -4.5212855184217915e-06
- 6.905513146193698e-05
- -7.245081360451877e-05
- -2.5775557332963217e-06
- -7.245081360451877e-05
- 0.00018115520651917905
position_covariance_type: 3
---
header:
  stamp:
    sec: 1722525284
    nanosec: 800114136
  frame_id: gps_front
status:
  status: 2
  service: 3
latitude: 42.87846718466246
longitude: -77.03073269804709
altitude: 182.1600216543302
position_covariance:
- 3.033652865269687e-05
- -4.473668013815768e-06
- -2.7226876682107104e-06
- -4.473668013815768e-06
- 6.94112604833208e-05
- -7.258212281158194e-05
- -2.7226876682107104e-06
- -7.258212281158194e-05
- 0.0001819989556679502
position_covariance_type: 3
---
header:
  stamp:
    sec: 1722525284
    nanosec: 900828182
  frame_id: gps_front
status:
  status: 2
  service: 3
latitude: 42.87846719550221
longitude: -77.03073268929191
altitude: 182.15980116277933
position_covariance:
- 3.03332089970354e-05
- -4.454852842172841e-06
- -2.7394701191951754e-06
- -4.454852842172841e-06
- 6.929244409548119e-05
- -7.255587115650997e-05
- -2.7394701191951754e-06
- -7.255587115650997e-05
- 0.00018174848810303956
position_covariance_type: 3
---
header:
  stamp:
    sec: 1722525285
    nanosec: 775214
  frame_id: gps_front
status:
  status: 2
  service: 3
latitude: 42.87846719388061
longitude: -77.03073268816964
altitude: 182.15968569926918
position_covariance:
- 3.018749521288555e-05
- -4.461107437236933e-06
- -2.8329427550488617e-06
- -4.461107437236933e-06
- 6.89581356709823e-05
- -7.217851816676557e-05
- -2.8329427550488617e-06
- -7.217851816676557e-05
- 0.00018012127839028835
position_covariance_type: 3
---
header:
  stamp:
    sec: 1722525285
    nanosec: 100230251
  frame_id: gps_front
status:
  status: 2
  service: 3
latitude: 42.8784671944776
longitude: -77.03073269088294
altitude: 182.15999726206064
position_covariance:
- 2.996068542415742e-05
- -4.440956672624452e-06
- -2.8782551453332417e-06
- -4.440956672624452e-06
- 6.833847874077037e-05
- -7.1483533247374e-05
- -2.8782551453332417e-06
- -7.1483533247374e-05
- 0.0001788106164894998
position_covariance_type: 3
---
header:
  stamp:
    sec: 1722525285
    nanosec: 200508807
  frame_id: gps_front
status:
  status: 2
  service: 3
latitude: 42.878467193994624
longitude: -77.03073268869902
altitude: 182.15957099199295
position_covariance:
- 3.0041386708035134e-05
- -4.483237262320472e-06
- -2.929433776444057e-06
- -4.483237262320472e-06
- 6.856545951450244e-05
- -7.187620212789625e-05
- -2.929433776444057e-06
- -7.187620212789625e-05
- 0.0001793553528841585
position_covariance_type: 3
---
header:
  stamp:
    sec: 1722525285
    nanosec: 300153646
  frame_id: gps_front
status:
  status: 2
  service: 3
latitude: 42.87846721159657
longitude: -77.03073268447062
altitude: 182.15673571825027
position_covariance:
- 3.010670297953766e-05
- -4.624695975508075e-06
- -2.651663407959859e-06
- -4.624695975508075e-06
- 6.897327693877742e-05
- -7.213922071969137e-05
- -2.651663407959859e-06
- -7.213922071969137e-05
- 0.00017941893020179123
position_covariance_type: 3
---
header:
  stamp:
    sec: 1722525285
    nanosec: 400307927
  frame_id: gps_front
status:
  status: 2
  service: 3
latitude: 42.87846721090309
longitude: -77.03073268219484
altitude: 182.15720128268003
position_covariance:
- 3.022212149517145e-05
- -4.5351480366662145e-06
- -2.762033318504109e-06
- -4.5351480366662145e-06
- 6.924743502167985e-05
- -7.254537922563031e-05
- -2.762033318504109e-06
- -7.254537922563031e-05
- 0.00018069501675199717
position_covariance_type: 3
---
header:
  stamp:
    sec: 1722525285
    nanosec: 500195918
  frame_id: gps_front
status:
  status: 2
  service: 3
latitude: 42.878467210009056
longitude: -77.03073267652937
altitude: 182.15593253728002
position_covariance:
- 3.0324439649120905e-05
- -4.309555151849054e-06
- -3.2155166991287842e-06
- -4.309555151849054e-06
- 6.949445378268138e-05
- -7.289664790732786e-05
- -3.2155166991287842e-06
- -7.289664790732786e-05
- 0.00018236909818369895
position_covariance_type: 3
---
header:
  stamp:
    sec: 1722525285
    nanosec: 600270189
  frame_id: gps_front
status:
  status: 2
  service: 3
latitude: 42.87846719737163
longitude: -77.03073269079698
altitude: 182.1573711493984
position_covariance:
- 3.0317058190121315e-05
- -4.250719484844012e-06
- -3.1946212857292267e-06
- -4.250719484844012e-06
- 6.982362538110465e-05
- -7.310741057153791e-05
- -3.1946212857292267e-06
- -7.310741057153791e-05
- 0.00018229517445433885
position_covariance_type: 3
---
header:
  stamp:
    sec: 1722525285
    nanosec: 700470001
  frame_id: gps_front
status:
  status: 2
  service: 3
latitude: 42.87846718996226
longitude: -77.03073269065851
altitude: 182.16062422376126
position_covariance:
- 3.0353481633937918e-05
- -4.220059963699896e-06
- -2.9835150598955806e-06
- -4.220059963699896e-06
- 7.020644989097491e-05
- -7.35766370780766e-05
- -2.9835150598955806e-06
- -7.35766370780766e-05
- 0.00018233520677313209
position_covariance_type: 3
---
header:
  stamp:
    sec: 1722525285
    nanosec: 800440717
  frame_id: gps_front
status:
  status: 2
  service: 3
latitude: 42.87846719198441
longitude: -77.03073269417361
altitude: 182.16304265893996
position_covariance:
- 3.0417497328016907e-05
- -4.249956418789225e-06
- -2.922263092841604e-06
- -4.249956418789225e-06
- 7.053530134726316e-05
- -7.389723759843037e-05
- -2.922263092841604e-06
- -7.389723759843037e-05
- 0.00018274362082593143
position_covariance_type: 3
---
header:
  stamp:
    sec: 1722525285
    nanosec: 900384813
  frame_id: gps_front
status:
  status: 2
  service: 3
latitude: 42.878467188097545
longitude: -77.03073269149921
altitude: 182.162823936902
position_covariance:
- 3.0405097277252935e-05
- -4.253595307091018e-06
- -3.063386202484253e-06
- -4.253595307091018e-06
- 7.040528726065531e-05
- -7.37375594326295e-05
- -3.063386202484253e-06
- -7.37375594326295e-05
- 0.00018246793479193002
position_covariance_type: 3
---
header:
  stamp:
    sec: 1722525286
    nanosec: 163475
  frame_id: gps_front
status:
  status: 2
  service: 3
latitude: 42.87846716721661
longitude: -77.03073268806207
altitude: 182.16559362132102
position_covariance:
- 3.0255518140620552e-05
- -4.30776799476007e-06
- -2.9116679343133e-06
- -4.30776799476007e-06
- 6.963094347156584e-05
- -7.304016617126763e-05
- -2.9116679343133e-06
- -7.304016617126763e-05
- 0.00018115053535439074
position_covariance_type: 3
---
header:
  stamp:
    sec: 1722525286
    nanosec: 100078355
  frame_id: gps_front
status:
  status: 2
  service: 3
latitude: 42.878467172943274
longitude: -77.03073269528136
altitude: 182.16827793512493
position_covariance:
- 3.0039391276659444e-05
- -4.412881025928073e-06
- -2.7477856292534852e-06
- -4.412881025928073e-06
- 6.864665920147672e-05
- -7.190430187620223e-05
- -2.7477856292534852e-06
- -7.190430187620223e-05
- 0.00017965177539736032
position_covariance_type: 3
---
header:
  stamp:
    sec: 1722525286
    nanosec: 200017620
  frame_id: gps_front
status:
  status: 2
  service: 3
latitude: 42.87846719752829
longitude: -77.0307328396606
altitude: 182.16653750371188
position_covariance:
- 3.1708168535260484e-05
- -4.461351181817008e-06
- -3.4796412364812568e-06
- -4.461351181817008e-06
- 7.214864308480173e-05
- -7.57301168050617e-05
- -3.4796412364812568e-06
- -7.57301168050617e-05
- 0.0001912008156068623
position_covariance_type: 3
---
header:
  stamp:
    sec: 1722525286
    nanosec: 300576203
  frame_id: gps_front
status:
  status: 2
  service: 3
latitude: 42.878467222327934
longitude: -77.03073328804255
altitude: 182.16271427553147
position_covariance:
- 2.837005195033271e-05
- -4.396522854221985e-06
- -2.2337101199809695e-06
- -4.396522854221985e-06
- 6.54537943773903e-05
- -6.819364352850243e-05
- -2.2337101199809695e-06
- -6.819364352850243e-05
- 0.00016813904221635312
position_covariance_type: 3
---
header:
  stamp:
    sec: 1722525286
    nanosec: 400420613
  frame_id: gps_front
status:
  status: 2
  service: 3
latitude: 42.87846731654273
longitude: -77.03073386413568
altitude: 182.16639618109912
position_covariance:
- 3.0318631615955383e-05
- -4.3600352910289075e-06
- -3.386908701941138e-06
- -4.3600352910289075e-06
- 6.948223017388955e-05
- -7.25455247447826e-05
- -3.386908701941138e-06
- -7.25455247447826e-05
- 0.00018151650147046894
position_covariance_type: 3
---
header:
  stamp:
    sec: 1722525286
    nanosec: 500466763
  frame_id: gps_front
status:
  status: 2
  service: 3
latitude: 42.87846748789167
longitude: -77.03073443404853
altitude: 182.16469803452492
position_covariance:
- 3.0323997634695843e-05
- -4.34281537309289e-06
- -2.992047711813939e-06
- -4.34281537309289e-06
- 6.984524225117639e-05
- -7.264384476002306e-05
- -2.992047711813939e-06
- -7.264384476002306e-05
- 0.00018168441602028906
position_covariance_type: 3
---
header:
  stamp:
    sec: 1722525286
    nanosec: 600367407
  frame_id: gps_front
status:
  status: 2
  service: 3
latitude: 42.87846759707141
longitude: -77.03073492879287
altitude: 182.16318604443222
position_covariance:
- 3.091467806370929e-05
- -2.475953124303487e-06
- -7.682971954636741e-06
- -2.475953124303487e-06
- 7.032747816992924e-05
- -7.659231778234243e-05
- -7.682971954636741e-06
- -7.659231778234243e-05
- 0.0001909671409521252
position_covariance_type: 3
---
header:
  stamp:
    sec: 1722525286
    nanosec: 700384023
  frame_id: gps_front
status:
  status: 2
  service: 3
latitude: 42.87846759932398
longitude: -77.03073534043402
altitude: 182.17071252129972
position_covariance:
- 2.9275683118612505e-05
- -2.504116764612263e-06
- -6.467294042522553e-06
- -2.504116764612263e-06
- 6.837600085418671e-05
- -7.434721919707954e-05
- -6.467294042522553e-06
- -7.434721919707954e-05
- 0.00018112272664438933
position_covariance_type: 3
---
header:
  stamp:
    sec: 1722525286
    nanosec: 800435497
  frame_id: gps_front
status:
  status: 2
  service: 3
latitude: 42.87846755364567
longitude: -77.03073586611528
altitude: 182.1839569825679
position_covariance:
- 3.0052196962060407e-05
- -1.8019844674199703e-06
- -8.015992534637917e-06
- -1.8019844674199703e-06
- 7.11243410478346e-05
- -7.861498306738213e-05
- -8.015992534637917e-06
- -7.861498306738213e-05
- 0.00019125115068163723
position_covariance_type: 3
---
header:
  stamp:
    sec: 1722525286
    nanosec: 900010069
  frame_id: gps_front
status:
  status: 2
  service: 3
latitude: 42.87846751086921
longitude: -77.03073649735822
altitude: 182.18105651903898
position_covariance:
- 3.204592576366849e-05
- 5.432828231732856e-08
- -1.2534716915979516e-05
- 5.432828231732856e-08
- 7.653291686438024e-05
- -8.796392648946494e-05
- -1.2534716915979516e-05
- -8.796392648946494e-05
- 0.0002157355920644477
position_covariance_type: 3
---
header:
  stamp:
    sec: 1722525287
    nanosec: 526419
  frame_id: gps_front
status:
  status: 2
  service: 3
latitude: 42.87846743181299
longitude: -77.03073708318023
altitude: 182.17648657225072
position_covariance:
- 3.316956644994207e-05
- 2.044192797256983e-06
- -1.708125273580663e-05
- 2.044192797256983e-06
- 8.080170664470643e-05
- -9.71629488049075e-05
- -1.708125273580663e-05
- -9.71629488049075e-05
- 0.0002358362398808822
position_covariance_type: 3
---
header:
  stamp:
    sec: 1722525287
    nanosec: 100076617
  frame_id: gps_front
status:
  status: 2
  service: 3
latitude: 42.87846739719091
longitude: -77.03073759138138
altitude: 182.18571187462658
position_covariance:
- 3.158578692818992e-05
- 2.2459471438196488e-06
- -1.6009542378014885e-05
- 2.2459471438196488e-06
- 8.097963291220367e-05
- -9.873288217931986e-05
- -1.6009542378014885e-05
- -9.873288217931986e-05
- 0.00023286555369850248
position_covariance_type: 3
---
header:
  stamp:
    sec: 1722525287
    nanosec: 200021303
  frame_id: gps_front
status:
  status: 2
  service: 3
latitude: 42.87846742619337
longitude: -77.03073808400387
altitude: 182.1877183848992
position_covariance:
- 3.216530603822321e-05
- 4.873912530456437e-06
- -2.005825808737427e-05
- 4.873912530456437e-06
- 8.602525485912338e-05
- -0.00010665343870641664
- -2.005825808737427e-05
- -0.00010665343870641664
- 0.0002469740284141153
position_covariance_type: 3
---
header:
  stamp:
    sec: 1722525287
    nanosec: 300068956
  frame_id: gps_front
status:
  status: 2
  service: 3
latitude: 42.87846750796651
longitude: -77.03073866092294
altitude: 182.18276896513999
position_covariance:
- 3.378104156581685e-05
- 6.84640235704137e-06
- -2.399617551418487e-05
- 6.84640235704137e-06
- 9.156132000498474e-05
- -0.00011512575292726979
- -2.399617551418487e-05
- -0.00011512575292726979
- 0.0002653851406648755
position_covariance_type: 3
---
header:
  stamp:
    sec: 1722525287
    nanosec: 400429519
  frame_id: gps_front
status:
  status: 2
  service: 3
latitude: 42.87846759929469
longitude: -77.03073925290279
altitude: 182.18677284289151
position_covariance:
- 3.492911491775885e-05
- 7.835624273866415e-06
- -2.6124442229047418e-05
- 7.835624273866415e-06
- 9.512151882518083e-05
- -0.0001207340756081976
- -2.6124442229047418e-05
- -0.0001207340756081976
- 0.0002777107583824545
position_covariance_type: 3
---
header:
  stamp:
    sec: 1722525287
    nanosec: 500075802
  frame_id: gps_front
status:
  status: 2
  service: 3
latitude: 42.87846766142884
longitude: -77.03073968126058
altitude: 182.18766440358013
position_covariance:
- 3.402895890758373e-05
- 7.958952664921526e-06
- -2.584420690254774e-05
- 7.958952664921526e-06
- 9.360943658975884e-05
- -0.00011985848686890677
- -2.584420690254774e-05
- -0.00011985848686890677
- 0.0002742705401033163
position_covariance_type: 3
---
header:
  stamp:
    sec: 1722525287
    nanosec: 600502035
  frame_id: gps_front
status:
  status: 2
  service: 3
latitude: 42.878467658869724
longitude: -77.030740070834
altitude: 182.19539240468293
position_covariance:
- 3.287927756900899e-05
- 7.416692369588418e-06
- -2.5175537302857265e-05
- 7.416692369588418e-06
- 9.02866231626831e-05
- -0.00011720407201210037
- -2.5175537302857265e-05
- -0.00011720407201210037
- 0.00026766370865516365
position_covariance_type: 3
---
header:
  stamp:
    sec: 1722525287
    nanosec: 700486175
  frame_id: gps_front
status:
  status: 2
  service: 3
latitude: 42.87846762731653
longitude: -77.03074058139092
altitude: 182.19912707060575
position_covariance:
- 3.3083480957429856e-05
- 6.5338781496393494e-06
- -2.3997235985007137e-05
- 6.5338781496393494e-06
- 8.977347170002759e-05
- -0.00011610187357291579
- -2.3997235985007137e-05
- -0.00011610187357291579
- 0.0002665867214091122
position_covariance_type: 3
---
header:
  stamp:
    sec: 1722525287
    nanosec: 800201718
  frame_id: gps_front
status:
  status: 2
  service: 3
latitude: 42.87846755982376
longitude: -77.03074118934782
altitude: 182.19638285879046
position_covariance:
- 3.385127638466656e-05
- 5.662999683408998e-06
- -2.3006157789495774e-05
- 5.662999683408998e-06
- 9.009791392600164e-05
- -0.00011528075265232474
- -2.3006157789495774e-05
- -0.00011528075265232474
- 0.00026852780138142407
position_covariance_type: 3
---
header:
  stamp:
    sec: 1722525287
    nanosec: 900022703
  frame_id: gps_front
status:
  status: 2
  service: 3
latitude: 42.878467507838806
longitude: -77.03074173781604
altitude: 182.19498665630817
position_covariance:
- 3.344282595207915e-05
- 4.315619207773125e-06
- -2.0660767404478975e-05
- 4.315619207773125e-06
- 8.786545367911458e-05
- -0.00011094567162217572
- -2.0660767404478975e-05
- -0.00011094567162217572
- 0.00025937354075722396
position_covariance_type: 3
---
header:
  stamp:
    sec: 1722525288
    nanosec: 369411
  frame_id: gps_front
status:
  status: 2
  service: 3
latitude: 42.87846750547072
longitude: -77.03074224612512
altitude: 182.1928733550012
position_covariance:
- 3.207692861906253e-05
- 3.0492763016809477e-06
- -1.807874286896549e-05
- 3.0492763016809477e-06
- 8.307672396767884e-05
- -0.00010375767305959016
- -1.807874286896549e-05
- -0.00010375767305959016
- 0.00024263426894322038
position_covariance_type: 3
---
header:
  stamp:
    sec: 1722525288
    nanosec: 100329373
  frame_id: gps_front
status:
  status: 2
  service: 3
latitude: 42.8784675081329
longitude: -77.03074298237938
altitude: 182.2032009512186
position_covariance:
- 3.2141229894477874e-05
- 1.8675053752303938e-06
- -1.5899860954959877e-05
- 1.8675053752303938e-06
- 8.07476244517602e-05
- -9.85954247880727e-05
- -1.5899860954959877e-05
- -9.85954247880727e-05
- 0.00023505681019742042
position_covariance_type: 3
---
header:
  stamp:
    sec: 1722525288
    nanosec: 200269123
  frame_id: gps_front
status:
  status: 2
  service: 3
latitude: 42.878467499250725
longitude: -77.03074393254902
altitude: 182.20302882790565
position_covariance:
- 3.1892497645458207e-05
- 2.45405175292035e-07
- -1.2928639989695512e-05
- 2.45405175292035e-07
- 7.72935600252822e-05
- -9.148562094196677e-05
- -1.2928639989695512e-05
- -9.148562094196677e-05
- 0.00022166804410517216
position_covariance_type: 3
---
header:
  stamp:
    sec: 1722525288
    nanosec: 300475492
  frame_id: gps_front
status:
  status: 2
  service: 3
latitude: 42.878467478096695
longitude: -77.03074470675912
altitude: 182.20783500093967
position_covariance:
- 3.1661733373766765e-05
- -4.992974140805018e-07
- -1.145425903814612e-05
- -4.992974140805018e-07
- 7.658088725293055e-05
- -8.88163922354579e-05
- -1.145425903814612e-05
- -8.88163922354579e-05
- 0.00021475604444276541
position_covariance_type: 3
---
header:
  stamp:
    sec: 1722525288
    nanosec: 400304449
  frame_id: gps_front
status:
  status: 2
  service: 3
latitude: 42.87846746038794
longitude: -77.03074525431342
altitude: 182.20319147780538
position_covariance:
- 3.5252545785624534e-05
- -1.3368448890105356e-06
- -1.0914905033132527e-05
- -1.3368448890105356e-06
- 8.388129936065525e-05
- -9.449426579521969e-05
- -1.0914905033132527e-05
- -9.449426579521969e-05
- 0.00023447080457117409
position_covariance_type: 3
---
header:
  stamp:
    sec: 1722525288
    nanosec: 500124647
  frame_id: gps_front
status:
  status: 2
  service: 3
latitude: 42.87846745389849
longitude: -77.03074591553619
altitude: 182.20996712055057
position_covariance:
- 3.775962977670133e-05
- -1.9954488834628137e-06
- -1.0689796908991411e-05
- -1.9954488834628137e-06
- 8.856789645506069e-05
- -9.758389933267608e-05
- -1.0689796908991411e-05
- -9.758389933267608e-05
- 0.00024650810519233346
position_covariance_type: 3
---
header:
  stamp:
    sec: 1722525288
    nanosec: 600220653
  frame_id: gps_front
status:
  status: 2
  service: 3
latitude: 42.878467433162086
longitude: -77.03074688578532
altitude: 182.20966356433928
position_covariance:
- 4.3456479033920914e-05
- -2.8018368993798504e-06
- -1.1622040801739786e-05
- -2.8018368993798504e-06
- 9.948622027877718e-05
- -0.00010773503890959546
- -1.1622040801739786e-05
- -0.00010773503890959546
- 0.00027968306676484644
position_covariance_type: 3
---
header:
  stamp:
    sec: 1722525288
    nanosec: 701710166
  frame_id: gps_front
status:
  status: 2
  service: 3
latitude: 42.87846741014007
longitude: -77.0307478104654
altitude: 182.2177968705073
position_covariance:
- 4.340579471318051e-05
- -3.13692703457491e-06
- -1.0381726497143973e-05
- -3.13692703457491e-06
- 9.930193482432514e-05
- -0.00010652434139046818
- -1.0381726497143973e-05
- -0.00010652434139046818
- 0.00027684931410476565
position_covariance_type: 3
---
header:
  stamp:
    sec: 1722525288
    nanosec: 800359042
  frame_id: gps_front
status:
  status: 2
  service: 3
latitude: 42.87846743324006
longitude: -77.0307486197189
altitude: 182.22154147643596
position_covariance:
- 4.335100675234571e-05
- -3.490077688184101e-06
- -9.720954949443694e-06
- -3.490077688184101e-06
- 9.899251745082438e-05
- -0.00010520176874706522
- -9.720954949443694e-06
- -0.00010520176874706522
- 0.00027314640465192497
position_covariance_type: 3
---
header:
  stamp:
    sec: 1722525288
    nanosec: 900018839
  frame_id: gps_front
status:
  status: 2
  service: 3
latitude: 42.87846751626692
longitude: -77.03074935895714
altitude: 182.2248255731538
position_covariance:
- 4.2244442738592625e-05
- -4.224973054078873e-06
- -8.280735528387595e-06
- -4.224973054078873e-06
- 9.639571362640709e-05
- -0.0001016323731164448
- -8.280735528387595e-06
- -0.0001016323731164448
- 0.0002622143947519362
position_covariance_type: 3
---
header:
  stamp:
    sec: 1722525289
    nanosec: 541210
  frame_id: gps_front
status:
  status: 2
  service: 3
latitude: 42.878467556491884
longitude: -77.03075028500426
altitude: 182.22883032634854
position_covariance:
- 4.382986298878677e-05
- -5.2780460464418866e-06
- -7.331537744903471e-06
- -5.2780460464418866e-06
- 9.860176214715466e-05
- -0.00010327819472877309
- -7.331537744903471e-06
- -0.00010327819472877309
- 0.00026774435536935925
position_covariance_type: 3
---
header:
  stamp:
    sec: 1722525289
    nanosec: 100339251
  frame_id: gps_front
status:
  status: 2
  service: 3
latitude: 42.87846756990689
longitude: -77.03075115999253
altitude: 182.22903949208558
position_covariance:
- 4.407430242281407e-05
- -6.07873289482086e-06
- -6.332619705062825e-06
- -6.07873289482086e-06
- 9.817757381824777e-05
- -0.0001025474994094111
- -6.332619705062825e-06
- -0.0001025474994094111
- 0.00026637327391654253
position_covariance_type: 3
---
header:
  stamp:
    sec: 1722525289
    nanosec: 200428976
  frame_id: gps_front
status:
  status: 2
  service: 3
latitude: 42.8784676362995
longitude: -77.03075200876216
altitude: 182.23221245966852
position_covariance:
- 4.4352960685500875e-05
- -6.835055955889402e-06
- -5.4511760936293285e-06
- -6.835055955889402e-06
- 9.728164877742529e-05
- -0.00010180414392380044
- -5.4511760936293285e-06
- -0.00010180414392380044
- 0.0002670222893357277
position_covariance_type: 3
---
header:
  stamp:
    sec: 1722525289
    nanosec: 300055626
  frame_id: gps_front
status:
  status: 2
  service: 3
latitude: 42.87846768827161
longitude: -77.0307527705068
altitude: 182.23733116313815
position_covariance:
- 4.459478805074468e-05
- -7.16452814231161e-06
- -4.855760835198453e-06
- -7.16452814231161e-06
- 9.749981836648658e-05
- -0.0001019706396618858
- -4.855760835198453e-06
- -0.0001019706396618858
- 0.00026744004571810365
position_covariance_type: 3
---
header:
  stamp:
    sec: 1722525289
    nanosec: 400083535
  frame_id: gps_front
status:
  status: 2
  service: 3
latitude: 42.878467751267145
longitude: -77.03075353369205
altitude: 182.24632813036442
position_covariance:
- 4.432124114828184e-05
- -7.039065167191438e-06
- -4.5855467760702595e-06
- -7.039065167191438e-06
- 9.742629481479526e-05
- -0.00010156318603549153
- -4.5855467760702595e-06
- -0.00010156318603549153
- 0.0002656625583767891
position_covariance_type: 3
---
header:
  stamp:
    sec: 1722525289
    nanosec: 500512251
  frame_id: gps_front
status:
  status: 2
  service: 3
latitude: 42.87846784749346
longitude: -77.03075423100876
altitude: 182.24752183817327
position_covariance:
- 4.377531149657443e-05
- -6.64157551000244e-06
- -4.9925110943149775e-06
- -6.64157551000244e-06
- 9.690006118034944e-05
- -0.00010084264795295894
- -4.9925110943149775e-06
- -0.00010084264795295894
- 0.00026360954507254064
position_covariance_type: 3
---
header:
  stamp:
    sec: 1722525289
    nanosec: 601200885
  frame_id: gps_front
status:
  status: 2
  service: 3
latitude: 42.87846790748377
longitude: -77.03075499012128
altitude: 182.25322183780372
position_covariance:
- 4.394671123009175e-05
- -6.448934072977863e-06
- -5.380547008826397e-06
- -6.448934072977863e-06
- 9.764406422618777e-05
- -0.00010157621727557853
- -5.380547008826397e-06
- -0.00010157621727557853
- 0.00026578755932860076
position_covariance_type: 3
---
header:
  stamp:
    sec: 1722525289
    nanosec: 700033670
  frame_id: gps_front
status:
  status: 2
  service: 3
latitude: 42.87846795623284
longitude: -77.03075589724534
altitude: 182.2498554913327
position_covariance:
- 4.4327578507363796e-05
- -6.517853307741461e-06
- -5.456334747577785e-06
- -6.517853307741461e-06
- 9.892729576677084e-05
- -0.00010252580250380561
- -5.456334747577785e-06
- -0.00010252580250380561
- 0.00026844340027309954
position_covariance_type: 3
---
header:
  stamp:
    sec: 1722525289
    nanosec: 800080038
  frame_id: gps_front
status:
  status: 2
  service: 3
latitude: 42.87846800027704
longitude: -77.03075674438998
altitude: 182.26942440774292
position_covariance:
- 4.400365651235916e-05
- -6.588423730136128e-06
- -5.073521151643945e-06
- -6.588423730136128e-06
- 9.923875768436119e-05
- -0.00010231063788523898
- -5.073521151643945e-06
- -0.00010231063788523898
- 0.00026763309142552316
position_covariance_type: 3
---
header:
  stamp:
    sec: 1722525289
    nanosec: 899998488
  frame_id: gps_front
status:
  status: 2
  service: 3
latitude: 42.87846810385788
longitude: -77.03075756853724
altitude: 182.26747262757272
position_covariance:
- 4.361044557299465e-05
- -6.51864775136346e-06
- -4.868555606662994e-06
- -6.51864775136346e-06
- 9.904181206366047e-05
- -0.0001017641625367105
- -4.868555606662994e-06
- -0.0001017641625367105
- 0.00026628977502696216
position_covariance_type: 3
---
header:
  stamp:
    sec: 1722525290
    nanosec: 414410
  frame_id: gps_front
status:
  status: 2
  service: 3
latitude: 42.87846813604114
longitude: -77.03075833594148
altitude: 182.27226359210908
position_covariance:
- 4.3430594814708456e-05
- -6.406803095160285e-06
- -5.057275757280877e-06
- -6.406803095160285e-06
- 9.870756912278011e-05
- -0.0001014824301819317
- -5.057275757280877e-06
- -0.0001014824301819317
- 0.00026526651345193386
position_covariance_type: 3
---
header:
  stamp:
    sec: 1722525290
    nanosec: 100079760
  frame_id: gps_front
status:
  status: 2
  service: 3
latitude: 42.87846810654316
longitude: -77.03075914064928
altitude: 182.27372588776052
position_covariance:
- 4.3199219362577423e-05
- -6.224284788913792e-06
- -5.109922312840354e-06
- -6.224284788913792e-06
- 9.801556734601036e-05
- -0.00010057834879262373
- -5.109922312840354e-06
- -0.00010057834879262373
- 0.000264378177234903
position_covariance_type: 3
---
header:
  stamp:
    sec: 1722525290
    nanosec: 200285168
  frame_id: gps_front
status:
  status: 2
  service: 3
latitude: 42.878468160171515
longitude: -77.0307598891419
altitude: 182.2803494716063
position_covariance:
- 4.3095467844977975e-05
- -6.069770734029589e-06
- -5.498141490534181e-06
- -6.069770734029589e-06
- 9.783602581592277e-05
- -9.973597479984164e-05
- -5.498141490534181e-06
- -9.973597479984164e-05
- 0.0002643427287694067
position_covariance_type: 3
---
header:
  stamp:
    sec: 1722525290
    nanosec: 300806881
  frame_id: gps_front
status:
  status: 2
  service: 3
latitude: 42.8784681530092
longitude: -77.03076057570142
altitude: 182.2775741321966
position_covariance:
- 4.20918659074232e-05
- -5.986603810015367e-06
- -5.435706498246873e-06
- -5.986603810015367e-06
- 9.538811718812212e-05
- -9.681087249191478e-05
- -5.435706498246873e-06
- -9.681087249191478e-05
- 0.00025812158128246665
position_covariance_type: 3
---
header:
  stamp:
    sec: 1722525290
    nanosec: 400025408
  frame_id: gps_front
status:
  status: 2
  service: 3
latitude: 42.87846809283989
longitude: -77.0307612820392
altitude: 182.28664530068636
position_covariance:
- 4.154926136834547e-05
- -5.996342679281952e-06
- -5.399030214903178e-06
- -5.996342679281952e-06
- 9.517386206425726e-05
- -9.653887536842376e-05
- -5.399030214903178e-06
- -9.653887536842376e-05
- 0.00025519082555547357
position_covariance_type: 3
---
header:
  stamp:
    sec: 1722525290
    nanosec: 500765754
  frame_id: gps_front
status:
  status: 2
  service: 3
latitude: 42.878468037459065
longitude: -77.03076224153547
altitude: 182.28974477015436
position_covariance:
- 4.282670124666765e-05
- -5.935917215538211e-06
- -5.808509740745649e-06
- -5.935917215538211e-06
- 9.87330568023026e-05
- -0.00010032115096691996
- -5.808509740745649e-06
- -0.00010032115096691996
- 0.0002638034929987043
position_covariance_type: 3
---
header:
  stamp:
    sec: 1722525290
    nanosec: 600314501
  frame_id: gps_front
status:
  status: 2
  service: 3
latitude: 42.878467988762615
longitude: -77.03076311223607
altitude: 182.29694291111082
position_covariance:
- 3.7088368117110804e-05
- -5.38249241799349e-06
- -3.890866992151132e-06
- -5.38249241799349e-06
- 8.536031236872077e-05
- -8.789732964942232e-05
- -3.890866992151132e-06
- -8.789732964942232e-05
- 0.0002250413817819208
position_covariance_type: 3
---
header:
  stamp:
    sec: 1722525290
    nanosec: 700078818
  frame_id: gps_front
status:
  status: 2
  service: 3
latitude: 42.87846795726198
longitude: -77.03076400753456
altitude: 182.308729195036
position_covariance:
- 3.119069151580334e-05
- -5.083039013697999e-06
- -2.0208074147376465e-06
- -5.083039013697999e-06
- 7.232638745335862e-05
- -7.495676982216537e-05
- -2.0208074147376465e-06
- -7.495676982216537e-05
- 0.00018471125804353505
position_covariance_type: 3
---
header:
  stamp:
    sec: 1722525290
    nanosec: 800350302
  frame_id: gps_front
status:
  status: 2
  service: 3
latitude: 42.878467912166855
longitude: -77.03076481953956
altitude: 182.31074189115316
position_covariance:
- 3.1053143175086007e-05
- -5.10127119923709e-06
- -2.0141631011938443e-06
- -5.10127119923709e-06
- 7.245490996865556e-05
- -7.480517524527386e-05
- -2.0141631011938443e-06
- -7.480517524527386e-05
- 0.0001834961585700512
position_covariance_type: 3
---
header:
  stamp:
    sec: 1722525290
    nanosec: 900005345
  frame_id: gps_front
status:
  status: 2
  service: 3
latitude: 42.87846789448733
longitude: -77.03076553493888
altitude: 182.3171007828787
position_covariance:
- 3.074090273003094e-05
- -4.992729827790754e-06
- -2.022453827521531e-06
- -4.992729827790754e-06
- 7.155622006393969e-05
- -7.391830149572343e-05
- -2.022453827521531e-06
- -7.391830149572343e-05
- 0.00018170518160331994
position_covariance_type: 3
---
header:
  stamp:
    sec: 1722525291
    nanosec: 557453
  frame_id: gps_front
status:
  status: 2
  service: 3
latitude: 42.87846786888185
longitude: -77.03076634928364
altitude: 182.32348097488284
position_covariance:
- 3.0709696147823706e-05
- -4.988003638572991e-06
- -2.0155273432465037e-06
- -4.988003638572991e-06
- 7.113419269444421e-05
- -7.334829570027068e-05
- -2.0155273432465037e-06
- -7.334829570027068e-05
- 0.00018168649694416672
position_covariance_type: 3
---
header:
  stamp:
    sec: 1722525291
    nanosec: 100352218
  frame_id: gps_front
status:
  status: 2
  service: 3
latitude: 42.87846789373885
longitude: -77.03076728580061
altitude: 182.32170851249248
position_covariance:
- 3.060496237594634e-05
- -5.066917310614372e-06
- -1.8819916931533953e-06
- -5.066917310614372e-06
- 7.040755735943094e-05
- -7.262481813086197e-05
- -1.8819916931533953e-06
- -7.262481813086197e-05
- 0.00018051572260446846
position_covariance_type: 3
---
header:
  stamp:
    sec: 1722525291
    nanosec: 200234283
  frame_id: gps_front
status:
  status: 2
  service: 3
latitude: 42.878467954992395
longitude: -77.03076815867338
altitude: 182.32161850482225
position_covariance:
- 3.0428613172261976e-05
- -5.300082648318494e-06
- -1.5089797216205625e-06
- -5.300082648318494e-06
- 6.921136809978634e-05
- -7.167107833083719e-05
- -1.5089797216205625e-06
- -7.167107833083719e-05
- 0.00017822175868786871
position_covariance_type: 3
---
header:
  stamp:
    sec: 1722525291
    nanosec: 300160479
  frame_id: gps_front
status:
  status: 2
  service: 3
latitude: 42.87846802306916
longitude: -77.0307688430856
altitude: 182.3259463571012
position_covariance:
- 3.0347175197675824e-05
- -5.218159458308946e-06
- -1.6786935930213076e-06
- -5.218159458308946e-06
- 6.926788773853332e-05
- -7.203232235042378e-05
- -1.6786935930213076e-06
- -7.203232235042378e-05
- 0.00017845335241872817
position_covariance_type: 3
---
header:
  stamp:
    sec: 1722525291
    nanosec: 400421106
  frame_id: gps_front
status:
  status: 2
  service: 3
latitude: 42.87846801198846
longitude: -77.03076965158463
altitude: 182.327735921368
position_covariance:
- 2.9820545023540035e-05
- -5.1855472520401236e-06
- -1.5698167317168554e-06
- -5.1855472520401236e-06
- 6.847954500699416e-05
- -7.10799140506424e-05
- -1.5698167317168554e-06
- -7.10799140506424e-05
- 0.0001756154088070616
position_covariance_type: 3
---
header:
  stamp:
    sec: 1722525291
    nanosec: 500531712
  frame_id: gps_front
status:
  status: 2
  service: 3
latitude: 42.87846794300983
longitude: -77.0307705977428
altitude: 182.3374124802649
position_covariance:
- 3.0045783205423504e-05
- -5.183612302062102e-06
- -1.43226463933388e-06
- -5.183612302062102e-06
- 6.937408033991233e-05
- -7.174330676207319e-05
- -1.43226463933388e-06
- -7.174330676207319e-05
- 0.00017709480016492307
position_covariance_type: 3
---
header:
  stamp:
    sec: 1722525291
    nanosec: 600039826
  frame_id: gps_front
status:
  status: 2
  service: 3
latitude: 42.87846799352915
longitude: -77.03077152176266
altitude: 182.33048580493778
position_covariance:
- 3.00690189760644e-05
- -4.970107511326205e-06
- -1.966197942238068e-06
- -4.970107511326205e-06
- 6.964631757000461e-05
- -7.228784670587629e-05
- -1.966197942238068e-06
- -7.228784670587629e-05
- 0.00017804119852371514
position_covariance_type: 3
---
header:
  stamp:
    sec: 1722525291
    nanosec: 699980427
  frame_id: gps_front
status:
  status: 2
  service: 3
latitude: 42.878468008546875
longitude: -77.03077237861501
altitude: 182.33296922128648
position_covariance:
- 2.9909451768617146e-05
- -4.955108579451917e-06
- -1.9650628928502556e-06
- -4.955108579451917e-06
- 6.977972225286067e-05
- -7.225757872220129e-05
- -1.9650628928502556e-06
- -7.225757872220129e-05
- 0.00017702559125609696
position_covariance_type: 3
---
header:
  stamp:
    sec: 1722525291
    nanosec: 800003123
  frame_id: gps_front
status:
  status: 2
  service: 3
latitude: 42.878468016842035
longitude: -77.03077333548545
altitude: 182.3369298512116
position_covariance:
- 2.9729115340160206e-05
- -4.854354301642161e-06
- -1.6609975546089117e-06
- -4.854354301642161e-06
- 6.944602500880137e-05
- -7.159697997849435e-05
- -1.6609975546089117e-06
- -7.159697997849435e-05
- 0.00017553434008732438
position_covariance_type: 3
---
header:
  stamp:
    sec: 1722525291
    nanosec: 900232444
  frame_id: gps_front
status:
  status: 2
  service: 3
latitude: 42.878468040415015
longitude: -77.03077425398745
altitude: 182.3334767362103
position_covariance:
- 2.9758479286101647e-05
- -4.720558990811696e-06
- -1.6732037693145685e-06
- -4.720558990811696e-06
- 6.908529758220538e-05
- -7.130704034352675e-05
- -1.6732037693145685e-06
- -7.130704034352675e-05
- 0.00017600525461602956
position_covariance_type: 3
---
header:
  stamp:
    sec: 1722525292
    nanosec: 170415
  frame_id: gps_front
status:
  status: 2
  service: 3
latitude: 42.87846813176847
longitude: -77.03077479575704
altitude: 182.32880143169314
position_covariance:
- 2.928359572251793e-05
- -4.844788236368913e-06
- -1.5460987015103456e-06
- -4.844788236368913e-06
- 6.801930430810899e-05
- -7.004201324889436e-05
- -1.5460987015103456e-06
- -7.004201324889436e-05
- 0.000172764208400622
position_covariance_type: 3
---
header:
  stamp:
    sec: 1722525292
    nanosec: 99984308
  frame_id: gps_front
status:
  status: 2
  service: 3
latitude: 42.878468170729754
longitude: -77.03077499264751
altitude: 182.33370872586966
position_covariance:
- 4.2792125896085054e-05
- -5.8345972320239525e-06
- -5.496673566085519e-06
- -5.8345972320239525e-06
- 9.855901589617133e-05
- -0.00010194982314715162
- -5.496673566085519e-06
- -0.00010194982314715162
- 0.0002619058941490948
position_covariance_type: 3
---
header:
  stamp:
    sec: 1722525292
    nanosec: 200412366
  frame_id: gps_front
status:
  status: 2
  service: 3
latitude: 42.878468090269216
longitude: -77.03077511600996
altitude: 182.3403225997463
position_covariance:
- 2.7099542421638034e-05
- -6.614210633415496e-06
- 1.238396635017125e-06
- -6.614210633415496e-06
- 6.30504873697646e-05
- -6.516436405945569e-05
- 1.238396635017125e-06
- -6.516436405945569e-05
- 0.00015434685337822884
position_covariance_type: 3
---
header:
  stamp:
    sec: 1722525292
    nanosec: 300347187
  frame_id: gps_front
status:
  status: 2
  service: 3
latitude: 42.87846800035489
longitude: -77.03077528482099
altitude: 182.34424646943808
position_covariance:
- 2.786749610095285e-05
- -7.378636382782133e-06
- 2.115322104145889e-06
- -7.378636382782133e-06
- 6.491251406259835e-05
- -6.715307245030999e-05
- 2.115322104145889e-06
- -6.715307245030999e-05
- 0.00015698741481173784
position_covariance_type: 3
---
header:
  stamp:
    sec: 1722525292
    nanosec: 400182149
  frame_id: gps_front
status:
  status: 2
  service: 3
latitude: 42.87846796792231
longitude: -77.0307753340772
altitude: 182.34526583645493
position_covariance:
- 2.884357854782138e-05
- -8.434019946435e-06
- 3.3146602618217003e-06
- -8.434019946435e-06
- 6.746200961060822e-05
- -7.004820508882403e-05
- 3.3146602618217003e-06
- -7.004820508882403e-05
- 0.00015969638479873538
position_covariance_type: 3
---
header:
  stamp:
    sec: 1722525292
    nanosec: 500064669
  frame_id: gps_front
status:
  status: 2
  service: 3
latitude: 42.87846799154014
longitude: -77.03077515585561
altitude: 182.34655280411243
position_covariance:
- 3.1412164389621466e-05
- -1.138934567279648e-05
- 6.362931344483513e-06
- -1.138934567279648e-05
- 7.473207369912416e-05
- -7.803935295669362e-05
- 6.362931344483513e-06
- -7.803935295669362e-05
- 0.00016958513879217207
position_covariance_type: 3
---
header:
  stamp:
    sec: 1722525292
    nanosec: 600512663
  frame_id: gps_front
status:
  status: 2
  service: 3
latitude: 42.87846803789326
longitude: -77.03077505144715
altitude: 182.346242970787
position_covariance:
- 3.361950075486675e-05
- -1.3442027920973487e-05
- 8.132839866448194e-06
- -1.3442027920973487e-05
- 8.195706323022023e-05
- -8.572021033614874e-05
- 8.132839866448194e-06
- -8.572021033614874e-05
- 0.00018080692098010331
position_covariance_type: 3
---
header:
  stamp:
    sec: 1722525292
    nanosec: 700200820
  frame_id: gps_front
status:
  status: 2
  service: 3
latitude: 42.878468038287835
longitude: -77.03077515820507
altitude: 182.3461217554286
position_covariance:
- 4.4054369936930016e-05
- -1.74555661942577e-05
- 1.0852000741579104e-05
- -1.74555661942577e-05
- 0.00010695837409002706
- -0.00011206178896827623
- 1.0852000741579104e-05
- -0.00011206178896827623
- 0.00023565460287500173
position_covariance_type: 3
---
header:
  stamp:
    sec: 1722525292
    nanosec: 800117851
  frame_id: gps_front
status:
  status: 2
  service: 3
latitude: 42.87846799089126
longitude: -77.03077526100142
altitude: 182.3479897864163
position_covariance:
- 3.9052905776770785e-05
- -1.9343266103533097e-05
- 1.5073252143338323e-05
- -1.9343266103533097e-05
- 9.713843610370532e-05
- -0.00010136496712220833
- 1.5073252143338323e-05
- -0.00010136496712220833
- 0.0001958033535629511
position_covariance_type: 3
---
header:
  stamp:
    sec: 1722525292
    nanosec: 900020753
  frame_id: gps_front
status:
  status: 2
  service: 3
latitude: 42.87846796394895
longitude: -77.0307752094976
altitude: 182.34880623407662
position_covariance:
- 5.2387094910955057e-05
- -2.3394559320877306e-05
- 1.6608591977274045e-05
- -2.3394559320877306e-05
- 0.0001290663640247658
- -0.00013440634938888252
- 1.6608591977274045e-05
- -0.00013440634938888252
- 0.0002765667450148612
position_covariance_type: 3
---
header:
  stamp:
    sec: 1722525293
    nanosec: 755938
  frame_id: gps_front
status:
  status: 2
  service: 3
latitude: 42.87846797686702
longitude: -77.03077518137815
altitude: 182.35017613694072
position_covariance:
- 5.54844482394401e-05
- -2.5491333872196265e-05
- 1.743935172271449e-05
- -2.5491333872196265e-05
- 0.00013774004764854908
- -0.0001441150379832834
- 1.743935172271449e-05
- -0.0001441150379832834
- 0.0002987713960465044
position_covariance_type: 3
---
header:
  stamp:
    sec: 1722525293
    nanosec: 100257000
  frame_id: gps_front
status:
  status: 2
  service: 3
latitude: 42.87846800152243
longitude: -77.03077520334755
altitude: 182.34746937081218
position_covariance:
- 5.007976506021805e-05
- -2.6606014216667973e-05
- 1.9055385564570315e-05
- -2.6606014216667973e-05
- 0.00012696186604443938
- -0.00013309055066201836
- 1.9055385564570315e-05
- -0.00013309055066201836
- 0.00026860114303417504
position_covariance_type: 3
---
header:
  stamp:
    sec: 1722525293
    nanosec: 200450181
  frame_id: gps_front
status:
  status: 2
  service: 3
latitude: 42.878468012893165
longitude: -77.03077519929668
altitude: 182.34638453368098
position_covariance:
- 4.5855642383685336e-05
- -2.767682781268377e-05
- 2.1051249859738164e-05
- -2.767682781268377e-05
- 0.00011850561713799834
- -0.00012384871661197394
- 2.1051249859738164e-05
- -0.00012384871661197394
- 0.00024765156558714807
position_covariance_type: 3
---
header:
  stamp:
    sec: 1722525293
    nanosec: 300239807
  frame_id: gps_front
status:
  status: 2
  service: 3
latitude: 42.878468004610696
longitude: -77.03077520003501
altitude: 182.34470955096185
position_covariance:
- 4.190351319266483e-05
- -2.6433546736370772e-05
- 2.064099498966243e-05
- -2.6433546736370772e-05
- 0.00010778180876513943
- -0.00011259662278462201
- 2.064099498966243e-05
- -0.00011259662278462201
- 0.00022344979515764862
position_covariance_type: 3
---
header:
  stamp:
    sec: 1722525293
    nanosec: 400028628
  frame_id: gps_front
status:
  status: 2
  service: 3
latitude: 42.878467993378834
longitude: -77.0307752085813
altitude: 182.34409315977246
position_covariance:
- 4.2115087126148865e-05
- -2.441799188090954e-05
- 1.835009788919706e-05
- -2.441799188090954e-05
- 0.00010592382022878155
- -0.00011041943071177229
- 1.835009788919706e-05
- -0.00011041943071177229
- 0.00022593267203774303
position_covariance_type: 3
---
header:
  stamp:
    sec: 1722525293
    nanosec: 500257619
  frame_id: gps_front
status:
  status: 2
  service: 3
latitude: 42.87846802326015
longitude: -77.03077520853242
altitude: 182.34078679792583
position_covariance:
- 3.78024487872608e-05
- -2.0670842786785215e-05
- 1.5169413927651476e-05
- -2.0670842786785215e-05
- 9.363421122543514e-05
- -9.758779924595729e-05
- 1.5169413927651476e-05
- -9.758779924595729e-05
- 0.0002015426871366799
position_covariance_type: 3
---
header:
  stamp:
    sec: 1722525293
    nanosec: 600042823
  frame_id: gps_front
status:
  status: 2
  service: 3
latitude: 42.878468024702244
longitude: -77.0307752115005
altitude: 182.34121670015156
position_covariance:
- 4.2318570194765925e-05
- -2.60452270595124e-05
- 2.0649888028856367e-05
- -2.60452270595124e-05
- 0.00010486507380846888
- -0.00010954723984468728
- 2.0649888028856367e-05
- -0.00010954723984468728
- 0.00021732508321292698
position_covariance_type: 3
---
header:
  stamp:
    sec: 1722525293
    nanosec: 700291888
  frame_id: gps_front
status:
  status: 2
  service: 3
latitude: 42.87846801221586
longitude: -77.03077521658662
altitude: 182.3439863640815
position_covariance:
- 4.2962721636286005e-05
- -2.3013282770989463e-05
- 1.8125596398022026e-05
- -2.3013282770989463e-05
- 0.00010177834337810054
- -0.00010624193964758888
- 1.8125596398022026e-05
- -0.00010624193964758888
- 0.00021254872262943536
position_covariance_type: 3
---
header:
  stamp:
    sec: 1722525293
    nanosec: 800370942
  frame_id: gps_front
status:
  status: 2
  service: 3
latitude: 42.87846797146558
longitude: -77.03077518494564
altitude: 182.34855802170932
position_covariance:
- 4.450868800631724e-05
- -2.2431984689319506e-05
- 1.7702983313938603e-05
- -2.2431984689319506e-05
- 0.0001030758285196498
- -0.00010745540930656716
- 1.7702983313938603e-05
- -0.00010745540930656716
- 0.00021405791630968451
position_covariance_type: 3
---
header:
  stamp:
    sec: 1722525293
    nanosec: 900417396
  frame_id: gps_front
status:
  status: 2
  service: 3
latitude: 42.87846795387195
longitude: -77.03077518660865
altitude: 182.3526750197634
position_covariance:
- 4.7288736823247746e-05
- -2.469887476763688e-05
- 1.9772654923144728e-05
- -2.469887476763688e-05
- 0.00010984339314745739
- -0.00011431715392973274
- 1.9772654923144728e-05
- -0.00011431715392973274
- 0.00022407151118386537
position_covariance_type: 3
---
header:
  stamp:
    sec: 1722525294
    nanosec: 380106
  frame_id: gps_front
status:
  status: 2
  service: 3
latitude: 42.87846795482311
longitude: -77.03077516685885
altitude: 182.35409293230623
position_covariance:
- 4.556846397463232e-05
- -2.447833503538277e-05
- 1.96133059944259e-05
- -2.447833503538277e-05
- 0.00010761669545900077
- -0.00011217666178708896
- 1.96133059944259e-05
- -0.00011217666178708896
- 0.00021740549709647894
position_covariance_type: 3
---
header:
  stamp:
    sec: 1722525294
    nanosec: 100345823
  frame_id: gps_front
status:
  status: 2
  service: 3
latitude: 42.87846798457065
longitude: -77.03077518450999
altitude: 182.34948136098683
position_covariance:
- 5.01936228829436e-05
- -3.258495780755766e-05
- 2.76637620117981e-05
- -3.258495780755766e-05
- 0.00012395557132549584
- -0.00012986031651962548
- 2.76637620117981e-05
- -0.00012986031651962548
- 0.00024344812845811248
position_covariance_type: 3
---
header:
  stamp:
    sec: 1722525294
    nanosec: 199994348
  frame_id: gps_front
status:
  status: 2
  service: 3
latitude: 42.878467968892124
longitude: -77.03077516881774
altitude: 182.3502811929211
position_covariance:
- 5.105556556372903e-05
- -3.410863064345904e-05
- 3.016300433955621e-05
- -3.410863064345904e-05
- 0.00012599190813489258
- -0.00013215967919677496
- 3.016300433955621e-05
- -0.00013215967919677496
- 0.00024325550475623459
position_covariance_type: 3
---
header:
  stamp:
    sec: 1722525294
    nanosec: 300518007
  frame_id: gps_front
status:
  status: 2
  service: 3
latitude: 42.87846795688258
longitude: -77.03077513499854
altitude: 182.35267178807408
position_covariance:
- 5.185014015296474e-05
- -3.558564276318066e-05
- 3.183287117280997e-05
- -3.558564276318066e-05
- 0.00012902310118079185
- -0.00013496511382982135
- 3.183287117280997e-05
- -0.00013496511382982135
- 0.0002452012849971652
position_covariance_type: 3
---
header:
  stamp:
    sec: 1722525294
    nanosec: 400380731
  frame_id: gps_front
status:
  status: 2
  service: 3
latitude: 42.87846798791647
longitude: -77.03077513546997
altitude: 182.35165650583804
position_covariance:
- 5.4531465139007196e-05
- -3.902791650034487e-05
- 3.476930214674212e-05
- -3.902791650034487e-05
- 0.00013847668014932424
- -0.0001446194655727595
- 3.476930214674212e-05
- -0.0001446194655727595
- 0.0002598529972601682
position_covariance_type: 3
---
header:
  stamp:
    sec: 1722525294
    nanosec: 500499568
  frame_id: gps_front
status:
  status: 2
  service: 3
latitude: 42.87846803932989
longitude: -77.03077514449646
altitude: 182.34889702126384
position_covariance:
- 6.0436432249844074e-05
- -4.6131204726407304e-05
- 4.1938357753679156e-05
- -4.6131204726407304e-05
- 0.00015574158169329166
- -0.0001636500091990456
- 4.1938357753679156e-05
- -0.0001636500091990456
- 0.0002914076903834939
position_covariance_type: 3
---
header:
  stamp:
    sec: 1722525294
    nanosec: 600326134
  frame_id: gps_front
status:
  status: 2
  service: 3
latitude: 42.87846808234151
longitude: -77.03077514066598
altitude: 182.347922408022
position_covariance:
- 5.624951882055029e-05
- -3.33801144734025e-05
- 2.311944444954861e-05
- -3.33801144734025e-05
- 0.00013311178190633655
- -0.00013107714767102152
- 2.311944444954861e-05
- -0.00013107714767102152
- 0.00025653018383309245
position_covariance_type: 3
---
header:
  stamp:
    sec: 1722525294
    nanosec: 700321503
  frame_id: gps_front
status:
  status: 2
  service: 3
latitude: 42.8784681133179
longitude: -77.03077514348578
altitude: 182.34804872889072
position_covariance:
- 5.209226583247073e-05
- -3.263567487010732e-05
- 2.3851149308029562e-05
- -3.263567487010732e-05
- 0.0001277734845643863
- -0.00012768179294653237
- 2.3851149308029562e-05
- -0.00012768179294653237
- 0.00024483678862452507
position_covariance_type: 3
---
header:
  stamp:
    sec: 1722525294
    nanosec: 800036815
  frame_id: gps_front
status:
  status: 2
  service: 3
latitude: 42.878468102466755
longitude: -77.03077513433715
altitude: 182.35009238310158
position_covariance:
- 4.672805152949877e-05
- -3.0660201446153224e-05
- 2.3559254259453155e-05
- -3.0660201446153224e-05
- 0.00011865868873428553
- -0.00012014692038064823
- 2.3559254259453155e-05
- -0.00012014692038064823
- 0.00022628431906923652
position_covariance_type: 3
---
header:
  stamp:
    sec: 1722525294
    nanosec: 900380016
  frame_id: gps_front
status:
  status: 2
  service: 3
latitude: 42.87846808580651
longitude: -77.03077516211938
altitude: 182.35039164312184
position_covariance:
- 4.9348647735314444e-05
- -3.138974352623336e-05
- 2.3065971618052572e-05
- -3.138974352623336e-05
- 0.00012220720236655325
- -0.00012260390212759376
- 2.3065971618052572e-05
- -0.00012260390212759376
- 0.00023542229610029608
position_covariance_type: 3
---
header:
  stamp:
    sec: 1722525295
    nanosec: 665109
  frame_id: gps_front
status:
  status: 2
  service: 3
latitude: 42.878468050974305
longitude: -77.03077516964295
altitude: 182.35180295165628
position_covariance:
- 5.3184008720563725e-05
- -3.267026841058396e-05
- 2.250927900604438e-05
- -3.267026841058396e-05
- 0.00012748318840749562
- -0.00012604815128725022
- 2.250927900604438e-05
- -0.00012604815128725022
- 0.0002480523835401982
position_covariance_type: 3
---
header:
  stamp:
    sec: 1722525295
    nanosec: 100493552
  frame_id: gps_front
status:
  status: 2
  service: 3
latitude: 42.87846803841237
longitude: -77.0307751266736
altitude: 182.35102643165737
position_covariance:
- 4.818520392291248e-05
- -3.0778621294302866e-05
- 2.226212018285878e-05
- -3.0778621294302866e-05
- 0.00011792701843660325
- -0.00011804956011474133
- 2.226212018285878e-05
- -0.00011804956011474133
- 0.00022982370865065604
position_covariance_type: 3
---
header:
  stamp:
    sec: 1722525295
    nanosec: 200135535
  frame_id: gps_front
status:
  status: 2
  service: 3
latitude: 42.87846805926333
longitude: -77.03077508459486
altitude: 182.35063758213073
position_covariance:
- 5.235811113379896e-05
- -3.141783963656053e-05
- 2.0822206352022476e-05
- -3.141783963656053e-05
- 0.0001233509974554181
- -0.00012108098599128425
- 2.0822206352022476e-05
- -0.00012108098599128425
- 0.00024285107792820781
position_covariance_type: 3
---
header:
  stamp:
    sec: 1722525295
    nanosec: 300350453
  frame_id: gps_front
status:
  status: 2
  service: 3
latitude: 42.87846806745972
longitude: -77.03077508488732
altitude: 182.34980008006096
position_covariance:
- 4.937236735713668e-05
- -2.9644337701029144e-05
- 1.9926685126847588e-05
- -2.9644337701029144e-05
- 0.00011671570973703638
- -0.00011421633826103061
- 1.9926685126847588e-05
- -0.00011421633826103061
- 0.00022871042892802507
position_covariance_type: 3
---
header:
  stamp:
    sec: 1722525295
    nanosec: 400359360
  frame_id: gps_front
status:
  status: 2
  service: 3
latitude: 42.87846806626664
longitude: -77.03077510124248
altitude: 182.34850801434368
position_covariance:
- 4.590803291648626e-05
- -2.7361245884094387e-05
- 1.8777325749397278e-05
- -2.7361245884094387e-05
- 0.00010917313920799643
- -0.0001068724668584764
- 1.8777325749397278e-05
- -0.0001068724668584764
- 0.00021276988263707608
position_covariance_type: 3
---
header:
  stamp:
    sec: 1722525295
    nanosec: 500265964
  frame_id: gps_front
status:
  status: 2
  service: 3
latitude: 42.878468069677254
longitude: -77.03077508873936
altitude: 182.34713882673532
position_covariance:
- 4.345545676187612e-05
- -2.521447095205076e-05
- 1.6782945749582723e-05
- -2.521447095205076e-05
- 0.00010353184188716114
- -0.00010111855954164639
- 1.6782945749582723e-05
- -0.00010111855954164639
- 0.00020126356685068458
position_covariance_type: 3
---
header:
  stamp:
    sec: 1722525295
    nanosec: 600060973
  frame_id: gps_front
status:
  status: 2
  service: 3
latitude: 42.87846806604009
longitude: -77.03077510060761
altitude: 182.3481893632561
position_covariance:
- 4.070220893481746e-05
- -2.2373829779098742e-05
- 1.3507647963706404e-05
- -2.2373829779098742e-05
- 9.69570828601718e-05
- -9.366325684823096e-05
- 1.3507647963706404e-05
- -9.366325684823096e-05
- 0.0001881550851976499
position_covariance_type: 3
---
header:
  stamp:
    sec: 1722525295
    nanosec: 700194073
  frame_id: gps_front
status:
  status: 2
  service: 3
latitude: 42.8784680623073
longitude: -77.0307750996035
altitude: 182.34934433177114
position_covariance:
- 4.085970431333408e-05
- -2.0531329937512055e-05
- 1.1352375622664113e-05
- -2.0531329937512055e-05
- 9.495332051301375e-05
- -9.062777826329693e-05
- 1.1352375622664113e-05
- -9.062777826329693e-05
- 0.00018389955221209675
position_covariance_type: 3
---
header:
  stamp:
    sec: 1722525295
    nanosec: 800172898
  frame_id: gps_front
status:
  status: 2
  service: 3
latitude: 42.87846805995492
longitude: -77.03077509249675
altitude: 182.34987041912973
position_covariance:
- 4.080188227817416e-05
- -1.9257719031884335e-05
- 9.921626769937575e-06
- -1.9257719031884335e-05
- 9.316135401604697e-05
- -8.798504859441891e-05
- 9.921626769937575e-06
- -8.798504859441891e-05
- 0.0001800457393983379
position_covariance_type: 3
---
header:
  stamp:
    sec: 1722525295
    nanosec: 900139897
  frame_id: gps_front
status:
  status: 2
  service: 3
latitude: 42.8784680526795
longitude: -77.03077510128281
altitude: 182.35065559204668
position_covariance:
- 4.0401428123004735e-05
- -1.8293118046130985e-05
- 8.746023013372906e-06
- -1.8293118046130985e-05
- 9.119519381783903e-05
- -8.519468974554911e-05
- 8.746023013372906e-06
- -8.519468974554911e-05
- 0.00017624623433221132
position_covariance_type: 3
---
header:
  stamp:
    sec: 1722525296
    nanosec: 300534
  frame_id: gps_front
status:
  status: 2
  service: 3
latitude: 42.878468042645125
longitude: -77.03077511016511
altitude: 182.35307979304343
position_covariance:
- 3.980803012382239e-05
- -1.7455693523515947e-05
- 7.404661573673366e-06
- -1.7455693523515947e-05
- 8.894186612451449e-05
- -8.242377953138202e-05
- 7.404661573673366e-06
- -8.242377953138202e-05
- 0.00017288728849962354
position_covariance_type: 3
---
header:
  stamp:
    sec: 1722525296
    nanosec: 100186907
  frame_id: gps_front
status:
  status: 2
  service: 3
latitude: 42.878468040193404
longitude: -77.03077511469101
altitude: 182.3522655935958
position_covariance:
- 3.911051680915989e-05
- -1.6915728338062763e-05
- 6.364937235048274e-06
- -1.6915728338062763e-05
- 8.659099694341421e-05
- -7.985618140082806e-05
- 6.364937235048274e-06
- -7.985618140082806e-05
- 0.00016984286776278168
position_covariance_type: 3
---
header:
  stamp:
    sec: 1722525296
    nanosec: 200365242
  frame_id: gps_front
status:
  status: 2
  service: 3
latitude: 42.87846804384488
longitude: -77.03077510902692
altitude: 182.35095333959907
position_covariance:
- 3.81324534828309e-05
- -1.6807343854452483e-05
- 6.0542129176610615e-06
- -1.6807343854452483e-05
- 8.421457459917292e-05
- -7.743116293568164e-05
- 6.0542129176610615e-06
- -7.743116293568164e-05
- 0.0001665702002355829
position_covariance_type: 3
---
header:
  stamp:
    sec: 1722525296
    nanosec: 300375566
  frame_id: gps_front
status:
  status: 2
  service: 3
latitude: 42.8784680351861
longitude: -77.03077509684385
altitude: 182.35328875482082
position_covariance:
- 3.7907280784565955e-05
- -1.664062074269168e-05
- 5.9527460507524665e-06
- -1.664062074269168e-05
- 8.382608939427882e-05
- -7.681598071940243e-05
- 5.9527460507524665e-06
- -7.681598071940243e-05
- 0.00016546227561775595
position_covariance_type: 3
---
header:
  stamp:
    sec: 1722525296
    nanosec: 400338758
  frame_id: gps_front
status:
  status: 2
  service: 3
latitude: 42.87846803561119
longitude: -77.03077509002783
