header:
  stamp:
    sec: 1722525265
    nanosec: 828889271
  frame_id: map
child_frame_id: base_link
pose:
  pose:
    position:
      x: 1.1084319689493958
      y: -0.3263969188006346
      z: 3.3765018787556683e-23
    orientation:
      x: 3.806979188380082e-10
      y: -5.872834262287042e-12
      z: 0.9998812306883922
      w: 0.015411830425563116
  covariance:
  - 0.04830094315172599
  - -3.4661311357047904e-05
  - -1.1053456478509694e-20
  - -1.075171134360148e-22
  - 7.168827752094533e-18
  - 4.774266916552607e-07
  - -3.4661311357047904e-05
  - 0.04786993667981294
  - 3.4120938809089794e-22
  - -4.139420079771665e-21
  - -2.515462829126476e-17
  - -1.6788567294417111e-06
  - -1.1053456478509692e-20
  - 3.4120938809089794e-22
  - 9.998666584879508e-07
  - 2.0731738807870878e-22
  - -5.990754802396425e-22
  - -2.5682049707666805e-22
  - -1.0751711343601494e-22
  - -4.1394200797716636e-21
  - 2.073173880787088e-22
  - 9.772624721757307e-09
  - 5.014787167527907e-19
  - 3.15867688956895e-14
  - 7.168827752094524e-18
  - -2.5154628291264748e-17
  - -5.990754802396424e-22
  - 5.014787168491299e-19
  - 9.77257261808557e-09
  - 4.155532193758245e-09
  - 4.77426691655261e-07
  - -1.6788567294417111e-06
  - -2.568204970766682e-22
  - 3.1586768895689625e-14
  - 4.155532193758248e-09
  - 253.21306390171176
twist:
  twist:
    linear:
      x: 1.2975844447673787e-08
      y: 4.4902792928336485e-09
      z: -3.3697649149854864e-28
    angular:
      x: 3.2851197438935593e-20
      y: 2.5543704604240897e-15
      z: -0.00064419127526662
  covariance:
  - 0.0008484638393162522
  - -9.193610501663537e-15
  - -1.5531567436249432e-24
  - -2.919340589355724e-31
  - -4.2176955966392036e-27
  - -1.6201751132797332e-23
  - -9.193610501663515e-15
  - 0.0008484638392206784
  - 1.9473230312995121e-29
  - 8.877275239081224e-31
  - 1.5516534972911252e-26
  - 5.995535598840774e-23
  - -1.5531567436249423e-24
  - 1.9473230312995124e-29
  - 9.989352546353195e-07
  - 6.643609843665667e-33
  - -1.9197703782379208e-32
  - 2.5842257790004227e-27
  - -2.9193405893557325e-31
  - 8.877275239081294e-31
  - 6.64360984366567e-33
  - 9.996445805607865e-07
  - 5.579111637175894e-30
  - 7.087930629038703e-19
  - -4.2176955966391936e-27
  - 1.5516534972911264e-26
  - -1.9197703782379213e-32
  - 5.579111638241936e-30
  - 9.996445805607865e-07
  - -1.3922606710030095e-14
  - -1.620175113279729e-23
  - 5.995535598840779e-23
  - 2.5842257790004234e-27
  - 7.087930629038706e-19
  - -1.3922606710030098e-14
  - 0.012095939811799386
---
header:
  stamp:
    sec: 1722525265
    nanosec: 858711951
  frame_id: map
child_frame_id: base_link
pose:
  pose:
    position:
      x: 1.1083381081027797
      y: -0.32649144152481935
      z: -6.452711249181992e-20
    orientation:
      x: 3.3017033973104437e-10
      y: -5.09425335164421e-12
      z: 0.999881178305379
      w: 0.015415228530477635
  covariance:
  - 0.014939549693570755
  - -3.0948419367008224e-05
  - -1.6956197295414288e-18
  - 5.228101638839767e-23
  - 2.440549726307856e-18
  - 1.5426500455687998e-07
  - -3.0948419367008224e-05
  - 0.014470304594981945
  - -3.1316367912039724e-17
  - 1.2329001210320885e-21
  - -6.42752662515893e-18
  - -4.043897076060033e-07
  - -1.6956197295414286e-18
  - -3.1316367912039687e-17
  - 9.998674811307008e-07
  - 2.3775672539106593e-22
  - -6.144452741593837e-22
  - 8.219474766601439e-22
  - 5.228101638839752e-23
  - 1.2329001210320857e-21
  - 2.3775672539106584e-22
  - 9.648256049208126e-09
  - 1.0442522815056764e-18
  - -2.553160982249511e-14
  - 2.4405497263078537e-18
  - -6.427526625158925e-18
  - -6.144452741593837e-22
  - 1.0442522815891918e-18
  - 9.648207385108098e-09
  - 4.03988877424252e-09
  - 1.5426500455688e-07
  - -4.043897076060033e-07
  - 8.21947476660144e-22
  - -2.5531609822495028e-14
  - 4.0398887742425265e-09
  - 253.2279825611804
twist:
  twist:
    linear:
      x: 1.3437150702379339e-08
      y: 5.1949293517714645e-09
      z: 2.6307965743657438e-23
    angular:
      x: 2.6743691703087102e-20
      y: 2.2007206322573096e-15
      z: -0.000120759725419622
  covariance:
  - 0.0008490743844430614
  - -9.319197325987334e-15
  - -1.1279919421878238e-24
  - -2.2331467738552528e-31
  - -4.1764069081732826e-27
  - 6.593966163282162e-21
  - -9.319197325987256e-15
  - 0.0008490743843315423
  - -1.0549804773232704e-25
  - 7.91293200659066e-31
  - 1.52608660864136e-26
  - -1.931644689070701e-20
  - -1.1279919421878242e-24
  - -1.0549804773232709e-25
  - 9.989418113348057e-07
  - 7.616797531106683e-33
  - -1.9684150496812476e-32
  - 4.842277543024896e-28
  - -2.2331467738552637e-31
  - 7.912932006590728e-31
  - 7.61679753110668e-33
  - 9.99646772331504e-07
  - 1.1594928661540215e-29
  - 4.67764639865346e-19
  - -4.176406908173274e-27
  - 1.5260866086413594e-26
  - -1.968415049681247e-32
  - 1.1594928662466664e-29
  - 9.99646772331504e-07
  - -2.514796533157686e-15
  - 6.5939661632821616e-21
  - -1.9316446890707027e-20
  - 4.842277543024898e-28
  - 4.677646398653459e-19
  - -2.514796533157688e-15
  - 0.012837651603445712
---
header:
  stamp:
    sec: 1722525265
    nanosec: 929107440
  frame_id: map
child_frame_id: base_link
pose:
  pose:
    position:
      x: 1.108338101333651
      y: -0.3264914439030023
      z: 6.174443325154299e-23
    orientation:
      x: 3.937153345541933e-09
      y: -6.05051427302369e-11
      z: 0.9998821009299433
      w: 0.015355267497594253
  covariance:
  - 0.050143515677883145
  - -3.0948671438727604e-05
  - -1.3032774769195795e-19
  - 1.2866968390685143e-21
  - 2.0054344270251873e-17
  - 1.1584357791557006e-06
  - -3.0948671438727604e-05
  - 0.04967426676005635
  - 4.023048654959836e-21
  - -2.28682420473537e-21
  - -5.659937738233782e-17
  - -3.2635147228022363e-06
  - -1.303277476919579e-19
  - 4.023048654959836e-21
  - 9.99955934085133e-07
  - 1.1902344746446674e-21
  - -3.0829992391432193e-21
  - -1.1719751900629681e-21
  - 1.2866968390685115e-21
  - -2.286824204735367e-21
  - 1.1902344746446674e-21
  - 1.1070899601724129e-08
  - -3.899764241634705e-18
  - 2.634530452433767e-13
  - 2.0054344270251845e-17
  - -5.659937738233777e-17
  - -3.0829992391432197e-21
  - -3.899764241528001e-18
  - 1.1070723208025043e-08
  - 6.172720997286687e-09
  - 1.1584357791557008e-06
  - -3.263514722802236e-06
  - -1.1719751900629695e-21
  - 2.634530452433772e-13
  - 6.172720997286692e-09
  - 253.2631977191556
twist:
  twist:
    linear:
      x: 1.4366493669255422e-08
      y: 5.547680618272637e-09
      z: -6.169670224800053e-28
    angular:
      x: 2.793446134773189e-19
      y: -3.040585148478798e-11
      z: 0.0014651592207808152
  covariance:
  - 0.0009589554324459383
  - -1.062523954529602e-14
  - -2.8253214967820468e-24
  - -5.61880942832931e-31
  - -4.3044346759350584e-27
  - -3.5135377301974336e-23
  - -1.0625239545295932e-14
  - 0.0009589554323193906
  - 1.6057869707072673e-28
  - 2.025940441566659e-30
  - 1.5744714554398302e-26
  - 1.285093741225712e-22
  - -2.825321496782047e-24
  - 1.6057869707072673e-28
  - 9.996476900345794e-07
  - 3.917802115782841e-32
  - -1.0145749314394244e-31
  - -8.278880047231776e-28
  - -5.6188094283293144e-31
  - 2.0259404415666663e-30
  - 3.917802115782841e-32
  - 9.998825081338458e-07
  - 1.921975614748822e-26
  - 1.4598751949076827e-22
  - -4.3044346759350505e-27
  - 1.5744714554398305e-26
  - -1.0145749314394246e-31
  - 1.921975614748939e-26
  - 9.998825081315377e-07
  - 1.1252179658383361e-10
  - -3.5135377301974266e-23
  - 1.2850937412257125e-22
  - -8.278880047231772e-28
  - 1.4598751949077777e-22
  - 1.1252179658383361e-10
  - 0.014505108146089726
---
header:
  stamp:
    sec: 1722525265
    nanosec: 981893230
  frame_id: map
child_frame_id: base_link
pose:
  pose:
    position:
      x: 1.1077450300920602
      y: -0.3264843091642084
      z: 5.25347955919016e-22
    orientation:
      x: 4.1021393085069056e-09
      y: -6.309195273455425e-11
      z: 0.9998822951968108
      w: 0.015342612292492428
  covariance:
  - 0.026422846670474925
  - -1.9057651543161956e-05
  - -8.008705930166363e-20
  - 1.5986427733313968e-22
  - 6.046440515681273e-18
  - 2.565778993545355e-07
  - -1.9057651543161946e-05
  - 0.025913811659313092
  - 2.4619996025704525e-21
  - -1.426137342629607e-20
  - -4.159353331627994e-17
  - -1.7698334721880318e-06
  - -8.008705930166363e-20
  - 2.4619996025704518e-21
  - 9.998501233168576e-07
  - 2.2619874076172206e-22
  - -9.12955431189319e-22
  - -5.257687013813352e-22
  - 1.5986427733313928e-22
  - -1.4261373426296058e-20
  - 2.2619874076172196e-22
  - 1.0816148902486533e-08
  - -1.3252129812830423e-17
  - 3.885888696215025e-13
  - 6.046440515681267e-18
  - -4.159353331627988e-17
  - -9.129554311893192e-22
  - -1.3252129812720983e-17
  - 1.0815979974815835e-08
  - 6.214678927661863e-09
  - 2.565778993545356e-07
  - -1.769833472188032e-06
  - -5.257687013813357e-22
  - 3.885888696215031e-13
  - 6.214678927661869e-09
  - 253.289603095255
twist:
  twist:
    linear:
      x: 1.9254878202067085e-08
      y: 4.771877734408001e-09
      z: -5.2391855753997445e-27
    angular:
      x: 9.796576156538758e-19
      y: 2.734033543168032e-14
      z: 7.695266486327251e-05
  covariance:
  - 0.0008345984295592378
  - -7.452980864648154e-15
  - -1.4699740116211646e-23
  - -6.518560754129123e-31
  - -4.213227076779705e-27
  - 3.4816950518912934e-23
  - -7.452980864648046e-15
  - 0.000834598429407469
  - 5.204098549674815e-28
  - 1.7787992513484622e-30
  - 1.4525125995384836e-26
  - -8.099591788270994e-23
  - -1.4699740116211646e-23
  - 5.2040985496748145e-28
  - 9.988034955925183e-07
  - 7.240898001111984e-33
  - -2.9224923602822723e-32
  - 1.1207963832799467e-27
  - -6.518560754129124e-31
  - 1.778799251348468e-30
  - 7.240898001111985e-33
  - 9.99600528348799e-07
  - -1.4713076894061018e-28
  - 3.946895154154132e-18
  - -4.2132270767796995e-27
  - 1.4525125995384847e-26
  - -2.922492360282274e-32
  - -1.4713076893939421e-28
  - 9.996005283487988e-07
  - -4.405394686652242e-15
  - 3.481695051891297e-23
  - -8.09959178827098e-23
  - 1.1207963832799474e-27
  - 3.946895154154132e-18
  - -4.405394686652243e-15
  - 0.012254497849253875
---
header:
  stamp:
    sec: 1722525266
    nanosec: 18676271
  frame_id: map
child_frame_id: base_link
pose:
  pose:
    position:
      x: 1.107745028067215
      y: -0.32648430960161945
      z: 1.0877627096124392e-21
    orientation:
      x: 6.031491337684565e-09
      y: -9.28731605869257e-11
      z: 0.9998831867000295
      w: 0.015284402330284476
  covariance:
  - 0.04481492500734147
  - -1.9057700366851686e-05
  - -2.04167831606832e-19
  - 1.1021329632847336e-21
  - 1.0160538199626655e-17
  - 4.3830113209457793e-07
  - -1.9057700366851686e-05
  - 0.04430588869087049
  - 6.272320957515834e-21
  - -1.895068484419043e-20
  - -6.01014623066758e-17
  - -2.61259471199618e-06
  - -2.0416783160683196e-19
  - 6.272320957515834e-21
  - 9.998981525601742e-07
  - 2.927520229370284e-22
  - -1.1810419202135125e-21
  - -6.962953770659369e-22
  - 1.1021329632847317e-21
  - -1.8950684844190416e-20
  - 2.9275202293702827e-22
  - 1.072202361817389e-08
  - -2.6108789761804312e-17
  - 7.616469878632726e-13
  - 1.016053819962664e-17
  - -6.010146230667573e-17
  - -1.1810419202135118e-21
  - -2.6108789761646743e-17
  - 1.0721857565387442e-08
  - 6.270691775848285e-09
  - 4.38301132094578e-07
  - -2.6125947119961804e-06
  - -6.962953770659382e-22
  - 7.616469878632738e-13
  - 6.270691775848294e-09
  - 253.307998564419
twist:
  twist:
    linear:
      x: 1.9642075476304618e-08
      y: 4.869615415917294e-09
      z: -1.0845124065362927e-26
    angular:
      x: 4.4931210909323095e-18
      y: -7.198384792262562e-14
      z: 0.0022131271599968704
  covariance:
  - 0.0008763666845666877
  - -7.758558815020442e-15
  - -1.627550108528237e-23
  - -9.196395848928228e-31
  - -4.116083282040131e-27
  - -1.5154625434396088e-23
  - -7.758558815020335e-15
  - 0.0008763666844088608
  - 1.2684563788024429e-27
  - 2.7133647123051476e-30
  - 1.4190927378773953e-26
  - 5.225020815699616e-23
  - -1.6275501085282365e-23
  - 1.268456378802443e-27
  - 9.991863795935972e-07
  - 9.483404832559801e-33
  - -3.825915314281478e-32
  - 6.677441492151044e-27
  - -9.196395848928212e-31
  - 2.7133647123051535e-30
  - 9.483404832559803e-33
  - 9.997284989490208e-07
  - -7.328052962580895e-30
  - 6.131080875669339e-19
  - -4.1160832820401254e-27
  - 1.4190927378773953e-26
  - -3.825915314281478e-32
  - -7.328052960742705e-30
  - 9.997284989490208e-07
  - 1.3481546846433197e-13
  - -1.5154625434396064e-23
  - 5.225020815699615e-23
  - 6.677441492151042e-27
  - 6.131080875669337e-19
  - 1.3481546846433194e-13
  - 0.010890072859692405
---
header:
  stamp:
    sec: 1722525266
    nanosec: 76987725
  frame_id: map
child_frame_id: base_link
pose:
  pose:
    position:
      x: 1.1074208964442194
      y: -0.3263775301873248
      z: 1.4902022906912536e-20
    orientation:
      x: 5.922290627903941e-09
      y: -9.133217002399985e-11
      z: 0.9998835682183298
      w: 0.015259423546800136
  covariance:
  - 0.029186926572073044
  - 1.023657834995454e-06
  - -3.490073640934696e-19
  - 1.4164064565475314e-21
  - 8.089903922973855e-18
  - 3.373675390944443e-07
  - 1.0236578349954558e-06
  - 0.028632147228659918
  - -5.0385386411646286e-18
  - -9.950786359900122e-21
  - -5.4761308006996066e-17
  - -2.2825712721302575e-06
  - -3.4900736409346984e-19
  - -5.038538641164626e-18
  - 9.999539904299195e-07
  - 4.74639445551295e-22
  - -2.5011196378023347e-21
  - -1.1390584007979146e-21
  - 1.4164064565475288e-21
  - -9.950786359900104e-21
  - 4.746394455512948e-22
  - 1.1338818308368002e-08
  - -3.6109101792998905e-17
  - 8.858267624151936e-13
  - 8.08990392297384e-18
  - -5.476130800699598e-17
  - -2.501119637802335e-21
  - -3.6109101792818675e-17
  - 1.133866533632349e-08
  - 6.133319688543326e-09
  - 3.373675390944443e-07
  - -2.2825712721302575e-06
  - -1.1390584007979165e-21
  - 8.858267624151963e-13
  - 6.1333196885433355e-09
  - 253.337177735574
twist:
  twist:
    linear:
      x: 2.2477221014511055e-08
      y: 4.269747922358575e-09
      z: -5.1177791976665176e-24
    angular:
      x: 6.3364365662179754e-18
      y: 3.947777300446239e-14
      z: 0.00024833651410300066
  covariance:
  - 0.0009367165204328974
  - -6.67713084995285e-15
  - -1.0079931837564954e-23
  - -1.23854766533252e-30
  - -4.3099911641019706e-27
  - 9.157427688036734e-24
  - -6.6771308499527255e-15
  - 0.0009367165203068818
  - -1.3535501942420915e-26
  - 4.151258594243922e-30
  - 1.5293891863750202e-26
  - -3.97227902588671e-23
  - -1.0079931837564952e-23
  - -1.353550194242092e-26
  - 9.996321603751095e-07
  - 1.562206317109247e-32
  - -8.232128259968614e-32
  - 1.5208811145873134e-27
  - -1.2385476653325177e-30
  - 4.151258594243929e-30
  - 1.5622063171092466e-32
  - 9.998773266089086e-07
  - -4.0102497068024883e-28
  - 9.056392675918486e-18
  - -4.309991164101961e-27
  - 1.5293891863750188e-26
  - -8.232128259968617e-32
  - -4.0102497067823674e-28
  - 9.998773266089083e-07
  - -2.149648521037364e-15
  - 9.157427688036748e-24
  - -3.972279025886713e-23
  - 1.5208811145873132e-27
  - 9.056392675918483e-18
  - -2.1496485210373655e-15
  - 0.017433342047833665
---
header:
  stamp:
    sec: 1722525266
    nanosec: 131173766
  frame_id: map
child_frame_id: base_link
pose:
  pose:
    position:
      x: 1.1074208910889718
      y: -0.32637753103724093
      z: 9.177987763020032e-23
    orientation:
      x: 5.597096064014513e-10
      y: -8.824374268885751e-12
      z: 0.999882480586161
      w: 0.015330525655221037
  covariance:
  - 0.056281433264335025
  - 1.023661758801907e-06
  - -4.286169392893744e-20
  - 9.711560240054041e-22
  - 1.5045594045616165e-17
  - 6.294303406009969e-07
  - 1.0236617588019083e-06
  - 0.055726652008030904
  - 1.3218477948933273e-21
  - -6.784136693972156e-21
  - -9.843505833629144e-17
  - -4.123343991514832e-06
  - -4.286169392893742e-20
  - 1.3218477948933275e-21
  - 9.999096762016818e-07
  - 2.796370125991125e-22
  - -1.470244689306597e-21
  - -9.095958552202245e-22
  - 9.711560240054028e-22
  - -6.784136693972156e-21
  - 2.796370125991124e-22
  - 1.1760179669365272e-08
  - -3.0476027415207244e-17
  - 1.79677350283238e-13
  - 1.504559404561613e-17
  - -9.843505833629123e-17
  - -1.4702446893065981e-21
  - -3.0476027414939204e-17
  - 1.1759950134133502e-08
  - 7.163960056415606e-09
  - 6.294303406009969e-07
  - -4.123343991514832e-06
  - -9.095958552202252e-22
  - 1.7967735028323944e-13
  - 7.163960056415616e-09
  - 253.3642823486742
twist:
  twist:
    linear:
      x: 2.042303304514078e-08
      y: 3.883648027072335e-09
      z: -9.258741112201001e-28
    angular:
      x: 1.6170599682682174e-18
      y: 3.474138544120996e-14
      z: -0.0013017551322086296
  covariance:
  - 0.000887904148544414
  - -5.524054108643819e-15
  - -2.7870070432353917e-24
  - -7.501150076694311e-31
  - -3.7368629042373696e-27
  - -2.714754316467984e-23
  - -5.524054108643716e-15
  - 0.0008879041484403524
  - 6.914837862023557e-28
  - 2.4493796891292224e-30
  - 1.325871079455082e-26
  - 9.632165191347066e-23
  - -2.7870070432353914e-24
  - 6.914837862023557e-28
  - 9.992783219752343e-07
  - 9.116734353022047e-33
  - -4.7933100403085743e-32
  - 1.4990360211427146e-26
  - -7.5011500766943036e-31
  - 2.4493796891292284e-30
  - 9.116734353022043e-33
  - 9.997592090097905e-07
  - -2.414958513260938e-28
  - 1.8363294439040516e-18
  - -3.736862904237362e-27
  - 1.3258710794550807e-26
  - -4.7933100403085776e-32
  - -2.4149585132312518e-28
  - 9.997592090097905e-07
  - -3.591293813055529e-15
  - -2.714754316467977e-23
  - 9.63216519134705e-23
  - 1.499036021142715e-26
  - 1.8363294439040516e-18
  - -3.591293813055529e-15
  - 0.0134138834111364
---
header:
  stamp:
    sec: 1722525266
    nanosec: 179229669
  frame_id: map
child_frame_id: base_link
pose:
  pose:
    position:
      x: 1.1081590026934844
      y: -0.32559691481363023
      z: 5.970530897485676e-23
    orientation:
      x: 3.4148307181603364e-10
      y: -5.4703731523103514e-12
      z: 0.9998823348875289
      w: 0.015340025419263804
  covariance:
  - 0.024057219779367388
  - 2.8198932427887305e-05
  - -8.102116845640739e-21
  - 1.020996151684795e-21
  - -1.2312517292204975e-17
  - -4.5823557535105613e-07
  - 2.8198932427887312e-05
  - 0.023405192196919233
  - -2.2039775317565912e-21
  - -1.7426664173608452e-20
  - -1.3603745482266878e-17
  - -4.972611244502732e-07
  - -8.10211684564074e-21
  - -2.2039775317565897e-21
  - 9.998749428109736e-07
  - -3.41450872668283e-22
  - -5.981451206981342e-22
  - -3.5807654199229426e-22
  - 1.0209961516847967e-21
  - -1.742666417360844e-20
  - -3.41450872668283e-22
  - 1.164454898517005e-08
  - -2.052332211956644e-17
  - -6.930222942526496e-14
  - -1.2312517292204959e-17
  - -1.3603745482266867e-17
  - -5.981451206981341e-22
  - -2.0523322119321693e-17
  - 1.1644341620710288e-08
  - 6.918889922786288e-09
  - -4.5823557535105613e-07
  - -4.972611244502733e-07
  - -3.5807654199229473e-22
  - -6.930222942526388e-14
  - 6.918889922786297e-09
  - 253.3883250875654
twist:
  twist:
    linear:
      x: 1.0476249280637895e-08
      y: -5.972558320763398e-09
      z: -1.0618048802829326e-25
    angular:
      x: 1.5415100164760125e-18
      y: 2.2760957069384036e-15
      z: -0.0001096604744167732
  covariance:
  - 0.0008552012450017371
  - 1.9690533821241004e-15
  - -1.1160236129858713e-24
  - -5.169958606925572e-31
  - -3.9468302365859575e-27
  - 1.6631052683304406e-23
  - 1.969053382124186e-15
  - 0.0008552012448223858
  - 6.533841691708845e-28
  - 1.2140721199997658e-30
  - 1.5316446941733306e-26
  - -1.0077307688557516e-22
  - -1.1160236129858717e-24
  - 6.533841691708845e-28
  - 9.990012901461768e-07
  - -1.102891169848877e-32
  - -1.931980415879405e-32
  - 4.856709580005027e-28
  - -5.16995860692557e-31
  - 1.214072119999774e-30
  - -1.102891169848876e-32
  - 9.99666653074099e-07
  - -2.278897287593423e-28
  - 6.6427803086884555e-19
  - -3.946830236585948e-27
  - 1.5316446941733286e-26
  - -1.9319804158794037e-32
  - -2.2788972875662105e-28
  - 9.996666530740989e-07
  - -3.1297862378514685e-15
  - 1.6631052683304438e-23
  - -1.0077307688557512e-22
  - 4.856709580005022e-28
  - 6.642780308688454e-19
  - -3.1297862378514685e-15
  - 0.013205652630878483
---
header:
  stamp:
    sec: 1722525266
    nanosec: 219974928
  frame_id: map
child_frame_id: base_link
pose:
  pose:
    position:
      x: 1.1081590002114239
      y: -0.32559691329671675
      z: 5.675324244676436e-23
    orientation:
      x: -2.124097273128676e-10
      y: 3.042622965719726e-12
      z: 0.9998821785562032
      w: 0.015350211910623555
  covariance:
  - 0.04443296087997713
  - 2.819909400854534e-05
  - -1.0448632433080724e-19
  - 1.7130249237865164e-21
  - -3.599449414510297e-17
  - -1.2970565637098906e-06
  - 2.8199094008545356e-05
  - 0.043780929547675596
  - 3.2729372820014915e-21
  - -1.5924329742756843e-20
  - -5.253803775090978e-17
  - -1.8709289128572761e-06
  - -1.044863243308072e-19
  - 3.2729372820014892e-21
  - 9.99936374669623e-07
  - -1.6808206108960666e-21
  - -2.9531820181480075e-21
  - -1.6879662152719796e-21
  - 1.713024923786521e-21
  - -1.5924329742756816e-20
  - -1.680820610896066e-21
  - 1.2181000351948529e-08
  - -1.7852397365073107e-17
  - -1.6728724524996874e-13
  - -3.5994494145102924e-17
  - -5.2538037750909723e-17
  - -2.953182018148009e-21
  - -1.785239736482556e-17
  - 1.2180716353175933e-08
  - 8.156344043892476e-09
  - -1.2970565637098906e-06
  - -1.870928912857277e-06
  - -1.6879662152719813e-21
  - -1.6728724524996778e-13
  - 8.15634404389248e-09
  - 253.4087049786484
twist:
  twist:
    linear:
      x: 1.1360513182374636e-08
      y: -6.4658326350010915e-09
      z: -5.671006935645087e-28
    angular:
      x: 1.4547332204171392e-18
      y: 9.653965360442344e-12
      z: -0.0003589626450128399
  covariance:
  - 0.0009563918433597283
  - 2.2997572996590088e-15
  - -4.473325744930026e-24
  - -4.888620697852524e-31
  - -4.174060490699165e-27
  - -3.2557537409759533e-23
  - 2.2997572996591097e-15
  - 0.0009563918431492711
  - 2.9253480152847193e-27
  - 1.0591230807330222e-30
  - 1.6197024640954982e-26
  - 1.2633723274850148e-22
  - -4.4733257449300246e-24
  - 2.9253480152847186e-27
  - 9.994914503167006e-07
  - -5.515213780007622e-32
  - -9.685397468646444e-32
  - -7.555051692819663e-28
  - -4.88862069785252e-31
  - 1.0591230807330303e-30
  - -5.515213780007623e-32
  - 9.998303684095101e-07
  - 3.0465434981070256e-26
  - 1.68328696118554e-22
  - -4.1740604906991555e-27
  - 1.6197024640954965e-26
  - -9.685397468646446e-32
  - 3.0465434981073023e-26
  - 9.998303684027362e-07
  - 2.2430466794145867e-10
  - -3.2557537409759445e-23
  - 1.2633723274850127e-22
  - -7.555051692819664e-28
  - 1.6832869611857554e-22
  - 2.2430466794145867e-10
  - 0.011800055759317155
---
header:
  stamp:
    sec: 1722525266
    nanosec: 285737952
  frame_id: map
child_frame_id: base_link
pose:
  pose:
    position:
      x: 1.1075722355396485
      y: -0.325589894273424
      z: 4.2352719207140023e-13
    orientation:
      x: -2.490595991991707e-10
      y: 3.6083303884173987e-12
      z: 0.999882017448317
      w: 0.015360702571286609
  covariance:
  - 0.03291374162007839
  - 4.6140910776380247e-05
  - 2.7961416467541e-11
  - 2.9749096018660566e-21
  - -6.66562767921543e-17
  - -2.126403311508161e-06
  - 4.614091077638025e-05
  - 0.032249545058402634
  - -3.5465117799355394e-10
  - 1.0541332396501262e-20
  - -2.482407919317072e-16
  - -7.910418462101542e-06
  - 2.7961416467541013e-11
  - -3.546511779935539e-10
  - 9.999809928981065e-07
  - -1.6721806681995415e-21
  - -7.118530138556338e-21
  - 1.433327038969836e-14
  - 2.9749096018660657e-21
  - 1.0541332396501287e-20
  - -1.672180668199542e-21
  - 1.3998045472693102e-08
  - -9.834948117512845e-18
  - -3.6627004666731096e-13
  - -6.665627679215426e-17
  - -2.4824079193170704e-16
  - -7.118530138556338e-21
  - -9.834948117357311e-18
  - 1.3997770074409696e-08
  - 9.40906834298387e-09
  - -2.1264033115081604e-06
  - -7.910418462101539e-06
  - 1.433327038969836e-14
  - -3.662700466673101e-13
  - 9.409068342983877e-09
  - 253.4416318979278
twist:
  twist:
    linear:
      x: 2.176002331838209e-08
      y: -6.055633170021274e-09
      z: -2.1201146992037303e-18
    angular:
      x: 7.261770115594238e-19
      y: -5.664793930381453e-16
      z: -0.0001007327518545899
  covariance:
  - 0.0009726928959339584
  - 1.8921205528948094e-14
  - 3.5797071968063545e-21
  - -2.727094693482695e-31
  - -9.527505165912781e-28
  - -3.9305137794444444e-22
  - 1.8921205528948195e-14
  - 0.0009726928955920393
  - -3.2650397276422864e-20
  - 7.467238153443687e-31
  - 9.248525076649245e-27
  - -5.573465323324407e-22
  - 3.579707196806354e-21
  - -3.265039727642285e-20
  - 9.99847973589077e-07
  - -1.390057860708892e-32
  - -5.91701447553292e-32
  - 2.1128131944227758e-26
  - -2.7270946934826966e-31
  - 7.467238153443716e-31
  - -1.3900578607088913e-32
  - 9.999493168059818e-07
  - -2.7968505011419294e-29
  - 1.258765356885834e-19
  - -9.527505165912749e-28
  - 9.248525076649235e-27
  - -5.91701447553292e-32
  - -2.7968505010985486e-29
  - 9.999493168059818e-07
  - -1.0102142028902082e-14
  - -3.930513779444445e-22
  - -5.573465323324406e-22
  - 2.1128131944227772e-26
  - 1.258765356885834e-19
  - -1.0102142028902082e-14
  - 0.02158134580726841
---
header:
  stamp:
    sec: 1722525266
    nanosec: 325500225
  frame_id: map
child_frame_id: base_link
pose:
  pose:
    position:
      x: 1.10757223214516
      y: -0.32558989301481256
      z: 1.704737322779679e-21
    orientation:
      x: 6.323304730846299e-10
      y: -9.912266248989336e-12
      z: 0.9998822170937709
      w: 0.01534770144501479
  covariance:
  - 0.05279960649091313
  - 4.6141124961032235e-05
  - 2.399586926521166e-19
  - 2.573445558884175e-21
  - -9.432032492327868e-17
  - -2.881829439064705e-06
  - 4.6141124961032256e-05
  - 0.0521354068461311
  - -1.5159930304513184e-18
  - 8.372685951618085e-21
  - -3.1994205776298557e-16
  - -9.923192003980562e-06
  - 2.3995869265211655e-19
  - -1.5159930304513192e-18
  - 9.999505231497873e-07
  - -1.582033245275927e-21
  - -4.6190258188307314e-21
  - -2.988681365888731e-21
  - 2.5734455588841884e-21
  - 8.372685951618121e-21
  - -1.582033245275927e-21
  - 1.4435897324115162e-08
  - -1.1951872810564832e-17
  - -2.1790215851263879e-13
  - -9.43203249232786e-17
  - -3.199420577629855e-16
  - -4.619025818830733e-21
  - -1.1951872810495232e-17
  - 1.443550370190759e-08
  - 1.1459198008078197e-08
  - -2.881829439064705e-06
  - -9.923192003980557e-06
  - -2.9886813658887335e-21
  - -2.1790215851263803e-13
  - 1.14591980080782e-08
  - 253.46151605559436
twist:
  twist:
    linear:
      x: 1.6960007565162974e-08
      y: -5.837311506259831e-09
      z: -7.388884777212616e-25
    angular:
      x: 1.37545629737719e-18
      y: -1.001628475039104e-11
      z: 0.0003539246893920353
  covariance:
  - 0.0009556182038135355
  - 3.3000644044443006e-15
  - 3.06178575154269e-24
  - -4.801811255491381e-31
  - -2.4480889566306452e-27
  - -2.353639481688238e-23
  - 3.3000644044443936e-15
  - 0.0009556182036458362
  - -4.758195976750797e-27
  - 1.3227237922249708e-30
  - 1.6020417933487426e-26
  - 1.5407963574268774e-22
  - 3.061785751542688e-24
  - -4.758195976750792e-27
  - 9.996044591611655e-07
  - -5.216460814703264e-32
  - -1.520717648575839e-31
  - -1.4631891899605942e-27
  - -4.801811255491381e-31
  - 1.3227237922249767e-30
  - -5.216460814703266e-32
  - 9.99868083470272e-07
  - -2.14222662572985e-26
  - -1.3248008509721753e-22
  - -2.4480889566306387e-27
  - 1.6020417933487412e-26
  - -1.5207176485758393e-31
  - -2.142226625729774e-26
  - 9.998680834659468e-07
  - 1.6719635944185535e-10
  - -2.353639481688232e-23
  - 1.5407963574268758e-22
  - -1.4631891899605945e-27
  - -1.3248008509721015e-22
  - 1.671963594418553e-10
  - 0.01364013683171276
---
header:
  stamp:
    sec: 1722525266
    nanosec: 382740313
  frame_id: map
child_frame_id: base_link
pose:
  pose:
    position:
      x: 1.1075151261809524
      y: -0.3257573103884292
      z: 6.635442618369872e-23
    orientation:
      x: 6.863230847546986e-10
      y: -1.0730240750414482e-11
      z: 0.9998822844479948
      w: 0.015343312779814416
  covariance:
  - 0.02864640434503122
  - 6.294099206927237e-05
  - -1.4377655176609167e-20
  - -3.7483725563527865e-21
  - 6.873641602836405e-18
  - 1.602533324029657e-07
  - 6.294099206927233e-05
  - 0.027910093314372702
  - -1.235166667009012e-21
  - 4.021860282795542e-20
  - -6.264333709354027e-17
  - -1.4193156614012597e-06
  - -1.4377655176609155e-20
  - -1.2351666670090121e-21
  - 9.998520565781342e-07
  - -2.8001128098682005e-24
  - -9.715740299873929e-22
  - -7.899502457483375e-22
  - -3.7483725563527865e-21
  - 4.021860282795544e-20
  - -2.8001128098682005e-24
  - 1.4079572389576962e-08
  - -1.5600289066338434e-17
  - -8.555385944793258e-14
  - 6.87364160283641e-18
  - -6.264333709354022e-17
  - -9.71574029987393e-22
  - -1.56002890662665e-17
  - 1.4079215102508126e-08
  - 1.1392735198471401e-08
  - 1.6025333240296575e-07
  - -1.4193156614012597e-06
  - -7.899502457483378e-22
  - -8.555385944793191e-14
  - 1.13927351984714e-08
  - 253.4901534023001
twist:
  twist:
    linear:
      x: 1.551266848604397e-08
      y: -4.9159416394143536e-11
      z: 1.6083391430719e-26
    angular:
      x: 1.3223318710675944e-18
      y: 4.574558539715463e-15
      z: 2.4266861117275946e-05
  covariance:
  - 0.0008366223124335047
  - 9.197022359723449e-14
  - -2.4908027131762092e-24
  - -9.772462166361661e-31
  - 5.42945125333202e-27
  - -1.1274186510936226e-22
  - 9.197022359723474e-14
  - 0.0008366223115246507
  - 5.648940716716423e-28
  - 4.552835829445921e-30
  - 4.148525172942725e-26
  - -2.3991557291040256e-22
  - -2.4908027131762092e-24
  - 5.6489407167164245e-28
  - 9.988188976805005e-07
  - -9.035534335535421e-35
  - -3.1404977495328127e-32
  - 1.3951579133209574e-27
  - -9.772462166361679e-31
  - 4.552835829445924e-30
  - -9.035534335535416e-35
  - 9.996056786073222e-07
  - -1.7322264565296663e-28
  - 6.863309139307129e-19
  - 5.429451253332019e-27
  - 4.1485251729427234e-26
  - -3.140497749532813e-32
  - -1.732226456521677e-28
  - 9.996056786073222e-07
  - -6.7156924516040836e-15
  - -1.1274186510936224e-22
  - -2.399155729104025e-22
  - 1.395157913320957e-27
  - 6.863309139307128e-19
  - -6.715692451604082e-15
  - 0.012699139893578064
---
header:
  stamp:
    sec: 1722525266
    nanosec: 431999256
  frame_id: map
child_frame_id: base_link
pose:
  pose:
    position:
      x: 1.1075151244352106
      y: -0.3257573103272745
      z: -1.511549209516582e-23
    orientation:
      x: -1.5144047149548255e-10
      y: 2.1570396719428536e-12
      z: 0.9998819300735801
      w: 0.015366389046632218
  covariance:
  - 0.05327649333497349
  - 6.294139845442727e-05
  - 2.7032585527091452e-21
  - -3.607339446404843e-21
  - 5.225219846963976e-18
  - 1.3401501566617138e-07
  - 6.294139845442723e-05
  - 0.052540177546465824
  - -7.760364562476301e-23
  - 4.0100823789367676e-20
  - -8.990291706945537e-17
  - -2.1849500287222843e-06
  - 2.7032585527091452e-21
  - -7.760364562476295e-23
  - 9.998437344888703e-07
  - -3.036819189977323e-24
  - -8.503592192627464e-22
  - -6.9166259161047e-22
  - -3.607339446404843e-21
  - 4.010082378936769e-20
  - -3.036819189977323e-24
  - 1.3372510616214745e-08
  - -3.674025449454364e-18
  - -4.1995588782527773e-13
  - 5.225219846963979e-18
  - -8.990291706945536e-17
  - -8.503592192627466e-22
  - -3.674025449399791e-18
  - 1.3372196888608694e-08
  - 1.082484414060515e-08
  - 1.3401501566617148e-07
  - -2.1849500287222843e-06
  - -6.916625916104696e-22
  - -4.199558878252769e-13
  - 1.0824844140605142e-08
  - 253.5147883962673
twist:
  twist:
    linear:
      x: 1.4807996049565756e-08
      y: -5.29451789717417e-11
      z: 1.5084938458983028e-28
    angular:
      x: 1.1353422210809688e-18
      y: -1.0093237072107152e-15
      z: -0.0003256275410684495
  covariance:
  - 0.0008299135018683838
  - 8.357224280959467e-14
  - 4.85254046675297e-25
  - -1.00806086074105e-30
  - 4.7642955253971564e-27
  - 1.4152850290915007e-23
  - 8.357224280959487e-14
  - 0.0008299135010422949
  - 6.296886503425951e-28
  - 2.8534778969062306e-30
  - 3.643375598118624e-26
  - 1.0824351450430757e-22
  - 4.852540466752969e-25
  - 6.296886503425948e-28
  - 9.987526032750638e-07
  - -9.7812900439082e-35
  - -2.739031934639645e-32
  - 1.4943618560874752e-27
  - -1.0080608607410514e-30
  - 2.8534778969062327e-30
  - -9.781290043908204e-35
  - 9.99583508844925e-07
  - -4.080526632266042e-29
  - 1.3478050593932327e-19
  - 4.7642955253971535e-27
  - 3.643375598118622e-26
  - -2.739031934639646e-32
  - -4.080526632206147e-29
  - 9.99583508844925e-07
  - -7.809710962183061e-15
  - 1.4152850290915007e-23
  - 1.082435145043075e-22
  - 1.4943618560874762e-27
  - 1.3478050593932331e-19
  - -7.809710962183064e-15
  - 0.011776820510417854
---
header:
  stamp:
    sec: 1722525266
    nanosec: 529934471
  frame_id: map
child_frame_id: base_link
pose:
  pose:
    position:
      x: 1.1081964470976238
      y: -0.32537058858212076
      z: 2.0378228343170582e-23
    orientation:
      x: 3.188375947254745e-10
      y: -5.039276786898173e-12
      z: 0.999883515308229
      w: 0.015262890121421003
  covariance:
  - 0.04899302265050243
  - 7.592017940369208e-05
  - -6.906421710653837e-21
  - -5.537448646518726e-22
  - -1.6604399259606962e-17
  - -4.473442861090985e-07
  - 7.592017940369205e-05
  - 0.048194030815575016
  - 2.1331032480710187e-22
  - -1.328115566740738e-20
  - -3.2945407037634676e-17
  - -8.85262493201081e-07
  - -6.906421710653836e-21
  - 2.1331032480710187e-22
  - 9.998634162792951e-07
  - -1.8075658489216527e-22
  - -5.110378483945295e-22
  - -3.9004968761396234e-22
  - -5.537448646518716e-22
  - -1.3281155667407386e-20
  - -1.8075658489216525e-22
  - 1.2481167667157272e-08
  - -3.429046804625701e-17
  - 9.021853908816363e-13
  - -1.6604399259606965e-17
  - -3.2945407037634706e-17
  - -5.110378483945296e-22
  - -3.4290468046298775e-17
  - 1.2480931523904816e-08
  - 9.461258179025534e-09
  - -4.473442861090986e-07
  - -8.852624932010813e-07
  - -3.900496876139625e-22
  - 9.021853908816362e-13
  - 9.461258179025534e-09
  - 253.56377701921056
twist:
  twist:
    linear:
      x: 8.803764359314395e-09
      y: -3.113596168557271e-09
      z: -2.0338347930122304e-28
    angular:
      x: 1.1490198606652471e-18
      y: 2.1245328404264867e-15
      z: 0.0018424228279760695
  covariance:
  - 0.0008455386616267923
  - 5.162494425591656e-14
  - -1.0345919712197688e-24
  - -1.897159159249238e-31
  - 3.7266921538700916e-27
  - 1.5256735157797003e-24
  - 5.1624944255916876e-14
  - 0.000845538661089072
  - 5.633583108822629e-28
  - 5.4666669273130956e-30
  - 3.179480405919163e-26
  - 1.2664118331645901e-23
  - -1.0345919712197692e-24
  - 5.633583108822629e-28
  - 9.989094145320992e-07
  - -5.835059949449384e-33
  - -1.6496916827967205e-32
  - 1.385296522250058e-28
  - -1.8971591592492503e-31
  - 5.4666669273131026e-30
  - -5.8350599494493865e-33
  - 9.996359424393107e-07
  - -3.806963124160639e-28
  - 2.4077831141033306e-20
  - 3.7266921538700895e-27
  - 3.1794804059191646e-26
  - -1.6496916827967197e-32
  - -3.806963124165032e-28
  - 9.996359424393105e-07
  - -1.1217832403229148e-15
  - 1.5256735157796996e-24
  - 1.2664118331645911e-23
  - 1.3852965222500584e-28
  - 2.4077831141033222e-20
  - -1.1217832403229155e-15
  - 0.01202867926390571
---
header:
  stamp:
    sec: 1722525266
    nanosec: 585984021
  frame_id: map
child_frame_id: base_link
pose:
  pose:
    position:
      x: 1.109556714225408
      y: -0.3258650756153806
      z: -2.5939105136617277e-24
    orientation:
      x: 3.009532434895603e-10
      y: -4.7568044867113575e-12
      z: 0.9998836803201584
      w: 0.015252076232937152
  covariance:
  - 0.02804909323932101
  - 8.173483716393132e-05
  - -6.975136918711564e-21
  - -5.758727650122716e-22
  - 1.8110711622384213e-18
  - 5.292466949769142e-08
  - 8.173483716393128e-05
  - 0.027213696677192912
  - 2.1492447955453594e-22
  - 8.841954165371344e-21
  - 6.676908469292763e-18
  - 1.9431315602394886e-07
  - -6.975136918711566e-21
  - 2.1492447955453585e-22
  - 9.998757887902364e-07
  - 9.197516039475913e-24
  - 6.550028340665516e-23
  - 4.8132535047920253e-23
  - -5.758727650122719e-22
  - 8.841954165371338e-21
  - 9.197516039475913e-24
  - 1.1921026308144776e-08
  - -3.7002078226727113e-17
  - 1.1734970103441723e-12
  - 1.8110711622384217e-18
  - 6.6769084692927634e-18
  - 6.550028340665517e-23
  - -3.700207822674031e-17
  - 1.1920827192507e-08
  - 8.69145711014182e-09
  - 5.292466949769143e-08
  - 1.9431315602394886e-07
  - 4.8132535047920294e-23
  - 1.1734970103441725e-12
  - 8.691457110141827e-09
  - 253.59181594852956
twist:
  twist:
    linear:
      x: -1.1199419383753612e-09
      y: 1.571791561652261e-10
      z: 2.6214347636071496e-29
    angular:
      x: 1.1070116292742915e-18
      y: 2.005847396019927e-15
      z: 7.027696716836797e-05
  covariance:
  - 0.0008555742364044128
  - 4.84546819254054e-14
  - -9.543289457951243e-25
  - -4.2457129559752875e-32
  - 3.647889509927051e-27
  - -8.851719126820478e-22
  - 4.8454681925405673e-14
  - 0.0008555742359005529
  - 5.259353032126029e-28
  - 6.512622579138912e-30
  - 2.9011525101338476e-26
  - -2.5583287176611742e-21
  - -9.543289457951245e-25
  - 5.25935303212603e-28
  - 9.990080342979216e-07
  - 2.972549892423423e-34
  - 2.11689191264768e-33
  - -6.517693568645308e-31
  - -4.2457129559754024e-32
  - 6.512622579138922e-30
  - 2.9725498924234233e-34
  - 9.996689071414262e-07
  - -4.108221462664864e-28
  - 3.0807352740763576e-19
  - 3.6478895099270514e-27
  - 2.901152510133849e-26
  - 2.1168919126476796e-33
  - -4.10822146266635e-28
  - 9.99668907141426e-07
  - -3.929720273255416e-17
  - -8.85171912682048e-22
  - -2.5583287176611753e-21
  - -6.5176935686453135e-31
  - 3.080735274076357e-19
  - -3.92972027325542e-17
  - 0.01278584667378413
---
header:
  stamp:
    sec: 1722525266
    nanosec: 630824234
  frame_id: map
child_frame_id: base_link
pose:
  pose:
    position:
      x: 1.1095567143337528
      y: -0.3258650756340447
      z: 4.3159692475718037e-23
    orientation:
      x: -6.27813978552906e-09
      y: 9.574094652416383e-11
      z: 0.9998807893176386
      w: 0.015440438903610217
  covariance:
  - 0.050469675657669785
  - 8.173494876640915e-05
  - 1.19987260707241e-19
  - -1.005039080657764e-21
  - 1.9418711248637425e-18
  - 6.070272594765695e-08
  - 8.173494876640913e-05
  - 0.049634277954819825
  - -3.6509448919569185e-21
  - 6.4485038452620786e-21
  - 7.70069958046576e-18
  - 2.396747585741301e-07
  - 1.1998726070724101e-19
  - -3.650944891956918e-21
  - 9.99845199837133e-07
  - 7.268731368915086e-24
  - 5.1840367918923595e-23
  - 3.867785802405314e-23
  - -1.0050390806577647e-21
  - 6.448503845262066e-21
  - 7.268731368915092e-24
  - 1.1461057412242421e-08
  - 1.5843045259408955e-17
  - -1.0332917016435678e-12
  - 1.941871124863743e-18
  - 7.700699580465766e-18
  - 5.184036791892359e-23
  - 1.584304525964626e-17
  - 1.146087473301856e-08
  - 8.379850347089682e-09
  - 6.070272594765695e-08
  - 2.396747585741301e-07
  - 3.8677858024053174e-23
  - -1.0332917016435696e-12
  - 8.379850347089688e-09
  - 253.61424025982905
twist:
  twist:
    linear:
      x: -1.0498947293306142e-09
      y: 1.4724939654949962e-10
      z: -4.30624550645166e-28
    angular:
      x: 8.047090214852113e-18
      y: -4.1843214142714736e-14
      z: -0.0029752248988003716
  covariance:
  - 0.0008309048037151554
  - 4.262340624899094e-14
  - 2.2413868358841506e-23
  - -8.616501838671907e-31
  - 3.1892997701155175e-27
  - 8.778504592642134e-24
  - 4.2623406248991176e-14
  - 0.0008309048032719311
  - 3.7424270349462824e-27
  - -8.635887079296002e-31
  - 2.5364468910959346e-26
  - 6.992975067885349e-23
  - 2.2413868358841503e-23
  - 3.74242703494628e-27
  - 9.987642751520091e-07
  - 2.329219214059302e-34
  - 1.661209516406631e-33
  - -9.961420134555548e-29
  - -8.616501838671917e-31
  - -8.635887079296007e-31
  - 2.3292192140593037e-34
  - 9.995874123909222e-07
  - 1.7583412047366456e-28
  - -2.0888840863466985e-18
  - 3.1892997701155208e-27
  - 2.536446891095936e-26
  - 1.661209516406632e-33
  - 1.758341204763525e-28
  - 9.995874123909222e-07
  - -7.312753720088326e-15
  - 8.77850459264214e-24
  - 6.992975067885355e-23
  - -9.961420134555552e-29
  - -2.088884086346699e-18
  - -7.312753720088331e-15
  - 0.011676498473877113
---
header:
  stamp:
    sec: 1722525266
    nanosec: 678089327
  frame_id: map
child_frame_id: base_link
pose:
  pose:
    position:
      x: 1.1096736121013822
      y: -0.32627606554922206
      z: 6.85233508989697e-23
    orientation:
      x: -5.952486870336609e-09
      y: 9.065909087256547e-11
      z: 0.9998805068460176
      w: 0.015458720171831976
  covariance:
  - 0.02365296938438466
  - 0.00010421801079474495
  - 1.1566513424584994e-19
  - -1.5776200866095297e-21
  - 4.6420953788290845e-18
  - 1.5020906842259956e-07
  - 0.00010421801079474498
  - 0.02272072280787311
  - -3.522972460788591e-21
  - 5.731650416301128e-21
  - 2.6113272228557796e-18
  - 8.434252292596876e-08
  - 1.1566513424584992e-19
  - -3.52297246078859e-21
  - 9.998533876007534e-07
  - 1.1254996053044073e-22
  - 8.362343038330235e-23
  - 6.015750667599348e-23
  - -1.5776200866095282e-21
  - 5.731650416301124e-21
  - 1.125499605304407e-22
  - 1.1090717484016463e-08
  - 2.4843719302311514e-17
  - -1.3557166169309057e-12
  - 4.642095378829082e-18
  - 2.611327222855777e-18
  - 8.362343038330231e-23
  - 2.484371930252305e-17
  - 1.1090557809905431e-08
  - 7.856789110680382e-09
  - 1.5020906842259961e-07
  - 8.434252292596874e-08
  - 6.015750667599352e-23
  - -1.355716616930908e-12
  - 7.856789110680387e-09
  - 253.63788478146427
twist:
  twist:
    linear:
      x: -1.7040771276251421e-09
      y: 2.293124396448238e-09
      z: -4.78855807751584e-28
    angular:
      x: 9.126025920157709e-18
      y: -3.9671113238982746e-14
      z: -0.0001922608214089
  covariance:
  - 0.0008368509170615373
  - 3.962845895051399e-14
  - 2.081173421702465e-23
  - -9.698734342139917e-31
  - 2.8657855858633362e-27
  - 6.97731581982302e-23
  - 3.962845895051415e-14
  - 0.0008368509166507887
  - 4.763644020925958e-27
  - -2.3110257198309245e-30
  - 2.288333043240673e-26
  - 5.127322489683179e-22
  - 2.0811734217024653e-23
  - 4.7636440209259556e-27
  - 9.988295017203493e-07
  - 3.608458171007742e-33
  - 2.6810388457047773e-33
  - -1.0138089879397717e-29
  - -9.698734342139926e-31
  - -2.3110257198309248e-30
  - 3.6084581710077405e-33
  - 9.996092245066281e-07
  - 2.758046911273673e-28
  - -5.841077147415341e-18
  - 2.8657855858633348e-27
  - 2.2883330432406737e-26
  - 2.681038845704775e-33
  - 2.7580469112971987e-28
  - 9.996092245066283e-07
  - -4.4161968037754313e-16
  - 6.977315819823013e-23
  - 5.127322489683179e-22
  - -1.0138089879397724e-29
  - -5.841077147415343e-18
  - -4.4161968037754323e-16
  - 0.01222472760105997
---
header:
  stamp:
    sec: 1722525266
    nanosec: 732127476
  frame_id: map
child_frame_id: base_link
pose:
  pose:
    position:
      x: 1.1096736123059114
      y: -0.326276065843279
      z: 2.3726099397490502e-23
    orientation:
      x: -2.2913114639425218e-09
      y: 3.456438271482304e-11
      z: 0.9998815773823321
      w: 0.015389321343694286
  covariance:
  - 0.05067262396417676
  - 0.00010421814859497515
  - 4.643954596602689e-20
  - -1.292495894190648e-21
  - 7.75761163958526e-18
  - 2.6774960659284244e-07
  - 0.00010421814859497507
  - 0.04974037615369174
  - -1.4064896457250958e-21
  - 5.3726194701738596e-21
  - 4.827478074763517e-18
  - 1.6629572603634172e-07
  - 4.643954596602689e-20
  - -1.4064896457250955e-21
  - 9.99844316530379e-07
  - 1.0037911548862739e-22
  - 7.460909355275347e-23
  - 5.378507409322463e-23
  - -1.2924958941906452e-21
  - 5.372619470173858e-21
  - 1.0037911548862735e-22
  - 1.0710184212211163e-08
  - 1.0266327450289316e-17
  - -4.812792060416242e-13
  - 7.75761163958526e-18
  - 4.827478074763511e-18
  - 7.460909355275347e-23
  - 1.026632745041953e-17
  - 1.0710030319401476e-08
  - 7.647004355509663e-09
  - 2.677496065928426e-07
  - 1.662957260363416e-07
  - 5.378507409322465e-23
  - -4.812792060416253e-13
  - 7.64700435550967e-09
  - 253.66491044158224
twist:
  twist:
    linear:
      x: -1.6210229139617325e-09
      y: 2.1808329526301352e-09
      z: -2.367233568808794e-28
    angular:
      x: 4.6743096365341725e-18
      y: -1.527161642256951e-14
      z: 0.0010076581502209483
  covariance:
  - 0.0008303367975339707
  - 3.586999540173106e-14
  - 8.745404758089295e-24
  - -6.152330393906199e-31
  - 2.5259683263115735e-27
  - 8.428425952461137e-24
  - 3.586999540173123e-14
  - 0.0008303367971621698
  - 2.6389966769823297e-27
  - -1.235366224676485e-31
  - 2.0169852174115744e-26
  - 6.730028266653779e-23
  - 8.7454047580893e-24
  - 2.6389966769823305e-27
  - 9.987572393465566e-07
  - 3.207622062215612e-33
  - 2.3841349085670116e-33
  - -1.8614506861421161e-28
  - -6.152330393906209e-31
  - -1.2353662246764876e-31
  - 3.20762206221561e-33
  - 9.99585059343189e-07
  - 1.1400531222311442e-28
  - -2.3021422721455112e-18
  - 2.5259683263115735e-27
  - 2.016985217411576e-26
  - 2.3841349085670113e-33
  - 1.140053122245729e-28
  - 9.99585059343189e-07
  - -8.867492729960361e-15
  - 8.428425952461137e-24
  - 6.730028266653784e-23
  - -1.8614506861421157e-28
  - -2.3021422721455112e-18
  - -8.867492729960361e-15
  - 0.01176780508386835
---
header:
  stamp:
    sec: 1722525266
    nanosec: 775325670
  frame_id: map
child_frame_id: base_link
pose:
  pose:
    position:
      x: 1.1082792033669908
      y: -0.32684399850943163
      z: -1.5114473310323268e-22
    orientation:
      x: -2.13785102924129e-09
      y: 3.224851559648727e-11
      z: 0.999881674163298
      w: 0.015383031963834469
  covariance:
  - 0.02161962653277677
  - 0.00010057875840857365
  - 6.003575980736227e-20
  - -1.3987920633918393e-21
  - 8.711988721166427e-18
  - 3.042476532978047e-07
  - 0.00010057875840857368
  - 0.020713781178972778
  - -5.8549671091389084e-21
  - 9.687801833178845e-21
  - -1.1940812955319857e-17
  - -4.165641411533195e-07
  - 6.003575980736227e-20
  - -5.8549671091389144e-21
  - 9.998977883024456e-07
  - 3.3301590172894843e-22
  - -3.598273212617257e-22
  - -2.5150968072434655e-22
  - -1.398792063391838e-21
  - 9.687801833178843e-21
  - 3.3301590172894834e-22
  - 1.0561116373966356e-08
  - 6.225608468789408e-18
  - -2.375882046816126e-13
  - 8.711988721166414e-18
  - -1.194081295531984e-17
  - -3.598273212617256e-22
  - 6.2256084689139915e-18
  - 1.056097780245592e-08
  - 7.283302170860595e-09
  - 3.0424765329780476e-07
  - -4.1656414115331953e-07
  - -2.5150968072434674e-22
  - -2.3758820468161353e-13
  - 7.283302170860603e-09
  - 253.68652152724567
twist:
  twist:
    linear:
      x: 6.136740347006906e-09
      y: 5.6846377238689315e-09
      z: 1.0733975247780748e-25
    angular:
      x: 4.277464823479004e-18
      y: -1.4248449691693103e-14
      z: 0.00010069776507687532
  covariance:
  - 0.000875417304109327
  - 3.797699485729852e-14
  - 5.909684060342041e-24
  - -5.423348117572995e-31
  - 2.306495003162361e-27
  - 1.9261974797796205e-21
  - 3.7976994857298645e-14
  - 0.0008754173037179715
  - 1.70566765578821e-27
  - 3.971540045250768e-31
  - 1.9408417899159886e-26
  - 1.4711221796105023e-21
  - 5.9096840603420385e-24
  - 1.70566765578821e-27
  - 9.991834741643404e-07
  - 1.0783783604830238e-32
  - -1.1652103974431242e-32
  - 8.685640405726685e-29
  - -5.423348117573003e-31
  - 3.971540045250771e-31
  - 1.0783783604830234e-32
  - 9.997275282660283e-07
  - 6.912177147034318e-29
  - -2.5226692690360284e-18
  - 2.30649500316236e-27
  - 1.9408417899159897e-26
  - -1.165210397443124e-32
  - 6.912177147173113e-29
  - 9.997275282660283e-07
  - -8.4033422921602e-16
  - 1.9261974797796186e-21
  - 1.4711221796105025e-21
  - 8.685640405726688e-29
  - -2.5226692690360284e-18
  - -8.403342292160202e-16
  - 0.01356820408639238
---
header:
  stamp:
    sec: 1722525266
    nanosec: 808031771
  frame_id: map
child_frame_id: base_link
pose:
  pose:
    position:
      x: 1.1082792021340258
      y: -0.32684399958477006
      z: -9.599655747161026e-23
    orientation:
      x: 4.11875728658829e-10
      y: -6.700492029182308e-12
      z: 0.9998825480357235
      w: 0.015326125850623835
  covariance:
  - 0.03797367604642011
  - 0.00010057898162945192
  - 1.7808972894869146e-19
  - -8.195784951970353e-22
  - 2.2038370023016398e-17
  - 7.756680636919127e-07
  - 0.00010057898162945193
  - 0.03706782868338922
  - -5.419612096259795e-21
  - 8.763644915632211e-21
  - -2.718575593656845e-17
  - -9.572087989050893e-07
  - 1.7808972894869175e-19
  - -5.419612096259794e-21
  - 9.998326763091455e-07
  - 1.365487077293749e-21
  - -1.4725463668064292e-21
  - -9.575069038933006e-22
  - -8.195784951970341e-22
  - 8.76364491563221e-21
  - 1.3654870772937496e-21
  - 1.1007258623359897e-08
  - 1.8258956333972006e-18
  - 1.1842164547777876e-13
  - 2.2038370023016383e-17
  - -2.7185755936568412e-17
  - -1.47254636680643e-21
  - 1.8258956334542393e-18
  - 1.1007109618115397e-08
  - 7.49559439524738e-09
  - 7.756680636919128e-07
  - -9.572087989050893e-07
  - -9.575069038933013e-22
  - 1.1842164547777805e-13
  - 7.495594395247385e-09
  - 253.70288498800736
twist:
  twist:
    linear:
      x: 6.455929533393411e-09
      y: 5.987018874706756e-09
      z: 9.602024032842796e-28
    angular:
      x: 2.5812074407253163e-18
      y: -3.0432045075241773e-10
      z: 0.0043532579535371044
  covariance:
  - 0.0009464963270114965
  - 4.2196193024872295e-14
  - 3.9510244507275126e-23
  - -4.570943622017357e-31
  - 2.4349657235646175e-27
  - 1.0455639378614188e-23
  - 4.219619302487245e-14
  - 0.000946496326576603
  - 8.859448791582198e-27
  - 1.2709359881320762e-30
  - 2.0055439626312697e-26
  - 8.684026793472478e-23
  - 3.9510244507275126e-23
  - 8.859448791582198e-27
  - 9.9866453822517e-07
  - 4.355187694999015e-32
  - -4.6943143911742556e-32
  - -2.0345329127507804e-28
  - -4.570943622017366e-31
  - 1.270935988132077e-30
  - 4.3551876949990195e-32
  - 9.995540521787912e-07
  - -3.153963890677486e-25
  - -8.265470109845973e-22
  - 2.4349657235646182e-27
  - 2.0055439626312708e-26
  - -4.6943143911742583e-32
  - -3.1539638906774785e-25
  - 9.99554052117993e-07
  - 8.618006251491221e-10
  - 1.0455639378614188e-23
  - 8.684026793472483e-23
  - -2.0345329127507804e-28
  - -8.265470109845945e-22
  - 8.618006251491217e-10
  - 0.005933820378528598
---
header:
  stamp:
    sec: 1722525266
    nanosec: 855886996
  frame_id: map
child_frame_id: base_link
pose:
  pose:
    position:
      x: 1.1077553388210206
      y: -0.32828030144989767
      z: -2.043913194785487e-11
    orientation:
      x: 7.711204316238999e-10
      y: -1.2277351943457302e-11
      z: 0.9998840262458085
      w: 0.015229381421167375
  covariance:
  - 0.023949579484819024
  - 0.0001002458766975835
  - 6.733532008842507e-11
  - 2.798087080931603e-20
  - 1.9797133814594189e-16
  - 6.85525716567315e-06
  - 0.00010024587669758352
  - 0.023071168900846352
  - -5.642732416566627e-10
  - 1.167282879204904e-19
  - -9.181875065479492e-17
  - -3.176888918077658e-06
  - 6.733532008842507e-11
  - -5.642732416566628e-10
  - 9.999738805658626e-07
  - 7.699554392917391e-21
  - -3.3127430154470847e-21
  - 1.5982712106405648e-14
  - 2.7980870809316e-20
  - 1.1672828792049049e-19
  - 7.69955439291739e-21
  - 1.1889284573786069e-08
  - -2.8897566409373667e-17
  - 1.7609346116521727e-12
  - 1.9797133814594174e-16
  - -9.181875065479487e-17
  - -3.312743015447086e-21
  - -2.889756640892789e-17
  - 1.1889139852039155e-08
  - 7.947328178194136e-09
  - 6.85525716567315e-06
  - -3.176888918077658e-06
  - 1.5982712106405654e-14
  - 1.7609346116521737e-12
  - 7.947328178194143e-09
  - 253.72682522680338
twist:
  twist:
    linear:
      x: 1.473794828300282e-08
      y: 3.190157661142339e-08
      z: 1.0207584446467449e-16
    angular:
      x: 1.773870323317249e-18
      y: -9.598195920102124e-15
      z: 0.0015676025315116385
  covariance:
  - 0.0009627375734045601
  - 9.535593083011935e-14
  - 7.580335178302149e-21
  - -6.981538796751806e-31
  - 4.891536225889988e-28
  - 2.979775181984394e-22
  - 9.535593083011943e-14
  - 0.0009627375726113656
  - -5.0377732529029305e-20
  - 6.576110643194741e-30
  - 1.037478958904086e-26
  - -2.3224289253090526e-22
  - 7.580335178302149e-21
  - -5.037773252902935e-20
  - 9.99791101915511e-07
  - 6.375278406018499e-32
  - -2.7431415464992665e-32
  - 7.740490588494237e-27
  - -6.981538796751807e-31
  - 6.576110643194748e-30
  - 6.375278406018498e-32
  - 9.999303527409132e-07
  - -7.024962519441704e-29
  - -1.6067919558429387e-18
  - 4.89153622588999e-28
  - 1.0374789589040863e-26
  - -2.7431415464992665e-32
  - -7.024962519319638e-29
  - 9.999303527409132e-07
  - 2.425968174347495e-15
  - 2.9797751819843924e-22
  - -2.322428925309053e-22
  - 7.740490588494236e-27
  - -1.6067919558429383e-18
  - 2.4259681743474888e-15
  - 0.019197039046130095
---
header:
  stamp:
    sec: 1722525266
    nanosec: 924076907
  frame_id: map
child_frame_id: base_link
pose:
  pose:
    position:
      x: 1.107755331787239
      y: -0.32828031396960067
      z: 1.3210172549563197e-22
    orientation:
      x: 9.84624283524844e-10
      y: -1.5539964093621944e-11
      z: 0.9998847866581506
      w: 0.015179374479356243
  covariance:
  - 0.05804862738244673
  - 0.0001002471746609365
  - -7.10515852322743e-20
  - 8.75942487548383e-20
  - 3.187635252843561e-16
  - 1.110062427011944e-05
  - 0.00010024717466093652
  - 0.05717020543854252
  - 1.8020596869486677e-21
  - 7.973891348688956e-20
  - -1.6065425602095557e-16
  - -5.567719667935073e-06
  - -7.105158523227433e-20
  - 1.8020596869486685e-21
  - 9.999389246557408e-07
  - 2.1980536596856936e-21
  - -1.1639489742013828e-21
  - -7.004259804488728e-22
  - 8.75942487548382e-20
  - 7.973891348688962e-20
  - 2.1980536596856947e-21
  - 1.3743375560952756e-08
  - -4.0913865456386635e-17
  - 2.4742674644086274e-12
  - 3.1876352528435574e-16
  - -1.6065425602095557e-16
  - -1.1639489742013824e-21
  - -4.0913865455908524e-17
  - 1.3743239865723053e-08
  - 8.02502045709415e-09
  - 1.1100624270119436e-05
  - -5.567719667935074e-06
  - -7.004259804488738e-22
  - 2.4742674644086307e-12
  - 8.02502045709416e-09
  - 253.76095416313035
twist:
  twist:
    linear:
      x: 1.0374661539752925e-08
      y: 1.9582307967585613e-08
      z: 4.480748436422669e-26
    angular:
      x: 3.944204984778242e-18
      y: -2.163006347408011e-14
      z: 0.0007707568916339138
  covariance:
  - 0.0009192764896631252
  - 4.453470517524508e-14
  - -1.957557427961523e-24
  - -5.9499273712806405e-31
  - 1.2825747587904936e-27
  - 2.9052526329815783e-24
  - 4.453470517524515e-14
  - 0.0009192764892435671
  - 1.218640753628132e-27
  - 1.0525342021011441e-29
  - 1.7498376163103484e-26
  - 3.9569673672646656e-23
  - -1.957557427961523e-24
  - 1.2186407536281314e-27
  - 9.995118140020303e-07
  - 7.215557370141944e-32
  - -3.8208633308933417e-32
  - 3.1716724787154997e-27
  - -5.949927371280639e-31
  - 1.0525342021011447e-29
  - 7.215557370141941e-32
  - 9.99837165526202e-07
  - -3.897342020553619e-28
  - -1.461926142367242e-19
  - 1.2825747587904932e-27
  - 1.7498376163103504e-26
  - -3.82086333089334e-32
  - -3.8973420205006035e-28
  - 9.99837165526202e-07
  - 2.015879867788914e-13
  - 2.9052526329815776e-24
  - 3.9569673672646697e-23
  - 3.1716724787154997e-27
  - -1.4619261423672428e-19
  - 2.0158798677889142e-13
  - 0.013028890849541628
---
header:
  stamp:
    sec: 1722525266
    nanosec: 974446303
  frame_id: map
child_frame_id: base_link
pose:
  pose:
    position:
      x: 1.1073663006216508
      y: -0.3288909608030591
      z: -6.355420836361113e-16
    orientation:
      x: 9.727731249165967e-10
      y: -1.5346139232259267e-11
      z: 0.9998849343405143
      w: 0.01516964333349216
  covariance:
  - 0.025206864663550085
  - 9.247688661749111e-05
  - 7.379474538864374e-15
  - 4.051544723763202e-20
  - 1.2998389328325334e-16
  - 4.270319593963271e-06
  - 9.247688661749111e-05
  - 0.02434841083639367
  - -6.507933444304394e-14
  - -2.1434775012145994e-21
  - -7.512195940860028e-17
  - -2.4584180898059852e-06
  - 7.379474538864368e-15
  - -6.507933444304395e-14
  - 9.999655927915763e-07
  - 6.560849566892266e-21
  - -3.657195283643398e-21
  - 7.770077460846844e-18
  - 4.0515447237631957e-20
  - -2.143477501214594e-21
  - 6.560849566892267e-21
  - 1.4575466047189472e-08
  - -4.1002226114752454e-17
  - 2.5269400436339737e-12
  - 1.2998389328325315e-16
  - -7.512195940860016e-17
  - -3.657195283643401e-21
  - -4.100222611431142e-17
  - 1.4575340997725504e-08
  - 7.784789674475248e-09
  - 4.270319593963271e-06
  - -2.4584180898059856e-06
  - 7.770077460846848e-18
  - 2.5269400436339774e-12
  - 7.78478967447526e-09
  - 253.78616354518476
twist:
  twist:
    linear:
      x: 2.036418528328312e-08
      y: 3.65385655253775e-08
      z: 3.1720049106772246e-20
    angular:
      x: 3.917032851851772e-18
      y: 6.483826115496736e-15
      z: 0.0001520132559123015
  covariance:
  - 0.0009514993625553154
  - 1.6049686961768596e-13
  - 1.1427301467357818e-23
  - -8.951298933684453e-30
  - -2.693415142206159e-26
  - 8.83969967235374e-22
  - 1.6049686961768594e-13
  - 0.0009514993613178723
  - -8.88774424146154e-23
  - 5.753958145241267e-30
  - 3.0245984121688466e-26
  - -4.619097998365006e-22
  - 1.1427301467357827e-23
  - -8.887744241461542e-23
  - 9.99724874895015e-07
  - 2.177513170779874e-31
  - -1.2138050686084161e-31
  - 1.915847475645184e-27
  - -8.951298933684444e-30
  - 5.753958145241266e-30
  - 2.1775131707798725e-31
  - 9.999082579493415e-07
  - -4.552787140861513e-28
  - 1.3851348025916764e-18
  - -2.693415142206153e-26
  - 3.0245984121688495e-26
  - -1.2138050686084161e-31
  - -4.552787140812543e-28
  - 9.999082579493418e-07
  - -2.3153154698564675e-15
  - 8.839699672353744e-22
  - -4.619097998365011e-22
  - 1.9158474756451836e-27
  - 1.3851348025916766e-18
  - -2.3153154698564675e-15
  - 0.018771775657180332
---
header:
  stamp:
    sec: 1722525267
    nanosec: 29561675
  frame_id: map
child_frame_id: base_link
pose:
  pose:
    position:
      x: 1.1073662955925798
      y: -0.32889096924235994
      z: -3.307137643926146e-22
    orientation:
      x: -2.638763023957854e-09
      y: 3.970485192168233e-11
      z: 0.9998829434333375
      w: 0.015300308202296506
  covariance:
  - 0.0527662166755143
  - 9.247807605877685e-05
  - 6.56151897162318e-20
  - 3.564933973456989e-20
  - 2.3039078704321255e-16
  - 7.911768408045268e-06
  - 9.247807605877686e-05
  - 0.051907751816575934
  - -1.94037103886559e-21
  - -9.02874487745345e-22
  - -1.3529524946392858e-16
  - -4.635143235611914e-06
  - 6.56151897162318e-20
  - -1.9403710388655905e-21
  - 9.998606100193873e-07
  - 2.1096983997752103e-21
  - -1.1755140036518941e-21
  - -6.356587900727582e-22
  - 3.564933973456988e-20
  - -9.028744877453297e-22
  - 2.1096983997752103e-21
  - 1.4676882508319189e-08
  - -1.714045986175186e-17
  - 1.140813936307773e-12
  - 2.303907870432124e-16
  - -1.3529524946392848e-16
  - -1.1755140036518943e-21
  - -1.7140459861549765e-17
  - 1.4676758274298423e-08
  - 7.840936336399575e-09
  - 7.911768408045271e-06
  - -4.635143235611914e-06
  - -6.356587900727595e-22
  - 1.1408139363077733e-12
  - 7.84093633639959e-09
  - 253.8137368798773
twist:
  twist:
    linear:
      x: 1.7249431657234052e-08
      y: 3.0954884099045896e-08
      z: 3.303138035660038e-27
    angular:
      x: 4.489350498621361e-18
      y: -1.753106377132014e-14
      z: -0.0022466287986206823
  covariance:
  - 0.0008440624440625461
  - 1.1443396535209332e-13
  - 8.519478446980271e-24
  - -3.722528747290967e-30
  - -2.1407796536929444e-26
