header:
  stamp:
    sec: 1722533454
    nanosec: 996395226
  frame_id: map
child_frame_id: base_link
pose:
  pose:
    position:
      x: 0.1721174228802466
      y: 0.09575430162987433
      z: 8.879043598093119e-16
    orientation:
      x: 3.030369002985497e-10
      y: -8.16409557613258e-10
      z: 0.3491829870579785
      w: 0.9370545563355783
  covariance:
  - 0.0520449096914888
  - -0.0057463126647084636
  - -1.1975485964832122e-17
  - 1.8661527311436882e-14
  - 2.353760525443371e-11
  - -0.19899294684657162
  - -0.005746312664708463
  - 0.05370068374453768
  - 1.391786824334659e-17
  - -2.157677184763656e-14
  - -2.721622648740413e-11
  - 0.23009410141523898
  - -1.1975485964832103e-17
  - 1.3917868243346582e-17
  - 9.999362518181488e-07
  - -4.51331556176341e-19
  - -1.2258227297875587e-14
  - 4.811588230451073e-16
  - 1.866152731143688e-14
  - -2.1576771847636567e-14
  - -4.513315561763421e-19
  - 2.4407224311747247e-08
  - -1.1984676634022993e-18
  - -7.823791803469513e-13
  - 2.3537605254433687e-11
  - -2.721622648740411e-11
  - -1.2258227297875588e-14
  - -1.1984676654492343e-18
  - 2.4407219297717213e-08
  - -9.429499249587716e-10
  - -0.19899294684657162
  - 0.2300941014152391
  - 4.811588230451076e-16
  - -7.823791803469508e-13
  - -9.429499249587728e-10
  - 7.9566141725036355
twist:
  twist:
    linear:
      x: 0.40606596635048037
      y: -1.2872339040761697e-06
      z: -8.869789640778221e-21
    angular:
      x: 7.426637576827077e-18
      y: 5.804167493927354e-15
      z: 0.0003929882108045881
  covariance:
  - 0.0009157495106135506
  - 4.6171727865808246e-14
  - -1.8472114353383443e-24
  - -1.4180209553928956e-27
  - -8.698987035557736e-25
  - 2.048619875603662e-20
  - 4.6171727865809805e-14
  - 0.000915749610755088
  - 7.792574734544677e-27
  - -9.800023022810411e-25
  - -3.561600315977829e-21
  - 8.054401000791063e-17
  - -1.847211435338345e-24
  - 7.792574734544686e-27
  - 9.994904691904841e-07
  - -1.496809552271351e-29
  - -4.051975698009327e-25
  - -6.768252914261696e-23
  - -1.4180209553930404e-27
  - -9.800023022810439e-25
  - -1.4968095522713542e-29
  - 9.998300409426554e-07
  - -1.3309550861597707e-29
  - 1.3976358312853255e-18
  - -8.698987035561213e-25
  - -3.561600315977839e-21
  - -4.0519756980093286e-25
  - -1.330955088433022e-29
  - 9.998300409426554e-07
  - 4.4247978483903367e-17
  - 2.0486198756030568e-20
  - 8.054401000791061e-17
  - -6.768252914261692e-23
  - 1.397635831285326e-18
  - 4.4247978483903354e-17
  - 0.016029436652381046
---
header:
  stamp:
    sec: 1722533455
    nanosec: 38626514
  frame_id: map
child_frame_id: base_link
pose:
  pose:
    position:
      x: 0.30181638247128895
      y: -0.39105587700612243
      z: -2.5974418619092595e-13
    orientation:
      x: 1.2204483850849585e-09
      y: 1.2501087446971266e-09
      z: -0.6990741631558063
      w: 0.7150491692240535
  covariance:
  - 0.01970141937664729
  - 5.200409148029163e-05
  - 1.4003474455812395e-14
  - -1.4842673472895047e-14
  - -1.1390617030362953e-11
  - 0.09434885956460133
  - 5.2004091480291636e-05
  - 0.018268062300527906
  - -2.9150728606513835e-14
  - -3.10226570106895e-16
  - -2.372451383097216e-13
  - 0.0019444563651919494
  - 1.4003474455812402e-14
  - -2.9150728606513866e-14
  - 9.99909890778649e-07
  - -1.5415617248169882e-18
  - -1.145483715686789e-14
  - -1.6765657947687554e-13
  - -1.4842673472895037e-14
  - -3.102265701068952e-16
  - -1.5415617248169882e-18
  - 2.2681725096602542e-08
  - -3.5215278672056246e-18
  - -9.979950720798888e-13
  - -1.1390617030362934e-11
  - -2.372451383097212e-13
  - -1.145483715686789e-14
  - -3.521527866872853e-18
  - 2.2681720068037165e-08
  - -8.328545223898391e-10
  - 0.09434885956460135
  - 0.0019444563651919492
  - -1.6765657947687546e-13
  - -9.979950720798886e-13
  - -8.328545223898406e-10
  - 6.3244879773147265
twist:
  twist:
    linear:
      x: 0.40604058980880836
      y: 2.0252929616491365e-06
      z: 1.2867657700977874e-17
    angular:
      x: 8.2511252013959e-18
      y: -3.755799693823595e-15
      z: 0.005974339831117519
  covariance:
  - 0.0008885164169085516
  - 4.522032690469517e-14
  - 8.348706583719584e-24
  - -3.0790986079600402e-27
  - -1.7971448859052294e-24
  - -4.390699724570846e-19
  - 4.522032690469649e-14
  - 0.0008885165091651353
  - -1.1959009334048638e-23
  - -1.4930080395669382e-24
  - -2.1918912740805325e-21
  - 5.952621226853933e-16
  - 8.348706583719585e-24
  - -1.1959009334048647e-23
  - 9.992800343491494e-07
  - -5.139382730246808e-29
  - -3.7910167062296765e-25
  - -5.401034543102033e-21
  - -3.079098607961018e-27
  - -1.493008039566944e-24
  - -5.13938273024681e-29
  - 9.997597808739493e-07
  - -3.90466456527273e-29
  - -4.207227741921154e-19
  - -1.797144885905743e-24
  - -2.1918912740805397e-21
  - -3.7910167062296793e-25
  - -3.9046645649061684e-29
  - 9.997597808739493e-07
  - 1.8113740388789562e-15
  - -4.390699724571719e-19
  - 5.952621226853941e-16
  - -5.401034543102033e-21
  - -4.207227741921155e-19
  - 1.8113740388789554e-15
  - 0.014093153735629811
---
header:
  stamp:
    sec: 1722533455
    nanosec: 94235791
  frame_id: map
child_frame_id: base_link
pose:
  pose:
    position:
      x: 0.30233259593211254
      y: -0.4138041923272656
      z: -1.7337354880313602e-15
    orientation:
      x: 1.1911034620855676e-09
      y: 1.2197247730454552e-09
      z: -0.6989934204057812
      w: 0.715128099174845
  covariance:
  - 0.05508818898510073
  - 0.00021959801630176129
  - 1.479109524039734e-17
  - -4.352757501592327e-14
  - -2.906813805555084e-11
  - 0.23850120929939336
  - 0.0002195980163017613
  - 0.046079098177742174
  - 3.857305095849911e-19
  - -9.568918764832878e-16
  - -6.396636333730177e-13
  - 0.005217630140019128
  - 1.4791095240397314e-17
  - 3.857305095849906e-19
  - 9.998876391073687e-07
  - 1.111886428502064e-20
  - -1.1956566611820765e-14
  - 4.231699811267479e-16
  - -4.3527575015923245e-14
  - -9.568918764832872e-16
  - 1.1118864285020624e-20
  - 2.3619339357335652e-08
  - -4.648243746340955e-18
  - -1.0821707568062701e-12
  - -2.906813805555079e-11
  - -6.396636333730168e-13
  - -1.1956566611820764e-14
  - -4.648243746181699e-18
  - 2.3619334772251312e-08
  - -8.315571059761241e-10
  - 0.23850120929939336
  - 0.005217630140019129
  - 4.2316998112674875e-16
  - -1.0821707568062703e-12
  - -8.315571059761255e-10
  - 6.352308421719912
twist:
  twist:
    linear:
      x: 0.40601855778962026
      y: 2.206849977009182e-06
      z: 1.7321817885294137e-20
    angular:
      x: 5.253516541742868e-18
      y: -1.1364700696659563e-14
      z: 0.001003419732957037
  covariance:
  - 0.0008681802517172724
  - 3.957904561796452e-14
  - 5.703056720942311e-24
  - -3.123505361440934e-27
  - -1.5516440728110226e-24
  - -6.590967215441493e-20
  - 3.9579045617965993e-14
  - 0.0008681803309113841
  - 5.5510441405609064e-27
  - -1.7632545984726256e-24
  - -1.8738576007888417e-21
  - 1.0336497512913166e-16
  - 5.703056720942309e-24
  - 5.5510441405609165e-27
  - 9.991025245437718e-07
  - 1.8558718111302485e-31
  - -3.9300601011934947e-25
  - -8.644292026292305e-22
  - -3.1235053614419403e-27
  - -1.7632545984726337e-24
  - 1.855871811130245e-31
  - 9.997004831121358e-07
  - -5.163869142140948e-29
  - -2.302141174848094e-18
  - -1.5516440728114919e-24
  - -1.8738576007888484e-21
  - -3.9300601011934965e-25
  - -5.163869141963764e-29
  - 9.997004831121358e-07
  - 5.667712396690114e-16
  - -6.590967215443023e-20
  - 1.0336497512913179e-16
  - -8.644292026292309e-22
  - -2.3021411748480933e-18
  - 5.667712396690114e-16
  - 0.0151972609763713
---
header:
  stamp:
    sec: 1722533455
    nanosec: 143277813
  frame_id: map
child_frame_id: base_link
pose:
  pose:
    position:
      x: 0.7514183092968881
      y: 0.4656631076498461
      z: -7.888940851083218e-16
    orientation:
      x: -1.494512501381077e-10
      y: 7.615755903958725e-10
      z: 0.19090215614808356
      w: 0.9816090702402931
  covariance:
  - 0.021162386235776248
  - -0.0005078919144065478
  - -2.1099302811438057e-18
  - 3.835752827296973e-15
  - 4.1153437172361505e-12
  - -0.033632575474332786
  - -0.0005078919144065478
  - 0.02223933757462565
  - 5.175968675296847e-18
  - -9.510823305446153e-15
  - -1.0193665134500102e-11
  - 0.08332906604452102
  - -2.1099302811438038e-18
  - 5.175968675296839e-18
  - 9.998788798885101e-07
  - 5.624163679769902e-19
  - -1.0674317290052932e-14
  - 3.3483390397822707e-16
  - 3.835752827296973e-15
  - -9.510823305446153e-15
  - 5.624163679769909e-19
  - 2.109464119889507e-08
  - -2.7001836818524333e-18
  - -5.926939691797776e-13
  - 4.115343717236146e-12
  - -1.019366513450009e-11
  - -1.0674317290052933e-14
  - -2.70018368037163e-18
  - 2.109463754475416e-08
  - -6.583559658608867e-10
  - -0.033632575474332786
  - 0.083329066044521
  - 3.348339039782274e-16
  - -5.926939691797776e-13
  - -6.583559658608874e-10
  - 5.2777943163111445
twist:
  twist:
    linear:
      x: 0.4059873040405085
      y: 2.3457336260824096e-06
      z: 7.81651626401893e-21
    angular:
      x: 8.771640779278362e-18
      y: -5.172104977627462e-15
      z: -0.0016234039856852555
  covariance:
  - 0.0008583538173271364
  - 3.8847339606422457e-14
  - 2.4844286003774605e-24
  - -3.994103215385058e-27
  - -3.281263656994305e-24
  - -2.9253729572142353e-19
  - 3.884733960642386e-14
  - 0.0008583539048507142
  - 6.572990660339322e-27
  - -1.103809691775423e-24
  - -1.6078237946486924e-21
  - -1.848534878975891e-17
  - 2.4844286003774616e-24
  - 6.572990660339332e-27
  - 9.990326784508075e-07
  - 1.8583742937175218e-29
  - -3.4951081015363802e-25
  - -1.0465516355273284e-21
  - -3.994103215385738e-27
  - -1.1038096917754286e-24
  - 1.858374293717523e-29
  - 9.996771433362394e-07
  - -2.9980806305791795e-29
  - -8.159746649576598e-19
  - -3.2812636569946306e-24
  - -1.6078237946486976e-21
  - -3.4951081015363807e-25
  - -2.9980806289304156e-29
  - 9.996771433362396e-07
  - 6.870519211453426e-16
  - -2.925372957214076e-19
  - -1.8485348789758798e-17
  - -1.046551635527329e-21
  - -8.159746649576599e-19
  - 6.870519211453428e-16
  - 0.012883036923830509
---
header:
  stamp:
    sec: 1722533455
    nanosec: 199135357
  frame_id: map
child_frame_id: base_link
pose:
  pose:
    position:
      x: 0.7724747016493915
      y: 0.4741753550362827
      z: -7.081632010368349e-16
    orientation:
      x: -1.3419298731015908e-10
      y: 6.837501499583005e-10
      z: 0.19089241043367738
      w: 0.9816109655249479
  covariance:
  - 0.05004845363636186
  - -0.0028752411715487697
  - -4.484728323433902e-18
  - 7.560087118435348e-15
  - 8.789012888596516e-12
  - -0.07868983672782649
  - -0.0028752411715487684
  - 0.05602765301642083
  - 1.1054470881236742e-17
  - -1.87208259316422e-14
  - -2.175335173193598e-11
  - 0.19478494841735092
  - -4.484728323433895e-18
  - 1.105447088123673e-17
  - 9.998735394046594e-07
  - 2.2608004407714975e-19
  - -9.938293984769282e-15
  - 3.034879705911353e-16
  - 7.560087118435343e-15
  - -1.8720825931642187e-14
  - 2.260800440771505e-19
  - 1.964318627561139e-08
  - -2.0830490846518383e-18
  - -4.85679566661123e-13
  - 8.789012888596509e-12
  - -2.175335173193595e-11
  - -9.938293984769282e-15
  - -2.0830490834492333e-18
  - 1.9643183292010385e-08
  - -5.968670425447796e-10
  - -0.07868983672782649
  - 0.1947849484173509
  - 3.034879705911358e-16
  - -4.856795666611228e-13
  - -5.9686704254478e-10
  - 5.305724401035387
twist:
  twist:
    linear:
      x: 0.4059732441347243
      y: 2.2183982271314733e-06
      z: 7.06660234270482e-21
    angular:
      x: 8.013904480875511e-18
      y: -4.643484068875616e-15
      z: -8.200668061130518e-05
  covariance:
  - 0.0008536117706177956
  - 3.521252198403081e-14
  - 2.249991018455097e-24
  - -3.314210663594935e-27
  - -2.8155281926495742e-24
  - -1.398014003466896e-20
  - 3.521252198403209e-14
  - 0.0008536118498680339
  - 5.981400934383139e-27
  - -8.893911928371744e-25
  - -1.379104036829759e-21
  - -8.094841895157292e-19
  - 2.2499910184550967e-24
  - 5.981400934383143e-27
  - 9.989901021273592e-07
  - 7.395535867325108e-30
  - -3.247536318620126e-25
  - -4.771149021800312e-23
  - -3.314210663595509e-27
  - -8.893911928371793e-25
  - 7.395535867325133e-30
  - 9.996629137865438e-07
  - -2.3127070560842427e-29
  - -8.072017247339218e-19
  - -2.8155281926498534e-24
  - -1.379104036829763e-21
  - -3.247536318620126e-25
  - -2.3127070547490424e-29
  - 9.996629137865438e-07
  - 3.1331698486645996e-17
  - -1.3980140034668194e-20
  - -8.094841895157237e-19
  - -4.771149021800318e-23
  - -8.072017247339216e-19
  - 3.1331698486646014e-17
  - 0.012892667692155534
---
header:
  stamp:
    sec: 1722533455
    nanosec: 248410889
  frame_id: map
child_frame_id: base_link
pose:
  pose:
    position:
      x: 0.31421522664860924
      y: -0.26682852026165643
      z: -2.3343416557139283e-15
    orientation:
      x: 1.5087366309508292e-09
      y: 1.7329099939162046e-09
      z: -0.6567316404035016
      w: 0.7541243614238475
  covariance:
  - 0.024630154714842933
  - 0.000254522005517217
  - 4.77157124261041e-18
  - -1.1085177580536257e-14
  - -9.399817657883111e-12
  - 0.08423578266453126
  - 0.0002545220055172169
  - 0.023051020633517535
  - 6.978339263699657e-19
  - -1.5064617959443956e-15
  - -1.2813144201607344e-12
  - 0.011458030323624288
  - 4.771571242610407e-18
  - 6.978339263699655e-19
  - 9.998570560279775e-07
  - 1.8604884498954652e-19
  - -9.100646890999312e-15
  - 2.6830797175945006e-16
  - -1.108517758053626e-14
  - -1.506461795944396e-15
  - 1.8604884498954717e-19
  - 1.7981563561748483e-08
  - -3.062638282183045e-18
  - -5.824383026662536e-13
  - -9.399817657883108e-12
  - -1.2813144201607348e-12
  - -9.100646890999317e-15
  - -3.0626382810685445e-18
  - 1.79815608106482e-08
  - -5.278933953817799e-10
  - 0.08423578266453129
  - 0.01145803032362429
  - 2.6830797175945016e-16
  - -5.824383026662534e-13
  - -5.278933953817799e-10
  - 4.536469129648779
twist:
  twist:
    linear:
      x: 0.40595394297413523
      y: 5.866608972702026e-06
      z: 2.3320010475230448e-20
    angular:
      x: 1.878357520982507e-18
      y: -1.531281704284819e-14
      z: 0.0021367717697315866
  covariance:
  - 0.0008405546229054585
  - 3.1139176060962266e-14
  - 8.15122691843644e-24
  - -4.121867867341257e-27
  - -2.455642478191626e-24
  - 9.220691190269354e-21
  - 3.1139176060963906e-14
  - 0.000840554692861199
  - 2.061833240445809e-27
  - -5.824811768008973e-25
  - -6.170748786722784e-22
  - 2.7968876464595443e-16
  - 8.151226918436441e-24
  - 2.0618332404458184e-27
  - 9.988587309930965e-07
  - 5.8351252960363566e-30
  - -2.961983642890163e-25
  - -1.2591655270838247e-21
  - -4.1218678673416944e-27
  - -5.824811768009047e-25
  - 5.8351252960363706e-30
  - 9.996189975592367e-07
  - -3.40065444077137e-29
  - -1.769745817228329e-18
  - -2.4556424781917138e-24
  - -6.170748786722844e-22
  - -2.9619836428901617e-25
  - -3.4006544395309924e-29
  - 9.996189975592367e-07
  - 8.272300153887482e-16
  - 9.22069119032124e-21
  - 2.7968876464595434e-16
  - -1.259165527083825e-21
  - -1.7697458172283294e-18
  - 8.272300153887484e-16
  - 0.012570736570210688
---
header:
  stamp:
    sec: 1722533455
    nanosec: 296572500
  frame_id: map
child_frame_id: base_link
pose:
  pose:
    position:
      x: 0.3169075339939016
      y: -0.2862261152655475
      z: -2.1800199661769445e-15
    orientation:
      x: 1.4087788670312266e-09
      y: 1.6180472714488038e-09
      z: -0.6567177074256367
      w: 0.7541364947763871
  covariance:
  - 0.053693311281385395
  - 0.000941479916480195
  - 9.308299612491434e-18
  - -2.1266712916307878e-14
  - -1.832515161867616e-11
  - 0.17246966232387714
  - 0.0009414799164801951
  - 0.04722725501291993
  - 1.3350463871121909e-18
  - -2.9207529197495203e-15
  - -2.5218872365741396e-12
  - 0.02370609792680322
  - 9.308299612491434e-18
  - 1.3350463871121905e-18
  - 9.998739107777568e-07
  - 4.59108550791813e-19
  - -8.761174598108885e-15
  - 2.517523776005497e-16
  - -2.126671291630788e-14
  - -2.9207529197495215e-15
  - 4.591085507918136e-19
  - 1.733260633480487e-08
  - -2.810058295642944e-18
  - -5.034711519297126e-13
  - -1.832515161867616e-11
  - -2.52188723657414e-12
  - -8.761174598108886e-15
  - -2.8100582946704152e-18
  - 1.7332603944829746e-08
  - -4.952304250329072e-10
  - 0.17246966232387714
  - 0.023706097926803213
  - 2.5175237760054975e-16
  - -5.034711519297125e-13
  - -4.95230425032907e-10
  - 4.560555950393738
twist:
  twist:
    linear:
      x: 0.4059484270732242
      y: 5.750665493473199e-06
      z: 2.1756743554109056e-20
    angular:
      x: 1.25825099775609e-18
      y: -1.4297707980901768e-14
      z: 0.0001822214481929925
  covariance:
  - 0.0008541995094538564
  - 2.9833462091569124e-14
  - 6.985695224717322e-24
  - -3.8867863333966846e-27
  - -2.2384863725489747e-24
  - 7.96515503699839e-22
  - 2.983346209157069e-14
  - 0.0008541995764349023
  - 1.4782984022738322e-27
  - -5.617780079171428e-25
  - -5.612055785134619e-22
  - 2.3414499879165243e-17
  - 6.98569522471732e-24
  - 1.4782984022738405e-27
  - 9.989930627677612e-07
  - 1.4951214133683192e-29
  - -2.856814140711841e-25
  - -1.0002267434726335e-22
  - -3.886786333397088e-27
  - -5.617780079171493e-25
  - 1.4951214133683217e-29
  - 9.996639032859155e-07
  - -3.120122059583225e-29
  - -2.4765304898042767e-18
  - -2.238486372549054e-24
  - -5.612055785134674e-22
  - -2.856814140711842e-25
  - -3.1201220585032013e-29
  - 9.996639032859155e-07
  - 6.569408960787831e-17
  - 7.965155037041641e-22
  - 2.3414499879165215e-17
  - -1.0002267434726333e-22
  - -2.476530489804277e-18
  - 6.569408960787829e-17
  - 0.01301350781056573
---
header:
  stamp:
    sec: 1722533455
    nanosec: 344854362
  frame_id: map
child_frame_id: base_link
pose:
  pose:
    position:
      x: 0.7671633208635932
      y: 0.4404208664873262
      z: -2.756580249290512e-16
    orientation:
      x: -3.668889780867813e-11
      y: 2.6879016858300977e-10
      z: 0.1300048015642772
      w: 0.9915133642922989
  covariance:
  - 0.021961111043640902
  - -0.00027500991593681066
  - -1.0081261254412627e-18
  - 6.672907812018829e-16
  - 1.970172738470003e-12
  - -0.01829379068992124
  - -0.0002750099159368106
  - 0.02302207571211278
  - 3.754166094673952e-18
  - -2.516563444758096e-15
  - -7.390595545604486e-12
  - 0.06864180400184591
  - -1.008126125441263e-18
  - 3.754166094673956e-18
  - 9.998852405166035e-07
  - 7.425071523529923e-19
  - -8.119889165666548e-15
  - 2.2620967574732185e-16
  - 6.6729078120188195e-16
  - -2.5165634447580877e-15
  - 7.42507152352992e-19
  - 1.6090310409391614e-08
  - -1.2139097796560457e-18
  - -1.3847557660867757e-13
  - 1.9701727384700044e-12
  - -7.390595545604494e-12
  - -8.119889165666543e-15
  - -1.2139097796265534e-18
  - 1.6090308243764978e-08
  - -4.449487297302999e-10
  - -0.018293790689921235
  - 0.0686418040018459
  - 2.262096757473217e-16
  - -1.3847557660867777e-13
  - -4.449487297302998e-10
  - 3.997992043305068
twist:
  twist:
    linear:
      x: 0.4059369207899399
      y: 2.856531994033818e-06
      z: 2.7122225618645577e-21
    angular:
      x: 9.55413540983741e-18
      y: -1.8079572224192285e-15
      z: -0.003193400969864456
  covariance:
  - 0.0008642604323242202
  - 3.254810699539572e-14
  - 8.964882902320982e-25
  - -2.53597662704056e-27
  - -2.6711949408865205e-24
  - -1.5128091238019298e-19
  - 3.25481069953974e-14
  - 0.0008642604971973336
  - 4.699749850037265e-27
  - -2.8871273644689265e-26
  - -1.8799993947233594e-22
  - 2.350103678241014e-16
  - 8.964882902320982e-25
  - 4.69974985003727e-27
  - 9.990833960837885e-07
  - 2.456108132422518e-29
  - -2.64923399003758e-25
  - -1.0646104558363162e-21
  - -2.5359766270408554e-27
  - -2.8871273644692186e-26
  - 2.4561081324225173e-29
  - 9.996940916901002e-07
  - -1.3480306765916317e-29
  - -5.233507109899344e-19
  - -2.6711949408865863e-24
  - -1.8799993947234097e-22
  - -2.6492339900375792e-25
  - -1.348030676558714e-29
  - 9.996940916901e-07
  - 6.990647000854158e-16
  - -1.5128091238022162e-19
  - 2.350103678241014e-16
  - -1.0646104558363156e-21
  - -5.23350710989934e-19
  - 6.990647000854152e-16
  - 0.013153084288490456
---
header:
  stamp:
    sec: 1722533455
    nanosec: 396923222
  frame_id: map
child_frame_id: base_link
pose:
  pose:
    position:
      x: 0.7876176171080462
      y: 0.44587869258505664
      z: -2.5095843498715806e-16
    orientation:
      x: -3.3449221547901064e-11
      y: 2.447458372370766e-10
      z: 0.12998102438997897
      w: 0.9915164816071046
  covariance:
  - 0.04831558499893321
  - -0.0014718781636717847
  - -2.1068926123389615e-18
  - 9.490677758135235e-16
  - 4.133489231095206e-12
  - -0.04018183547560362
  - -0.001471878163671784
  - 0.05354450335988209
  - 7.874902240097596e-18
  - -3.571029837893064e-15
  - -1.5497650220672635e-11
  - 0.15067187335829016
  - -2.1068926123389615e-18
  - 7.874902240097604e-18
  - 9.998736264968312e-07
  - 2.4335140487359986e-19
  - -7.958693429091037e-15
  - 2.1362077402112158e-16
  - 9.490677758135215e-16
  - -3.571029837893051e-15
  - 2.433514048736e-19
  - 1.575703679818088e-08
  - -9.03094598020603e-19
  - -8.28006196365337e-14
  - 4.133489231095208e-12
  - -1.5497650220672645e-11
  - -7.95869342909104e-15
  - -9.030945977896971e-19
  - 1.5757034890236343e-08
  - -4.203129115013565e-10
  - -0.040181835475603604
  - 0.1506718733582901
  - 2.1362077402112155e-16
  - -8.280061963653389e-14
  - -4.2031291150135644e-10
  - 4.02403685129626
twist:
  twist:
    linear:
      x: 0.40592462364010673
      y: 2.698837511486083e-06
      z: 2.5050741027847672e-21
    angular:
      x: 9.018470438737347e-18
      y: -1.6463219689130883e-15
      z: -0.00024492694359987783
  covariance:
  - 0.0008544391846224209
  - 2.931727156651657e-14
  - 8.227402807277055e-25
  - -2.049930073631149e-27
  - -2.3748056870533936e-24
  - -1.0873240014510821e-20
  - 2.931727156651809e-14
  - 0.0008544392430508773
  - 4.7564853870470336e-27
  - -1.0546092478929694e-26
  - -1.6602326648351722e-22
  - 1.7198425555792587e-17
  - 8.227402807277052e-25
  - 4.756485387047038e-27
  - 9.989907967314906e-07
  - 7.948741299787468e-30
  - -2.590498314397633e-25
  - -7.654876805829819e-23
  - -2.0499300736314067e-27
  - -1.0546092478931903e-26
  - 7.948741299787473e-30
  - 9.996631458472932e-07
  - -1.0028839983132718e-29
  - -3.367196089780579e-19
  - -2.3748056870534528e-24
  - -1.660232664835218e-22
  - -2.5904983143976344e-25
  - -1.002883998056655e-29
  - 9.99663145847293e-07
  - 5.02805479851258e-17
  - -1.08732400145129e-20
  - 1.7198425555792583e-17
  - -7.654876805829815e-23
  - -3.36719608978058e-19
  - 5.028054798512578e-17
  - 0.013315120782405352
---
header:
  stamp:
    sec: 1722533455
    nanosec: 445407676
  frame_id: map
child_frame_id: base_link
pose:
  pose:
    position:
      x: 0.37217199239001475
      y: -0.21973596319106503
      z: -3.3723564687462185e-15
    orientation:
      x: 1.9135291235156275e-09
      y: 2.7133827987089423e-09
      z: -0.5763104468086309
      w: 0.817230854103806
  covariance:
  - 0.023406232580090922
  - 0.0004146051936830033
  - 3.378722203622189e-18
  - -7.047853438291092e-15
  - -6.695124977695897e-12
  - 0.061250285098694186
  - 0.0004146051936830034
  - 0.022438273542478137
  - 1.265890239220959e-18
  - -2.4870486480958455e-15
  - -2.363539164350293e-12
  - 0.021590919276852475
  - 3.3787222036221874e-18
  - 1.265890239220959e-18
  - 9.998608528532066e-07
  - -2.164040757991941e-19
  - -7.468523171372744e-15
  - 2.0984561898687927e-16
  - -7.047853438291086e-15
  - -2.4870486480958447e-15
  - -2.1640407579919273e-19
  - 1.478001867370245e-08
  - -2.5581564574468083e-18
  - -3.972951804777051e-13
  - -6.6951249776958974e-12
  - -2.363539164350292e-12
  - -7.468523171372745e-15
  - -2.5581564547779847e-18
  - 1.4780016748668516e-08
  - -4.130213246467548e-10
  - 0.061250285098694186
  - 0.02159091927685248
  - 2.098456189868793e-16
  - -3.972951804777056e-13
  - -4.1302132464675463e-10
  - 3.580999839727784
twist:
  twist:
    linear:
      x: 0.4059090052107659
      y: 4.476183294510567e-06
      z: 3.3683629972192134e-20
    angular:
      x: -2.9276581830281953e-19
      y: -2.2127773159886072e-14
      z: 0.004514391284187546
  covariance:
  - 0.0008435430205228855
  - 2.5246222358834065e-14
  - 1.1479511163621014e-23
  - -3.5087888015079326e-27
  - -1.766146532057528e-24
  - 2.8914785180078705e-19
  - 2.5246222358835393e-14
  - 0.0008435430752380779
  - 2.4161559134712993e-28
  - 7.667026426002947e-26
  - 4.5189066645237974e-23
  - 1.6741471230427282e-16
  - 1.147951116362101e-23
  - 2.416155913471358e-28
  - 9.988889860478662e-07
  - -7.475569653853159e-30
  - -2.421031617968536e-25
  - -1.2749967129557948e-21
  - -3.5087888015081816e-27
  - 7.667026426002368e-26
  - -7.475569653853118e-30
  - 9.99629112914568e-07
  - -2.8404279490016127e-29
  - -2.352344396264355e-18
  - -1.766146532057599e-24
  - 4.518906664523409e-23
  - -2.421031617968536e-25
  - -2.840427946049894e-29
  - 9.996291129145678e-07
  - 8.379138314698352e-16
  - 2.8914785180089144e-19
  - 1.674147123042727e-16
  - -1.2749967129557942e-21
  - -2.352344396264355e-18
  - 8.379138314698348e-16
  - 0.012550163313417882
---
header:
  stamp:
    sec: 1722533455
    nanosec: 500558204
  frame_id: map
child_frame_id: base_link
pose:
  pose:
    position:
      x: 0.3796974862327613
      y: -0.24084567410046756
      z: -3.1492701438064242e-15
    orientation:
      x: 1.7864953940930463e-09
      y: 2.5330817386667445e-09
      z: -0.5762852203729469
      w: 0.8172486431800936
  covariance:
  - 0.05517027061980191
  - 0.001902523295909128
  - 7.270424275995092e-18
  - -1.4880897067140098e-14
  - -1.4361051977539945e-11
  - 0.1371210673181328
  - 0.0019025232959091283
  - 0.05054286761942907
  - 2.6705746820989816e-18
  - -5.279036869226216e-15
  - -5.0982125022920765e-12
  - 0.04864005933762422
  - 7.270424275995087e-18
  - 2.6705746820989823e-18
  - 9.9988689611889e-07
  - 2.9568209308628133e-19
  - -7.222020242110031e-15
  - 1.9665713252828505e-16
  - -1.488089706714008e-14
  - -5.279036869226211e-15
  - 2.956820930862825e-19
  - 1.4332110897020958e-08
  - -2.414595739401181e-18
  - -3.0864627814889385e-13
  - -1.4361051977539942e-11
  - -5.098212502292076e-12
  - -7.222020242110033e-15
  - -2.4145957371366596e-18
  - 1.4332109230501928e-08
  - -3.8694300314884305e-10
  - 0.13712106731813278
  - 0.048640059337624206
  - 1.9665713252828493e-16
  - -3.0864627814889405e-13
  - -3.869430031488429e-10
  - 3.608585281131484
twist:
  twist:
    linear:
      x: 0.4059053011027673
      y: 4.411213552973569e-06
      z: 3.1430331675178444e-20
    angular:
      x: -1.5544449940727753e-18
      y: -2.0656734793408942e-14
      z: 0.00023617928933464233
  covariance:
  - 0.0008653665454355751
  - 2.4377155207054077e-14
  - 9.23859226463025e-24
  - -3.3851879512200705e-27
  - -1.6140977181766385e-24
  - 1.4835164289425975e-20
  - 2.4377155207055367e-14
  - 0.0008653665982444141
  - -7.390770404506793e-28
  - 7.610810516061018e-26
  - 4.241890002401286e-23
  - 8.663438883184338e-18
  - 9.238592264630254e-24
  - -7.390770404506744e-28
  - 9.990965986168128e-07
  - 9.598516164486827e-30
  - -2.3507665621520704e-25
  - -6.201792641328686e-23
  - -3.3851879512203094e-27
  - 7.610810516060456e-26
  - 9.598516164486861e-30
  - 9.996985032737243e-07
  - -2.680840104013033e-29
  - -3.543917040369423e-18
  - -1.614097718176704e-24
  - 4.241890002400929e-23
  - -2.3507665621520695e-25
  - -2.6808401014985405e-29
  - 9.996985032737243e-07
  - 4.0740832713294734e-17
  - 1.4835164289431325e-20
  - 8.663438883184335e-18
  - -6.201792641328686e-23
  - -3.543917040369424e-18
  - 4.0740832713294746e-17
  - 0.013218496205093208
---
header:
  stamp:
    sec: 1722533455
    nanosec: 547497677
  frame_id: map
child_frame_id: base_link
pose:
  pose:
    position:
      x: 0.7460434951471602
      y: 0.4089289590652283
      z: 1.677763082795563e-16
    orientation:
      x: 1.155607819304458e-11
      y: -1.6484123434719805e-10
      z: 0.09256928437892262
      w: 0.9957062456314986
  covariance:
  - 0.023491607999484854
  - -0.00013479692903845724
  - -6.176468680258671e-19
  - -8.200527210709814e-16
  - 1.2224706495990566e-12
  - -0.011409608056531134
  - -0.0001347969290384572
  - 0.024501733874233256
  - 3.309698086895493e-18
  - 4.363492304801518e-15
  - -6.516256477934045e-12
  - 0.06084011129312755
  - -6.176468680258674e-19
  - 3.3096980868954935e-18
  - 9.998533966982015e-07
  - 8.040184282815214e-19
  - -6.867419450642387e-15
  - 1.8259775500687037e-16
  - -8.200527210709818e-16
  - 4.3634923048015185e-15
  - 8.040184282815217e-19
  - 1.3592358770990138e-08
  - -4.1533710121890133e-20
  - 2.410928594313342e-13
  - 1.2224706495990568e-12
  - -6.516256477934047e-12
  - -6.8674194506423876e-15
  - -4.1533710277604964e-20
  - 1.3592357237513355e-08
  - -3.594738319920035e-10
  - -0.011409608056531134
  - 0.06084011129312758
  - 1.8259775500687025e-16
  - 2.41092859431334e-13
  - -3.594738319920034e-10
  - 3.253192384153988
twist:
  twist:
    linear:
      x: 0.40588785964860524
      y: 2.6098429990504194e-06
      z: -1.6912501613796322e-21
    angular:
      x: 2.501190440689453e-17
      y: 1.1010572694042545e-15
      z: -0.00635358447481767
  covariance:
  - 0.0008381745482004101
  - 2.306593934321449e-14
  - -5.1875264370213635e-25
  - -6.87636604407027e-28
  - -1.8654139832263623e-24
  - -2.1746623656148766e-20
  - 2.3065939343215816e-14
  - 0.0008381745962815687
  - 1.3661850135014704e-26
  - -4.532984044109604e-26
  - 1.6678078000358285e-22
  - 1.145551376090746e-16
  - -5.187526437021366e-25
  - 1.3661850135014716e-26
  - 9.98829574823161e-07
  - 2.6639840936287993e-29
  - -2.218164649874725e-25
  - -6.709293308471931e-22
  - -6.876366044071157e-28
  - -4.532984044109644e-26
  - 2.663984093628798e-29
  - 9.996092487630084e-07
  - -4.62503984327734e-31
  - -2.5508897058671773e-19
  - -1.86541398322637e-24
  - 1.6678078000357968e-22
  - -2.2181646498747252e-25
  - -4.625039863759848e-31
  - 9.996092487630081e-07
  - 4.410136339977163e-16
  - -2.1746623656155898e-20
  - 1.1455513760907449e-16
  - -6.709293308471926e-22
  - -2.550889705867175e-19
  - 4.410136339977163e-16
  - 0.012676649373482712
---
header:
  stamp:
    sec: 1722533455
    nanosec: 598916899
  frame_id: map
child_frame_id: base_link
pose:
  pose:
    position:
      x: 0.7665821459297802
      y: 0.4127808075958711
      z: 1.6838857220284578e-16
    orientation:
      x: 1.1822419156922393e-11
      y: -1.653608717709215e-10
      z: 0.09252087426566406
      w: 0.9957107450585824
  covariance:
  - 0.04933833086722313
  - -0.0008618019373417803
  - -1.251445694807626e-18
  - -2.0737083786997042e-15
  - 2.472100182939879e-12
  - -0.023983829585136916
  - -0.0008618019373417801
  - 0.054088783570081296
  - 6.698797218367604e-18
  - 1.1048567515745459e-14
  - -1.3179893947324736e-11
  - 0.12789071140886044
  - -1.2514456948076273e-18
  - 6.698797218367606e-18
  - 9.99893101379018e-07
  - 2.652744450908519e-19
  - -6.799936924137197e-15
  - 1.7393932510659034e-16
  - -2.0737083786997054e-15
  - 1.1048567515745466e-14
  - 2.6527444509085177e-19
  - 1.3517159935364741e-08
  - 2.0050728685616386e-19
  - 2.831504702041793e-13
  - 2.4721001829398806e-12
  - -1.3179893947324741e-11
  - -6.799936924137194e-15
  - 2.0050728654367313e-19
  - 1.351715855869488e-08
  - -3.4226715055390585e-10
  - -0.023983829585136902
  - 0.1278907114088605
  - 1.7393932510659022e-16
  - 2.831504702041789e-13
  - -3.422671505539056e-10
  - 3.2789148125720473
twist:
  twist:
    linear:
      x: 0.4058876671150632
      y: 2.6030523291533416e-06
      z: -1.6810774134148632e-21
    angular:
      x: 2.3510466581404412e-17
      y: 1.1046431714233957e-15
      z: -0.0005042854172687358
  covariance:
  - 0.0008715151762128639
  - 2.3016399160051857e-14
  - -4.877353383562727e-25
  - -3.4707948734870714e-28
  - -1.7634265193633265e-24
  - -1.6818926448622503e-21
  - 2.301639916005316e-14
  - 0.0008715152241880869
  - 1.0152522904543056e-26
  - -7.022873599590084e-26
  - 1.5807037194586092e-22
  - 9.105919573304122e-18
  - -4.877353383562726e-25
  - 1.0152522904543049e-26
  - 9.99146088432224e-07
  - 8.691969079427799e-30
  - -2.214068597012531e-25
  - -5.04492796173169e-23
  - -3.470794873487896e-28
  - -7.022873599590064e-26
  - 8.691969079427803e-30
  - 9.997150385149919e-07
  - 2.2264443275356235e-30
  - 1.7066142129897695e-19
  - -1.7634265193633353e-24
  - 1.580703719458579e-22
  - -2.2140685970125313e-25
  - 2.2264443240641612e-30
  - 9.997150385149919e-07
  - 3.3133840728108644e-17
  - -1.6818926448628113e-21
  - 9.105919573304108e-18
  - -5.04492796173169e-23
  - 1.7066142129897695e-19
  - 3.313384072810865e-17
  - 0.01373424363838
---
header:
  stamp:
    sec: 1722533455
    nanosec: 641350218
  frame_id: map
child_frame_id: base_link
pose:
  pose:
    position:
      x: 0.44914000927995934
      y: -0.1884653743275329
      z: 3.435613104807691e-16
    orientation:
      x: -1.975145459530923e-10
      y: -3.3377203430174194e-10
      z: -0.501872960013985
      w: 0.8649413459922014
  covariance:
  - 0.021119963258774223
  - 0.0004132014391918113
  - 6.4834618864687604e-18
  - 3.9832995808896986e-15
  - -4.8709317542339465e-12
  - 0.0431358268362744
  - 0.00041320143919181126
  - 0.020632539735360434
  - -6.095475894699106e-18
  - 2.2513219668453647e-15
  - -2.7582385738035234e-12
  - 0.02438712581036897
  - 6.483461886468761e-18
  - -6.095475894699104e-18
  - 9.998630603402745e-07
  - 2.6421950082735054e-19
  - -6.5932498691350326e-15
  - 1.6600767073991316e-16
  - 3.983299580889706e-15
  - 2.2513219668453682e-15
  - 2.642195008273506e-19
  - 1.3063897485031455e-08
  - 3.475205170506898e-19
  - 2.732634583296858e-13
  - -4.87093175423395e-12
  - -2.758238573803524e-12
  - -6.593249869135032e-15
  - 3.4752051705551533e-19
  - 1.3063895960825923e-08
  - -3.645530699647514e-10
  - 0.043135826836274406
  - 0.024387125810368965
  - 1.6600767073991303e-16
  - 2.7326345832968545e-13
  - -3.6455306996475117e-10
  - 2.9833150409384066
twist:
  twist:
    linear:
      x: 0.40587252712821686
      y: 3.1195871998411414e-06
      z: 1.6427976574915213e-20
    angular:
      x: 2.2175434806236222e-17
      y: 2.584233393194016e-15
      z: -0.0007196613064410699
  covariance:
  - 0.0008457571897400892
  - 2.0290033681469444e-14
  - -1.344131901482508e-24
  - -2.3028365948268125e-28
  - -1.485520691702336e-24
  - 8.017700053790229e-20
  - 2.0290033681470558e-14
  - 0.0008457572349194148
  - 7.153164797818404e-27
  - -1.3035184220833164e-25
  - 1.9507638376881557e-22
  - 9.487978567816223e-17
  - -1.3441319014825086e-24
  - 7.153164797818412e-27
  - 9.989065780941554e-07
  - 8.617441459781746e-30
  - -2.1314266707539985e-25
  - -1.7958499793090792e-21
  - -2.3028365948274237e-28
  - -1.303518422083312e-25
  - 8.617441459781748e-30
  - 9.996349941399415e-07
  - 3.858941600483193e-30
  - 2.3950909796610765e-19
  - -1.4855206917023441e-24
  - 1.950763837688129e-22
  - -2.131426670754e-25
  - 3.858941600569665e-30
  - 9.996349941399415e-07
  - 1.1801161463060845e-15
  - 8.017700053786818e-20
  - 9.487978567816224e-17
  - -1.7958499793090792e-21
  - 2.3950909796610774e-19
  - 1.1801161463060849e-15
  - 0.012794856008653727
---
header:
  stamp:
    sec: 1722533455
    nanosec: 697391890
  frame_id: map
child_frame_id: base_link
pose:
  pose:
    position:
      x: 0.4604395267063415
      y: -0.20823273089180722
      z: 3.7218516719232287e-16
    orientation:
      x: -1.8661901856519048e-10
      y: -3.1541871132455566e-10
      z: -0.5018765934390521
      w: 0.8649392377259876
  covariance:
  - 0.052017196069706506
  - 0.0020516413177012645
  - 5.773868018591159e-18
  - 8.877113429990333e-15
  - -1.1357262744003325e-11
  - 0.10235475658325492
  - 0.002051641317701264
  - 0.0495876903791496
  - 3.277226911161782e-18
  - 5.0499827632743135e-15
  - -6.4677008105500405e-12
  - 0.058238670299601086
  - 5.773868018591159e-18
  - 3.277226911161783e-18
  - 9.998783584496688e-07
  - 2.0100422711782613e-19
  - -6.494988190784896e-15
  - 1.7574829600594577e-16
  - 8.877113429990352e-15
  - 5.049982763274316e-15
  - 2.010042271178261e-19
  - 1.289145543466292e-08
  - 3.322090805183883e-19
  - 2.494971110916105e-13
  - -1.1357262744003327e-11
  - -6.46770081055004e-12
  - -6.4949881907848935e-15
  - 3.3220908052252613e-19
  - 1.2891454092605108e-08
  - -3.459752980668625e-10
  - 0.10235475658325494
  - 0.05823867029960109
  - 1.7574829600594567e-16
  - 2.494971110916101e-13
  - -3.459752980668624e-10
  - 3.011348797834123
twist:
  twist:
    linear:
      x: 0.4058673802055896
      y: 3.068273921108457e-06
      z: -3.714223579117425e-21
    angular:
      x: 2.074376062706435e-17
      y: 2.4422611957814454e-15
      z: -3.6698867678631425e-05
  covariance:
  - 0.0008578112416704765
  - 1.9136841696920084e-14
  - -1.1473675683708075e-24
  - -1.7876492964115998e-28
  - -1.3574389028958365e-24
  - 3.423287762495724e-21
  - 1.9136841696921128e-14
  - 0.0008578112841911886
  - 9.47159173861789e-27
  - -1.2462726427537404e-25
  - 1.804589482204239e-22
  - 4.9743398619785374e-18
  - -1.1473675683708075e-24
  - 9.471591738617894e-27
  - 9.990285210421402e-07
  - 6.517751342387892e-30
  - -2.1050437169930077e-25
  - -8.577014077117098e-23
  - -1.7876492964121509e-28
  - -1.2462726427537358e-25
  - 6.51775134238789e-30
  - 9.996757539558163e-07
  - 3.6884103559878444e-30
  - 4.152833910107851e-19
  - -1.3574389028958442e-24
  - 1.8045894822042166e-22
  - -2.105043716993007e-25
  - 3.6884103560341916e-30
  - 9.996757539558163e-07
  - 5.63747118895202e-17
  - 3.423287762494026e-21
  - 4.974339861978531e-18
  - -8.577014077117095e-23
  - 4.152833910107852e-19
  - 5.637471188952017e-17
  - 0.013010883205261798
---
header:
  stamp:
    sec: 1722533455
    nanosec: 743966743
  frame_id: map
child_frame_id: base_link
pose:
  pose:
    position:
      x: 0.7422926399726305
      y: 0.36372197611563484
      z: -5.145934146436839e-16
    orientation:
      x: -2.3024229278959175e-11
      y: 5.062604547266138e-10
      z: 0.03973694505467575
      w: 0.9992101756876386
  covariance:
  - 0.021692037615445067
  - -1.1035142701415583e-05
  - -2.339503697640816e-19
  - -9.102690610812182e-17
  - 4.393753157646955e-13
  - -0.0037998159115952717
  - -1.1035142701415583e-05
  - 0.022477329083331506
  - 2.8368814901478554e-18
  - 1.126528291909404e-15
  - -5.590192904049245e-12
  - 0.04841980086465824
  - -2.3395036976408146e-19
  - 2.8368814901478554e-18
  - 9.99873196241764e-07
  - -1.1437430359042789e-19
  - -6.230398278693634e-15
  - 1.667429539266105e-16
  - -9.102690610812199e-17
  - 1.1265282919094073e-15
  - -1.1437430359042825e-19
  - 1.236389601688296e-08
  - -2.9031466393026154e-19
  - 6.440622525315003e-14
  - 4.393753157646958e-13
  - -5.590192904049247e-12
  - -6.230398278693635e-15
  - -2.903146646162086e-19
  - 1.236389476335249e-08
  - -3.2829312597962827e-10
  - -0.0037998159115952717
  - 0.04841980086465824
  - 1.6674295392661058e-16
  - 6.440622525314989e-14
  - -3.282931259796281e-10
  - 2.766087578948346
twist:
  twist:
    linear:
      x: 0.4058575213622369
      y: 2.7812882896419444e-06
      z: 5.097645755632573e-21
    angular:
      x: 1.9252796025974085e-17
      y: -3.377549895963137e-15
      z: 0.002615610039682464
  covariance:
  - 0.0008540457668567937
  - 1.8565825181443023e-14
  - 1.6464090081748206e-24
  - -3.1610926178173636e-28
  - -1.617016449163583e-24
  - 1.5076669904784948e-19
  - 1.8565825181443862e-14
  - 0.0008540458093176737
  - 9.381999824106273e-27
  - -3.7576035517873695e-26
  - 1.7424820176702232e-22
  - 1.6444796357433144e-17
  - 1.6464090081748193e-24
  - 9.381999824106275e-27
  - 9.98987366847223e-07
  - -3.971442302862811e-30
  - -2.0154218651394954e-25
  - -7.266625934366384e-22
  - -3.1610926178159466e-28
  - -3.7576035517874286e-26
  - -3.971442302862822e-30
  - 9.996619994676956e-07
  - -3.2234670874671504e-30
  - -2.8073063152689483e-19
  - -1.6170164491636992e-24
  - 1.7424820176702016e-22
  - -2.0154218651394951e-25
  - -3.2234670950819226e-30
  - 9.996619994676956e-07
  - 4.776264060187495e-16
  - 1.5076669904764742e-19
  - 1.6444796357433048e-17
  - -7.266625934366384e-22
  - -2.8073063152689497e-19
  - 4.776264060187493e-16
  - 0.012965864109541595
---
header:
  stamp:
    sec: 1722533455
    nanosec: 800039090
  frame_id: map
child_frame_id: base_link
pose:
  pose:
    position:
      x: 0.7649977425456123
      y: 0.3655316617143964
      z: -4.879076349858337e-16
    orientation:
      x: -2.1796162839590664e-11
      y: 4.800201563657043e-10
      z: 0.03975615061419131
      w: 0.9992094117292639
  covariance:
  - 0.04975180353050475
  - -0.0002990645211965672
  - -5.06168045386446e-19
  - -1.4344426204468885e-16
  - 9.73247440491004e-13
  - -0.008828726972769122
  - -0.0002990645211965673
  - 0.054144533942556375
  - 6.237048383132522e-18
  - 1.7799567785982924e-15
  - -1.228262797944464e-11
  - 0.11150494606375497
  - -5.061680453864462e-19
  - 6.237048383132524e-18
  - 9.99874288611434e-07
  - 1.4464078120836379e-19
  - -6.1673609393787735e-15
  - 1.5766800087454226e-16
  - -1.4344426204468912e-16
  - 1.7799567785982967e-15
  - 1.446407812083634e-19
  - 1.2242226070496305e-08
  - -3.340805401300936e-19
  - 5.569581044622267e-14
  - 9.732474404910042e-13
  - -1.2282627979444648e-11
  - -6.1673609393787735e-15
  - -3.3408054075360785e-19
  - 1.224222496132412e-08
  - -3.1044522780408564e-10
  - -0.008828726972769119
  - 0.11150494606375495
  - 1.5766800087454234e-16
  - 5.569581044622253e-14
  - -3.1044522780408554e-10
  - 2.7941376646239284
twist:
  twist:
    linear:
      x: 0.4058506573088458
      y: 2.6535142497128947e-06
      z: 4.869608711881553e-21
    angular:
      x: 1.7962564985269804e-17
      y: -3.2023255359318326e-15
      z: 0.00013149815179870907
  covariance:
  - 0.0008546227690484894
  - 1.7032347703008243e-14
  - 1.560936970567611e-24
  - -3.8524126768405684e-28
  - -1.4543320117695124e-24
  - 7.271377033500478e-21
  - 1.703234770300902e-14
  - 0.0008546228079964586
  - 8.517745340454089e-27
  - -2.3292646001315488e-26
  - 1.5770197101579242e-22
  - 8.447022957390245e-19
  - 1.5609369705676105e-24
  - 8.517745340454092e-27
  - 9.989960748652594e-07
  - 4.664376789074456e-30
  - -1.9945940143597793e-25
  - -3.432315373562396e-23
  - -3.8524126768393675e-28
  - -2.3292646001316148e-26
  - 4.6643767890744434e-30
  - 9.996649099989926e-07
  - -3.7095458581414735e-30
  - -5.423065318158006e-19
  - -1.4543320117696176e-24
  - 1.5770197101579045e-22
  - -1.9945940143597789e-25
  - -3.7095458650603636e-30
  - 9.996649099989926e-07
  - 2.2562256198206968e-17
  - 7.271377033490774e-21
  - 8.447022957390203e-19
  - -3.432315373562394e-23
  - -5.423065318158008e-19
  - 2.2562256198206965e-17
  - 0.012992083359695036
---
header:
  stamp:
    sec: 1722533455
    nanosec: 847162609
  frame_id: map
child_frame_id: base_link
pose:
  pose:
    position:
      x: 0.5199856702086783
      y: -0.13666837726027287
      z: -2.6884200555312824e-15
    orientation:
      x: 1.1268346335062446e-09
      y: 2.3960030501174747e-09
      z: -0.4260698016525682
      w: 0.9046902918235286
  covariance:
  - 0.023495264708939888
  - 0.0004892361887787054
  - 2.18615045611693e-18
  - -2.481254024306886e-15
  - -4.381249764509148e-12
  - 0.03708681822276966
  - 0.0004892361887787051
  - 0.023262769163924755
  - 1.8721190646911273e-18
  - -2.035053201240518e-15
  - -3.5948083564480235e-12
  - 0.03040021358402627
  - 2.1861504561169307e-18
  - 1.8721190646911265e-18
  - 9.99875370224746e-07
  - -2.0376711072106795e-19
  - -5.9476750299171615e-15
  - 1.6308798373615524e-16
  - -2.4812540243068854e-15
  - -2.0350532012405157e-15
  - -2.0376711072106812e-19
  - 1.1812143078884548e-08
  - -1.2453127511067096e-18
  - -1.5784683883386857e-13
  - -4.381249764509148e-12
  - -3.5948083564480215e-12
  - -5.947675029917162e-15
  - -1.245312751132245e-18
  - 1.1812141885574915e-08
  - -3.21142699291765e-10
  - 0.03708681822276965
  - 0.030400213584026285
  - 1.630879837361553e-16
  - -1.5784683883386862e-13
  - -3.2114269929176504e-10
  - 2.5838328813076963
twist:
  twist:
    linear:
      x: 0.40584313509980297
      y: 2.9297966538953976e-06
      z: 2.6853505550907965e-20
    angular:
      x: 9.518107890689696e-18
      y: -1.7645539146752117e-14
      z: 0.0035714238022358695
  covariance:
  - 0.0008554306254658357
  - 1.551687077179249e-14
  - 8.436835906194986e-24
  - -1.333612895293597e-27
  - -1.1446366153878981e-24
  - 3.300585624050247e-19
  - 1.5516870771793182e-14
  - 0.0008554306640732826
  - 4.6441735984980725e-27
  - 1.1098608224068392e-25
  - 1.7259161925691581e-22
  - 3.542870918013823e-17
  - 8.436835906194984e-24
  - 4.644173598498073e-27
  - 9.990046974890928e-07
  - -6.948558172850119e-30
  - -1.9219007699469642e-25
  - -9.738909936624766e-22
  - -1.3336128952935566e-27
  - 1.109860822406819e-25
  - -6.948558172850121e-30
  - 9.99667791894634e-07
  - -1.382659305107055e-29
  - -2.0430551268904005e-18
  - -1.1446366153879828e-24
  - 1.7259161925691405e-22
  - -1.921900769946965e-25
  - -1.3826593051408375e-29
  - 9.99667791894634e-07
  - 6.402808798052127e-16
  - 3.3005856240504153e-19
  - 3.54287091801381e-17
  - -9.738909936624774e-22
  - -2.0430551268904005e-18
  - 6.4028087980521285e-16
  - 0.012881225246059048
---
header:
  stamp:
    sec: 1722533455
    nanosec: 896195548
  frame_id: map
child_frame_id: base_link
pose:
  pose:
    position:
      x: 0.5326724013178962
      y: -0.15202257446332915
      z: -2.5706106472660898e-15
    orientation:
      x: 1.0775771627412452e-09
      y: 2.291093994045424e-09
      z: -0.42604565797035127
      w: 0.9047016620547408
  covariance:
  - 0.049762598789377825
  - 0.0019316302708972135
  - 4.476298613108103e-18
  - -4.898230676158784e-15
  - -8.895915532180404e-12
  - 0.07691543287639675
  - 0.0019316302708972115
  - 0.048968688905454284
  - 3.770347454132758e-18
  - -4.030637566532266e-15
  - -7.326450559782778e-12
  - 0.06331049607755151
  - 4.476298613108105e-18
  - 3.770347454132761e-18
  - 9.998748555707976e-07
  - 1.3356515871211194e-19
  - -5.9706202720514185e-15
  - 1.5683062681304236e-16
  - -4.898230676158781e-15
  - -4.030637566532264e-15
  - 1.3356515871211194e-19
  - 1.1857090553685218e-08
  - -1.2469830444673006e-18
  - -9.721636868316466e-14
  - -8.895915532180409e-12
  - -7.326450559782784e-12
  - -5.970620272051419e-15
  - -1.2469830444830963e-18
  - 1.1857089467114545e-08
  - -3.0883149984400513e-10
  - 0.07691543287639674
  - 0.06331049607755156
  - 1.5683062681304238e-16
  - -9.721636868316471e-14
  - -3.088314998440053e-10
  - 2.6083629605054917
twist:
  twist:
    linear:
      x: 0.4058375840308106
      y: 2.8265789391321347e-06
      z: 2.5661028877204588e-20
    angular:
      x: 8.162774852427717e-18
      y: -1.6874488174930513e-14
      z: 0.000296028898382222
  covariance:
  - 0.0008555477430263897
  - 1.437870424992873e-14
  - 8.366908826902824e-24
  - -1.3225934229721696e-27
  - -1.0512690787644049e-24
  - 2.6265936240128736e-20
  - 1.437870424992937e-14
  - 0.0008555477788010149
  - 3.823336322280872e-27
  - 1.1701097826179756e-25
  - 1.5888671752389463e-22
  - 2.8712579887304344e-18
  - 8.366908826902821e-24
  - 3.823336322280873e-27
  - 9.9900059484035e-07
  - 4.286667484256234e-30
  - -1.9298910049080584e-25
  - -7.696629862695468e-23
  - -1.3225934229721407e-27
  - 1.170109782617956e-25
  - 4.2866674842562336e-30
  - 9.996664206332862e-07
  - -1.384788026075717e-29
  - -3.0474110542759946e-18
  - -1.0512690787644833e-24
  - 1.5888671752389315e-22
  - -1.929891004908059e-25
  - -1.384788026093948e-29
  - 9.996664206332862e-07
  - 5.0595322587371013e-17
  - 2.626593624013008e-20
  - 2.871257988730424e-18
  - -7.696629862695472e-23
  - -3.0474110542759958e-18
  - 5.059532258737102e-17
  - 0.013285251971672072
---
header:
  stamp:
    sec: 1722533455
    nanosec: 943043080
  frame_id: map
child_frame_id: base_link
pose:
  pose:
    position:
      x: 0.7453411379560206
      y: 0.312781023373268
      z: -2.5194569670663966e-15
    orientation:
      x: 1.920021137361167e-11
      y: 2.4815796329661074e-09
      z: -0.008069606084059586
      w: 0.9999674401987537
  covariance:
  - 0.020203012951007654
  - 6.503770581378102e-05
  - -1.385514313391082e-20
  - -3.691773922161342e-17
  - -8.251448098761236e-14
  - 0.0006978941588813984
  - 6.503770581378102e-05
  - 0.02078954000804691
  - 2.399813820442256e-18
  - -1.7510933801927968e-15
  - -4.728264984864175e-12
  - 0.03962760061759677
  - -1.3855143133910855e-20
  - 2.3998138204422555e-18
  - 9.998733136264546e-07
  - 9.20816411586966e-20
  - -5.770174932964952e-15
  - 1.509279410468533e-16
  - -3.691773922161343e-17
  - -1.7510933801927958e-15
  - 9.20816411586966e-20
  - 1.1461019098062093e-08
  - -1.3411119775711777e-18
  - -9.046441532608779e-14
  - -8.251448098761231e-14
  - -4.72826498486417e-12
  - -5.770174932964952e-15
  - -1.3411119776408794e-18
  - 1.1461018076579837e-08
  - -2.9723760188203055e-10
  - 0.0006978941588813986
  - 0.03962760061759677
  - 1.5092794104685352e-16
  - -9.046441532608788e-14
  - -2.9723760188203096e-10
  - 2.4262465444070447
twist:
  twist:
    linear:
      x: 0.4058303992377926
      y: 2.819978927661817e-06
      z: 2.5100075124981162e-20
    angular:
      x: 5.5031509559235264e-18
      y: -1.6538530791465422e-14
      z: 0.0006628788531637433
  covariance:
  - 0.0008536477419473589
  - 1.3750093211679436e-14
  - 8.034219497638206e-24
  - -1.1634090675833454e-27
  - -9.933576469875056e-25
  - 5.686284436289041e-19
  - 1.3750093211680058e-14
  - 0.0008536477778013701
  - 2.526397493803793e-27
  - 1.1471140947071186e-25
  - 1.3390667151173598e-22
  - -1.2751532080378273e-17
  - 8.034219497638209e-24
  - 2.526397493803795e-27
  - 9.989883023898075e-07
  - 2.904659756823848e-30
  - -1.8618860289249085e-25
  - -7.324101032639962e-22
  - -1.163409067583349e-27
  - 1.1471140947070993e-25
  - 2.904659756823847e-30
  - 9.99662312222339e-07
  - -1.4890628961183683e-29
  - -2.018002969974999e-18
  - -9.933576469876134e-25
  - 1.3390667151173452e-22
  - -1.8618860289249087e-25
  - -1.489062896196801e-29
  - 9.99662312222339e-07
  - 4.816026681490812e-16
  - 5.686284436289241e-19
  - -1.27515320803783e-17
  - -7.324101032639962e-22
  - -2.018002969975e-18
  - 4.816026681490811e-16
  - 0.012725834225392477
---
header:
  stamp:
    sec: 1722533455
    nanosec: 993632232
  frame_id: map
child_frame_id: base_link
pose:
  pose:
    position:
      x: 0.7658869980161215
      y: 0.3124500132248422
      z: -2.406320434356097e-15
    orientation:
      x: 1.8348883214752432e-11
      y: 2.3701655515174758e-09
      z: -0.008064559203718435
      w: 0.9999674809136794
  covariance:
  - 0.04549906153117996
  - 0.00010903824131649438
  - 2.608323549577757e-20
  - -5.4440331299311417e-17
  - -1.729440538716457e-13
  - 0.001503982913670113
  - 0.00010903824131649445
  - 0.048741087037425426
  - 5.262511342631148e-18
  - -2.8575422348836015e-15
  - -1.03621135563362e-11
  - 0.0896881651320216
  - 2.6083235495777507e-20
  - 5.262511342631144e-18
  - 9.998756098851137e-07
  - 1.502974202225967e-19
  - -5.830145847418265e-15
  - 1.4505653024714896e-16
  - -5.444033129931141e-17
  - -2.8575422348835987e-15
  - 1.5029742022259663e-19
  - 1.158286715510499e-08
  - -1.2467704927925257e-18
  - -9.41163272150032e-15
  - -1.7294405387164552e-13
  - -1.0362113556336194e-11
  - -5.830145847418265e-15
  - -1.2467704928520261e-18
  - 1.1582866222414165e-08
  - -2.8567499083587646e-10
  - 0.0015039829136701132
  - 0.0896881651320216
  - 1.450565302471492e-16
  - -9.41163272150042e-15
  - -2.856749908358768e-10
  - 2.451555822427797
twist:
  twist:
    linear:
      x: 0.40582562396563704
      y: 2.704949609286204e-06
      z: 2.402584118854596e-20
    angular:
      x: 5.106437865560264e-18
      y: -1.579835361549849e-14
      z: 5.365345732537821e-05
  covariance:
  - 0.0008566991911740688
  - 1.27815467252791e-14
  - 7.98431270408024e-24
  - -1.087202063177154e-27
  - -9.141730812114232e-25
  - 4.42661685030475e-20
  - 1.2781546725279683e-14
  - 0.0008566992245296078
  - 2.394229748216391e-27
  - 1.086046403055846e-25
  - 1.2468958201610734e-22
  - -8.323118799840587e-19
  - 7.984312704080235e-24
  - 2.3942297482163935e-27
  - 9.990066085264025e-07
  - 4.8531732842411e-30
  - -1.883986196806471e-25
  - -5.66170543230765e-23
  - -1.0872020631771592e-27
  - 1.0860464030558289e-25
  - 4.8531732842410996e-30
  - 9.996684304724614e-07
  - -1.3847350456769261e-29
  - -3.006726404109227e-18
  - -9.141730812115229e-25
  - 1.2468958201610598e-22
  - -1.8839861968064722e-25
  - -1.3847350457429923e-29
  - 9.996684304724614e-07
  - 3.721708011225625e-17
  - 4.4266168503049054e-20
  - -8.323118799840606e-19
  - -5.66170543230765e-23
  - -3.0067264041092266e-18
  - 3.721708011225623e-17
  - 0.013618767172529765
---
header:
  stamp:
    sec: 1722533456
    nanosec: 42473886
  frame_id: map
child_frame_id: base_link
pose:
  pose:
    position:
      x: 0.5972479456800693
      y: -0.08248338949552596
      z: -2.602368303126946e-15
    orientation:
      x: 9.078421443217217e-10
      y: 2.397575128194427e-09
      z: -0.3539350668978698
      w: 0.9352699976049699
  covariance:
  - 0.021070677620935768
  - 0.00037826688798726205
  - 1.4380271445781894e-18
  - -1.068700625155844e-15
  - -2.9136012252154837e-12
  - 0.025656371977079432
  - 0.0003782668879872618
  - 0.02107229159388798
  - 1.6953490801189849e-18
  - -1.2011827881241604e-15
  - -3.2704478558995495e-12
  - 0.02878324748376303
  - 1.4380271445781872e-18
  - 1.6953490801189831e-18
  - 9.998649878494371e-07
  - -7.876065234105035e-20
  - -5.708596503165042e-15
  - 1.3464303768135138e-16
  - -1.0687006251558417e-15
  - -1.2011827881241574e-15
  - -7.876065234105026e-20
  - 1.133015575966175e-08
  - -1.4772661707028823e-18
  - -7.795165852597633e-14
  - -2.91360122521548e-12
  - -3.270447855899545e-12
  - -5.708596503165043e-15
  - -1.477266170410579e-18
  - 1.1330154923342012e-08
  - -2.652212278907725e-10
  - 0.02565637197707943
  - 0.02878324748376303
  - 1.3464303768135155e-16
  - -7.795165852597655e-14
  - -2.652212278907728e-10
  - 2.2981903921842948
twist:
  twist:
    linear:
      x: 0.4058180385652394
      y: 2.386422118362939e-06
      z: 2.6013028276818164e-20
    angular:
      x: -3.276489179187476e-18
      y: -1.7086038390263588e-14
      z: 0.0022324421725238353
  covariance:
  - 0.0008470447039297235
  - 1.1693611573213491e-14
  - 8.78061906274913e-24
  - -1.3502455094929111e-27
  - -5.970625213282747e-25
  - 5.969827900321392e-19
  - 1.1693611573214015e-14
  - 0.0008470447365905042
  - -1.647747129985033e-27
  - 1.2663226411176706e-25
  - 9.373456587398992e-23
  - -2.897104413177402e-17
  - 8.780619062749122e-24
  - -1.6477471299850318e-27
  - 9.989219395401812e-07
  - -2.763498034846422e-30
  - -1.8378614540565917e-25
  - -4.0204872076014893e-22
  - -1.350245509492952e-27
  - 1.26632264111765e-25
  - -2.7634980348464198e-30
  - 9.996401295052894e-07
  - -1.640367920914566e-29
  - -2.0615701872176237e-18
  - -5.9706252132836435e-25
  - 9.373456587398874e-23
  - -1.837861454056591e-25
  - -1.640367920586345e-29
  - 9.996401295052896e-07
  - 2.644146865543678e-16
  - 5.969827900321287e-19
  - -2.8971044131774075e-17
  - -4.02048720760149e-22
  - -2.0615701872176237e-18
  - 2.644146865543679e-16
  - 0.012739139744984765
---
header:
  stamp:
    sec: 1722533456
    nanosec: 97575482
  frame_id: map
child_frame_id: base_link
pose:
  pose:
    position:
      x: 0.6140179910569531
      y: -0.0972965657104064
      z: -2.46055719009328e-15
    orientation:
      x: 8.58375059127815e-10
      y: 2.266840165785969e-09
      z: -0.35392159475715007
      w: 0.9352750957683817
  covariance:
  - 0.04988857557291224
  - 0.0018080835970956896
  - 3.240264603978492e-18
  - -1.8599756482066335e-15
  - -6.47090370842972e-12
  - 0.059873274136347784
  - 0.001808083597095689
  - 0.050238121034687486
  - 3.7455490520636624e-18
  - -2.096065397941363e-15
  - -7.29932214596706e-12
  - 0.06752112881501376
  - 3.2402646039784887e-18
  - 3.745549052063656e-18
  - 9.99873696726693e-07
  - 1.163674587060797e-19
  - -5.688874850518819e-15
  - 1.2766911572220235e-16
  - -1.8599756482066288e-15
  - -2.0960653979413584e-15
  - 1.163674587060798e-19
  - 1.1303220158495471e-08
  - -1.3626163236760374e-18
  - -4.813428798945857e-15
  - -6.4709037084297115e-12
  - -7.299322145967048e-12
  - -5.688874850518819e-15
  - -1.3626163234693823e-18
  - 1.1303219410765154e-08
  - -2.5146906728575846e-10
  - 0.05987327413634777
  - 0.0675211288150138
  - 1.276691157222025e-16
  - -4.813428798946058e-15
  - -2.5146906728575866e-10
  - 2.3257558180087923
twist:
  twist:
    linear:
      x: 0.40581385080816895
      y: 2.3199411480936075e-06
      z: 2.4558381694731195e-20
    angular:
      x: -3.553691961515494e-18
      y: -1.6154270513923036e-14
      z: 0.00011578087240074316
  covariance:
  - 0.00085418550259956
  - 1.0896323368208105e-14
  - 7.916556057080545e-24
  - -1.261725491446759e-27
  - -5.470028622692491e-25
  - 2.9652603376860573e-20
  - 1.0896323368208595e-14
  - 0.0008541855330639669
  - -1.8670942218160527e-27
  - 1.209754493195682e-25
  - 8.676387229418205e-23
  - -1.3388488582851876e-18
  - 7.916556057080544e-24
  - -1.867094221816051e-27
  - 9.989913564680847e-07
  - 3.742321678314597e-30
  - -1.835271886224319e-25
  - -1.9698059676531717e-23
  - -1.2617254914468004e-27
  - 1.2097544931956637e-25
  - 3.7423216783146005e-30
  - 9.996633329653398e-07
  - -1.5130479999619864e-29
  - -2.8080268725443582e-18
  - -5.470028622693309e-25
  - 8.6763872294181e-23
  - -1.8352718862243184e-25
  - -1.5130479997321272e-29
  - 9.996633329653398e-07
  - 1.2953993121473957e-17
  - 2.965260337686003e-20
  - -1.3388488582851903e-18
  - -1.9698059676531722e-23
  - -2.8080268725443574e-18
  - 1.2953993121473954e-17
  - 0.01303893147640059
---
header:
  stamp:
    sec: 1722533456
    nanosec: 143959492
  frame_id: map
child_frame_id: base_link
pose:
  pose:
    position:
      x: 0.7637768095461127
      y: 0.250227661200975
      z: -2.2186633494474422e-15
    orientation:
      x: 1.2488461590213953e-10
      y: 2.1262854863647857e-09
      z: -0.05848071501039904
      w: 0.9982885384355931
  covariance:
  - 0.021242239414889424
  - 0.0001269497525864344
  - 2.0866743187105333e-19
  - 1.827434642954333e-17
  - -5.033104013587403e-13
  - 0.004490731154675664
  - 0.00012694975258643445
  - 0.021819317697392718
  - 2.2061472441732736e-18
  - 1.9429087253750488e-16
  - -4.225665257711197e-12
  - 0.037645614075522006
  - 2.086674318710532e-19
  - 2.2061472441732694e-18
  - 9.998869299323161e-07
  - 1.7988184299170253e-19
  - -5.650636558185723e-15
  - 1.3241293972808054e-16
  - 1.8274346429543672e-17
  - 1.9429087253750774e-16
  - 1.798818429917026e-19
  - 1.0969125987832816e-08
  - -1.311696844132769e-18
  - 2.774952750562445e-14
  - -5.033104013587399e-13
  - -4.2256652577111915e-12
  - -5.650636558185723e-15
  - -1.3116968440336776e-18
  - 1.0969125233088701e-08
  - -2.5418287197596585e-10
  - 0.004490731154675666
  - 0.037645614075522006
  - 1.3241293972808073e-16
  - 2.774952750562428e-14
  - -2.5418287197596606e-10
  - 2.1859509967919717
twist:
  twist:
    linear:
      x: 0.4165231308736361
      y: 2.533690018749371e-06
      z: 2.2118450723088474e-20
    angular:
      x: -2.1598624696362975e-18
      y: -1.4194858292330871e-14
      z: -0.00031118143599684
  covariance:
  - 0.0008656300442447058
  - 1.0553689984908934e-14
  - 6.412740643297208e-24
  - -1.0453468229703826e-27
  - -5.066512845896658e-25
  - 6.376838356893471e-19
  - 1.0553689984909062e-14
  - 0.000865630075812527
  - -1.0829022149517063e-27
  - 1.0086752651424146e-25
  - 5.510766612963524e-23
