header:
  stamp:
    sec: 1722533453
    nanosec: 155329534
  frame_id: odom
child_frame_id: base_link
pose:
  pose:
    position:
      x: 0.0
      y: 0.0
      z: 0.0
    orientation:
      x: 0.0
      y: 0.0
      z: 0.0
      w: 1.0
  covariance:
  - 0.0011486671581738014
  - 0.0
  - 0.0
  - 0.0
  - 0.0
  - 0.0
  - 0.0
  - 0.0033244906305055734
  - 0.0
  - 0.0
  - 0.0
  - 0.0
  - 0.0
  - 0.0
  - 0.00018232589454553788
  - 0.0
  - 0.0
  - 0.0
  - 0.0
  - 0.0
  - 0.0
  - 0.04579672216314279
  - 0.0
  - 0.0
  - 0.0
  - 0.0
  - 0.0
  - 0.0
  - 0.04579672216314279
  - 0.0
  - 0.0
  - 0.0
  - 0.0
  - 0.0
  - 0.0
  - 0.14833796969481536
twist:
  twist:
    linear:
      x: 0.0
      y: 0.0
      z: 0.0
    angular:
      x: 0.0
      y: 0.0
      z: 0.0
  covariance:
  - 0.024992871601244224
  - 0.0
  - 0.0
  - 0.0
  - 0.0
  - 0.0
  - 0.0
  - 0.16561581270288034
  - 0.0
  - 0.0
  - 0.0
  - 0.0
  - 0.0
  - 0.0
  - 0.015324092849580445
  - 0.0
  - 0.0
  - 0.0
  - 0.0
  - 0.0
  - 0.0
  - 0.04570994334307099
  - 0.0
  - 0.0
  - 0.0
  - 0.0
  - 0.0
  - 0.0
  - 0.04570994334307099
  - 0.0
  - 0.0
  - 0.0
  - 0.0
  - 0.0
  - 0.0
  - 1.0191405782258327
---
header:
  stamp:
    sec: 1722533453
    nanosec: 209108214
  frame_id: odom
child_frame_id: base_link
pose:
  pose:
    position:
      x: 0.0
      y: 0.0
      z: 0.0
    orientation:
      x: 0.0
      y: 0.0
      z: 0.0
      w: 1.0
  covariance:
  - 0.001799841603650357
  - 0.0
  - 0.0
  - 0.0
  - 0.0
  - 0.0
  - 0.0
  - 0.005881617464809987
  - 0.0
  - 0.0
  - 0.0
  - 0.0
  - 0.0
  - 0.0
  - 0.0003384389411878601
  - 0.0
  - 0.0
  - 0.0
  - 0.0
  - 0.0
  - 0.0
  - 0.06223436840164104
  - 0.0
  - 0.0
  - 0.0
  - 0.0
  - 0.0
  - 0.0
  - 0.06223436840164104
  - 0.0
  - 0.0
  - 0.0
  - 0.0
  - 0.0
  - 0.0
  - 0.20567109196671304
twist:
  twist:
    linear:
      x: 0.0
      y: 0.0
      z: 0.0
    angular:
      x: 0.0
      y: 0.0
      z: 0.0
  covariance:
  - 0.031471288831557094
  - 0.0
  - 0.0
  - 0.0
  - 0.0
  - 0.0
  - 0.0
  - 0.20594425732976104
  - 0.0
  - 0.0
  - 0.0
  - 0.0
  - 0.0
  - 0.0
  - 0.021006003088078807
  - 0.0
  - 0.0
  - 0.0
  - 0.0
  - 0.0
  - 0.0
  - 0.06184354734307099
  - 0.0
  - 0.0
  - 0.0
  - 0.0
  - 0.0
  - 0.0
  - 0.06184354734307099
  - 0.0
  - 0.0
  - 0.0
  - 0.0
  - 0.0
  - 0.0
  - 1.0723814714258326
---
header:
  stamp:
    sec: 1722533453
    nanosec: 240229867
  frame_id: odom
child_frame_id: base_link
pose:
  pose:
    position:
      x: 0.0
      y: 0.0
      z: 0.0
    orientation:
      x: 0.0
      y: 0.0
      z: 0.0
      w: 1.0
  covariance:
  - 0.00045710491574224983
  - 0.0
  - 0.0
  - 0.0
  - 0.0
  - 0.0
  - 0.0
  - 0.0005522274983099102
  - 0.0
  - 0.0
  - 0.0
  - 0.0
  - 0.0
  - 0.0
  - 9.698055178372197e-07
  - 0.0
  - 0.0
  - 0.0
  - 0.0
  - 0.0
  - 0.0
  - 9.99892916385173e-07
  - 0.0
  - 0.0
  - 0.0
  - 0.0
  - 0.0
  - 0.0
  - 9.99892916385173e-07
  - 0.0
  - 0.0
  - 0.0
  - 0.0
  - 0.0
  - 0.0
  - 0.018818540876858914
twist:
  twist:
    linear:
      x: 0.0
      y: 0.0
      z: 0.0
    angular:
      x: 0.0
      y: 0.0
      z: 0.0
  covariance:
  - 0.013145728766527323
  - 0.0
  - 0.0
  - 0.0
  - 0.0
  - 0.0
  - 0.0
  - 0.08511307524084186
  - 0.0
  - 0.0
  - 0.0
  - 0.0
  - 0.0
  - 0.0
  - 9.996788867567456e-07
  - 0.0
  - 0.0
  - 0.0
  - 0.0
  - 0.0
  - 0.0
  - 9.998929163740649e-07
  - 0.0
  - 0.0
  - 0.0
  - 0.0
  - 0.0
  - 0.0
  - 9.998929163740649e-07
  - 0.0
  - 0.0
  - 0.0
  - 0.0
  - 0.0
  - 0.0
  - 0.8786101053147772
---
header:
  stamp:
    sec: 1722533453
    nanosec: 270564497
  frame_id: odom
child_frame_id: base_link
pose:
  pose:
    position:
      x: 0.0
      y: 0.0
      z: 0.0
    orientation:
      x: 0.0
      y: 0.0
      z: 0.0
      w: 1.0
  covariance:
  - 0.0002866746709212054
  - 0.0
  - 0.0
  - 0.0
  - 0.0
  - 0.0
  - 0.0
  - 0.000343519990564023
  - 0.0
  - 0.0
  - 0.0
  - 0.0
  - 0.0
  - 0.0
  - 9.427322213709262e-07
  - 0.0
  - 0.0
  - 0.0
  - 0.0
  - 0.0
  - 0.0
  - 9.997853317353303e-07
  - 0.0
  - 0.0
  - 0.0
  - 0.0
  - 0.0
  - 0.0
  - 9.997853317353303e-07
  - 0.0
  - 0.0
  - 0.0
  - 0.0
  - 0.0
  - 0.0
  - 0.014095313489837984
twist:
  twist:
    linear:
      x: 0.0
      y: 0.0
      z: 0.0
    angular:
      x: 0.0
      y: 0.0
      z: 0.0
  covariance:
  - 0.011168118372529574
  - 0.0
  - 0.0
  - 0.0
  - 0.0
  - 0.0
  - 0.0
  - 0.08112148304685088
  - 0.0
  - 0.0
  - 0.0
  - 0.0
  - 0.0
  - 0.0
  - 9.993565475338092e-07
  - 0.0
  - 0.0
  - 0.0
  - 0.0
  - 0.0
  - 0.0
  - 9.997853317242312e-07
  - 0.0
  - 0.0
  - 0.0
  - 0.0
  - 0.0
  - 0.0
  - 9.997853317242312e-07
  - 0.0
  - 0.0
  - 0.0
  - 0.0
  - 0.0
  - 0.0
  - 0.8740671208327321
---
header:
  stamp:
    sec: 1722533453
    nanosec: 332285336
  frame_id: odom
child_frame_id: base_link
pose:
  pose:
    position:
      x: 0.0
      y: 0.0
      z: 0.0
    orientation:
      x: 0.0
      y: 0.0
      z: 0.0
      w: 1.0
  covariance:
  - 0.0002859395172134272
  - 0.0
  - 0.0
  - 0.0
  - 0.0
  - 0.0
  - 0.0
  - 0.0004183479225604946
  - 0.0
  - 0.0
  - 0.0
  - 0.0
  - 0.0
  - 0.0
  - 9.72739135536056e-07
  - 0.0
  - 0.0
  - 0.0
  - 0.0
  - 0.0
  - 0.0
  - 9.999040011336916e-07
  - 0.0
  - 0.0
  - 0.0
  - 0.0
  - 0.0
  - 0.0
  - 9.999040011336916e-07
  - 0.0
  - 0.0
  - 0.0
  - 0.0
  - 0.0
  - 0.0
  - 0.01761759753942417
twist:
  twist:
    linear:
      x: 0.0
      y: 0.0
      z: 0.0
    angular:
      x: 0.0
      y: 0.0
      z: 0.0
  covariance:
  - 0.011881244246827965
  - 0.0
  - 0.0
  - 0.0
  - 0.0
  - 0.0
  - 0.0
  - 0.08158807176892818
  - 0.0
  - 0.0
  - 0.0
  - 0.0
  - 0.0
  - 0.0
  - 9.99712113984606e-07
  - 0.0
  - 0.0
  - 0.0
  - 0.0
  - 0.0
  - 0.0
  - 9.99904001122586e-07
  - 0.0
  - 0.0
  - 0.0
  - 0.0
  - 0.0
  - 0.0
  - 9.99904001122586e-07
  - 0.0
  - 0.0
  - 0.0
  - 0.0
  - 0.0
  - 0.0
  - 0.8779924816232106
---
header:
  stamp:
    sec: 1722533453
    nanosec: 390805226
  frame_id: odom
child_frame_id: base_link
pose:
  pose:
    position:
      x: 0.0
      y: 0.0
      z: 0.0
    orientation:
      x: 0.0
      y: 0.0
      z: 0.0
      w: 1.0
  covariance:
  - 0.00020243554997903535
  - 0.0
  - 0.0
  - 0.0
  - 0.0
  - 0.0
  - 0.0
  - 0.0002845758564801165
  - 0.0
  - 0.0
  - 0.0
  - 0.0
  - 0.0
  - 0.0
  - 9.304060438590074e-07
  - 0.0
  - 0.0
  - 0.0
  - 0.0
  - 0.0
  - 0.0
  - 9.997321678624579e-07
  - 0.0
  - 0.0
  - 0.0
  - 0.0
  - 0.0
  - 0.0
  - 9.997321678624579e-07
  - 0.0
  - 0.0
  - 0.0
  - 0.0
  - 0.0
  - 0.0
  - 0.012863559726986926
twist:
  twist:
    linear:
      x: 0.0
      y: 0.0
      z: 0.0
    angular:
      x: 0.0
      y: 0.0
      z: 0.0
  covariance:
  - 0.011171061242759786
  - 0.0
  - 0.0
  - 0.0
  - 0.0
  - 0.0
  - 0.0
  - 0.06749520774884793
  - 0.0
  - 0.0
  - 0.0
  - 0.0
  - 0.0
  - 0.0
  - 9.991973630705851e-07
  - 0.0
  - 0.0
  - 0.0
  - 0.0
  - 0.0
  - 0.0
  - 9.997321678513615e-07
  - 0.0
  - 0.0
  - 0.0
  - 0.0
  - 0.0
  - 0.0
  - 9.997321678513615e-07
  - 0.0
  - 0.0
  - 0.0
  - 0.0
  - 0.0
  - 0.0
  - 0.8706113724485101
---
header:
  stamp:
    sec: 1722533453
    nanosec: 437730742
  frame_id: odom
child_frame_id: base_link
pose:
  pose:
    position:
      x: 0.0
      y: 0.0
      z: 0.0
    orientation:
      x: 0.0
      y: 0.0
      z: 0.0
      w: 1.0
  covariance:
  - 0.00019530338424382905
  - 0.0
  - 0.0
  - 0.0
  - 0.0
  - 0.0
  - 0.0
  - 0.00028765420489116516
  - 0.0
  - 0.0
  - 0.0
  - 0.0
  - 0.0
  - 0.0
  - 9.48833391326463e-07
  - 0.0
  - 0.0
  - 0.0
  - 0.0
  - 0.0
  - 0.0
  - 9.998108532169974e-07
  - 0.0
  - 0.0
  - 0.0
  - 0.0
  - 0.0
  - 0.0
  - 9.998108532169974e-07
  - 0.0
  - 0.0
  - 0.0
  - 0.0
  - 0.0
  - 0.0
  - 0.013942544537388652
twist:
  twist:
    linear:
      x: 0.0
      y: 0.0
      z: 0.0
    angular:
      x: 0.0
      y: 0.0
      z: 0.0
  covariance:
  - 0.011446706325908867
  - 0.0
  - 0.0
  - 0.0
  - 0.0
  - 0.0
  - 0.0
  - 0.0657557255985654
  - 0.0
  - 0.0
  - 0.0
  - 0.0
  - 0.0
  - 0.0
  - 9.994329884644772e-07
  - 0.0
  - 0.0
  - 0.0
  - 0.0
  - 0.0
  - 0.0
  - 9.998108532058976e-07
  - 0.0
  - 0.0
  - 0.0
  - 0.0
  - 0.0
  - 0.0
  - 9.998108532058976e-07
  - 0.0
  - 0.0
  - 0.0
  - 0.0
  - 0.0
  - 0.0
  - 0.8707873232205696
---
header:
  stamp:
    sec: 1722533453
    nanosec: 483451173
  frame_id: odom
child_frame_id: base_link
pose:
  pose:
    position:
      x: 0.0
      y: 0.0
      z: 0.0
    orientation:
      x: 0.0
      y: 0.0
      z: 0.0
      w: 1.0
  covariance:
  - 0.00019379113856977468
  - 0.0
  - 0.0
  - 0.0
  - 0.0
  - 0.0
  - 0.0
  - 0.0002872168479398947
  - 0.0
  - 0.0
  - 0.0
  - 0.0
  - 0.0
  - 0.0
  - 9.391421838675519e-07
  - 0.0
  - 0.0
  - 0.0
  - 0.0
  - 0.0
  - 0.0
  - 9.997698338990809e-07
  - 0.0
  - 0.0
  - 0.0
  - 0.0
  - 0.0
  - 0.0
  - 9.997698338990809e-07
  - 0.0
  - 0.0
  - 0.0
  - 0.0
  - 0.0
  - 0.0
  - 0.013730753277898486
twist:
  twist:
    linear:
      x: 0.0
      y: 0.0
      z: 0.0
    angular:
      x: 0.0
      y: 0.0
      z: 0.0
  covariance:
  - 0.011604533893022571
  - 0.0
  - 0.0
  - 0.0
  - 0.0
  - 0.0
  - 0.0
  - 0.06394747193618779
  - 0.0
  - 0.0
  - 0.0
  - 0.0
  - 0.0
  - 0.0
  - 9.993101366865262e-07
  - 0.0
  - 0.0
  - 0.0
  - 0.0
  - 0.0
  - 0.0
  - 9.997698338879818e-07
  - 0.0
  - 0.0
  - 0.0
  - 0.0
  - 0.0
  - 0.0
  - 9.997698338879818e-07
  - 0.0
  - 0.0
  - 0.0
  - 0.0
  - 0.0
  - 0.0
  - 0.8693074939845112
---
header:
  stamp:
    sec: 1722533453
    nanosec: 533147576
  frame_id: odom
child_frame_id: base_link
pose:
  pose:
    position:
      x: 0.0
      y: 0.0
      z: 0.0
    orientation:
      x: 0.0
      y: 0.0
      z: 0.0
      w: 1.0
  covariance:
  - 0.00019877542827504823
  - 0.0
  - 0.0
  - 0.0
  - 0.0
  - 0.0
  - 0.0
  - 0.0002915417875120766
  - 0.0
  - 0.0
  - 0.0
  - 0.0
  - 0.0
  - 0.0
  - 9.334391752700961e-07
  - 0.0
  - 0.0
  - 0.0
  - 0.0
  - 0.0
  - 0.0
  - 9.997449550924342e-07
  - 0.0
  - 0.0
  - 0.0
  - 0.0
  - 0.0
  - 0.0
  - 9.997449550924342e-07
  - 0.0
  - 0.0
  - 0.0
  - 0.0
  - 0.0
  - 0.0
  - 0.013625665275245094
twist:
  twist:
    linear:
      x: 0.0
      y: 0.0
      z: 0.0
    angular:
      x: 0.0
      y: 0.0
      z: 0.0
  covariance:
  - 0.01170145926862956
  - 0.0
  - 0.0
  - 0.0
  - 0.0
  - 0.0
  - 0.0
  - 0.06318728742832364
  - 0.0
  - 0.0
  - 0.0
  - 0.0
  - 0.0
  - 0.0
  - 9.99235644896105e-07
  - 0.0
  - 0.0
  - 0.0
  - 0.0
  - 0.0
  - 0.0
  - 9.99744955081336e-07
  - 0.0
  - 0.0
  - 0.0
  - 0.0
  - 0.0
  - 0.0
  - 9.99744955081336e-07
  - 0.0
  - 0.0
  - 0.0
  - 0.0
  - 0.0
  - 0.0
  - 0.8680692599196114
---
header:
  stamp:
    sec: 1722533453
    nanosec: 595022022
  frame_id: odom
child_frame_id: base_link
pose:
  pose:
    position:
      x: 0.0
      y: 0.0
      z: 0.0
    orientation:
      x: 0.0
      y: 0.0
      z: 0.0
      w: 1.0
  covariance:
  - 0.0002494949984605846
  - 0.0
  - 0.0
  - 0.0
  - 0.0
  - 0.0
  - 0.0
  - 0.0003714451702335773
  - 0.0
  - 0.0
  - 0.0
  - 0.0
  - 0.0
  - 0.0
  - 9.575560184981224e-07
  - 0.0
  - 0.0
  - 0.0
  - 0.0
  - 0.0
  - 0.0
  - 9.998456100439466e-07
  - 0.0
  - 0.0
  - 0.0
  - 0.0
  - 0.0
  - 0.0
  - 9.998456100439466e-07
  - 0.0
  - 0.0
  - 0.0
  - 0.0
  - 0.0
  - 0.0
  - 0.01600757086032335
twist:
  twist:
    linear:
      x: 0.0
      y: 0.0
      z: 0.0
    angular:
      x: 0.0
      y: 0.0
      z: 0.0
  covariance:
  - 0.012447234768122806
  - 0.0
  - 0.0
  - 0.0
  - 0.0
  - 0.0
  - 0.0
  - 0.06837444873696388
  - 0.0
  - 0.0
  - 0.0
  - 0.0
  - 0.0
  - 0.0
  - 9.995371160054535e-07
  - 0.0
  - 0.0
  - 0.0
  - 0.0
  - 0.0
  - 0.0
  - 9.99845610032843e-07
  - 0.0
  - 0.0
  - 0.0
  - 0.0
  - 0.0
  - 0.0
  - 9.99845610032843e-07
  - 0.0
  - 0.0
  - 0.0
  - 0.0
  - 0.0
  - 0.0
  - 0.870644638050716
---
header:
  stamp:
    sec: 1722533453
    nanosec: 632189544
  frame_id: odom
child_frame_id: base_link
pose:
  pose:
    position:
      x: 0.0
      y: 0.0
      z: 0.0
    orientation:
      x: 0.0
      y: 0.0
      z: 0.0
      w: 1.0
  covariance:
  - 0.00023169316707616233
  - 0.0
  - 0.0
  - 0.0
  - 0.0
  - 0.0
  - 0.0
  - 0.00032646809976224757
  - 0.0
  - 0.0
  - 0.0
  - 0.0
  - 0.0
  - 0.0
  - 9.44322869433648e-07
  - 0.0
  - 0.0
  - 0.0
  - 0.0
  - 0.0
  - 0.0
  - 9.997918014231336e-07
  - 0.0
  - 0.0
  - 0.0
  - 0.0
  - 0.0
  - 0.0
  - 9.997918014231336e-07
  - 0.0
  - 0.0
  - 0.0
  - 0.0
  - 0.0
  - 0.0
  - 0.01434126463994905
twist:
  twist:
    linear:
      x: 0.0
      y: 0.0
      z: 0.0
    angular:
      x: 0.0
      y: 0.0
      z: 0.0
  covariance:
  - 0.01189085600442218
  - 0.0
  - 0.0
  - 0.0
  - 0.0
  - 0.0
  - 0.0
  - 0.0660068579861117
  - 0.0
  - 0.0
  - 0.0
  - 0.0
  - 0.0
  - 0.0
  - 9.99375923893858e-07
  - 0.0
  - 0.0
  - 0.0
  - 0.0
  - 0.0
  - 0.0
  - 9.997918014120334e-07
  - 0.0
  - 0.0
  - 0.0
  - 0.0
  - 0.0
  - 0.0
  - 9.997918014120334e-07
  - 0.0
  - 0.0
  - 0.0
  - 0.0
  - 0.0
  - 0.0
  - 0.8681455691284825
---
header:
  stamp:
    sec: 1722533453
    nanosec: 659259743
  frame_id: odom
child_frame_id: base_link
pose:
  pose:
    position:
      x: 0.0
      y: 0.0
      z: 0.0
    orientation:
      x: 0.0
      y: 0.0
      z: 0.0
      w: 1.0
  covariance:
  - 0.0002461769994494157
  - 0.0
  - 0.0
  - 0.0
  - 0.0
  - 0.0
  - 0.0
  - 0.0003561108001659139
  - 0.0
  - 0.0
  - 0.0
  - 0.0
  - 0.0
  - 0.0
  - 9.655353698956262e-07
  - 0.0
  - 0.0
  - 0.0
  - 0.0
  - 0.0
  - 0.0
  - 9.998768936863225e-07
  - 0.0
  - 0.0
  - 0.0
  - 0.0
  - 0.0
  - 0.0
  - 9.998768936863225e-07
  - 0.0
  - 0.0
  - 0.0
  - 0.0
  - 0.0
  - 0.0
  - 0.016115971875173087
twist:
  twist:
    linear:
      x: 0.0
      y: 0.0
      z: 0.0
    angular:
      x: 0.0
      y: 0.0
      z: 0.0
  covariance:
  - 0.012079559231753498
  - 0.0
  - 0.0
  - 0.0
  - 0.0
  - 0.0
  - 0.0
  - 0.06840198156046315
  - 0.0
  - 0.0
  - 0.0
  - 0.0
  - 0.0
  - 0.0
  - 9.99630862818957e-07
  - 0.0
  - 0.0
  - 0.0
  - 0.0
  - 0.0
  - 0.0
  - 9.998768936752192e-07
  - 0.0
  - 0.0
  - 0.0
  - 0.0
  - 0.0
  - 0.0
  - 9.998768936752192e-07
  - 0.0
  - 0.0
  - 0.0
  - 0.0
  - 0.0
  - 0.0
  - 0.8701975740067063
---
header:
  stamp:
    sec: 1722533453
    nanosec: 731564958
  frame_id: odom
child_frame_id: base_link
pose:
  pose:
    position:
      x: 0.0
      y: 0.0
      z: 0.0
    orientation:
      x: 0.0
      y: 0.0
      z: 0.0
      w: 1.0
  covariance:
  - 0.00029858379162095043
  - 0.0
  - 0.0
  - 0.0
  - 0.0
  - 0.0
  - 0.0
  - 0.0004443427923585397
  - 0.0
  - 0.0
  - 0.0
  - 0.0
  - 0.0
  - 0.0
  - 9.748882916204594e-07
  - 0.0
  - 0.0
  - 0.0
  - 0.0
  - 0.0
  - 0.0
  - 9.999119441316445e-07
  - 0.0
  - 0.0
  - 0.0
  - 0.0
  - 0.0
  - 0.0
  - 9.999119441316445e-07
  - 0.0
  - 0.0
  - 0.0
  - 0.0
  - 0.0
  - 0.0
  - 0.018289723301853186
twist:
  twist:
    linear:
      x: 0.0
      y: 0.0
      z: 0.0
    angular:
      x: 0.0
      y: 0.0
      z: 0.0
  covariance:
  - 0.012693837964986266
  - 0.0
  - 0.0
  - 0.0
  - 0.0
  - 0.0
  - 0.0
  - 0.0732344767180511
  - 0.0
  - 0.0
  - 0.0
  - 0.0
  - 0.0
  - 0.0
  - 9.99735925454298e-07
  - 0.0
  - 0.0
  - 0.0
  - 0.0
  - 0.0
  - 0.0
  - 9.999119441205382e-07
  - 0.0
  - 0.0
  - 0.0
  - 0.0
  - 0.0
  - 0.0
  - 9.999119441205382e-07
  - 0.0
  - 0.0
  - 0.0
  - 0.0
  - 0.0
  - 0.0
  - 0.8726920566139886
---
header:
  stamp:
    sec: 1722533453
    nanosec: 783051403
  frame_id: odom
child_frame_id: base_link
pose:
  pose:
    position:
      x: 0.0
      y: 0.0
      z: 0.0
    orientation:
      x: 0.0
      y: 0.0
      z: 0.0
      w: 1.0
  covariance:
  - 0.0002316257783463688
  - 0.0
  - 0.0
  - 0.0
  - 0.0
  - 0.0
  - 0.0
  - 0.0003157595079335677
  - 0.0
  - 0.0
  - 0.0
  - 0.0
  - 0.0
  - 0.0
  - 9.405298336093006e-07
  - 0.0
  - 0.0
  - 0.0
  - 0.0
  - 0.0
  - 0.0
  - 9.997758652476207e-07
  - 0.0
  - 0.0
  - 0.0
  - 0.0
  - 0.0
  - 0.0
  - 9.997758652476207e-07
  - 0.0
  - 0.0
  - 0.0
  - 0.0
  - 0.0
  - 0.0
  - 0.013886979166960009
twist:
  twist:
    linear:
      x: 0.0
      y: 0.0
      z: 0.0
    angular:
      x: 0.0
      y: 0.0
      z: 0.0
  covariance:
  - 0.011355446611732241
  - 0.0
  - 0.0
  - 0.0
  - 0.0
  - 0.0
  - 0.0
  - 0.06691980033125357
  - 0.0
  - 0.0
  - 0.0
  - 0.0
  - 0.0
  - 0.0
  - 9.993281978760498e-07
  - 0.0
  - 0.0
  - 0.0
  - 0.0
  - 0.0
  - 0.0
  - 9.997758652365216e-07
  - 0.0
  - 0.0
  - 0.0
  - 0.0
  - 0.0
  - 0.0
  - 9.997758652365216e-07
  - 0.0
  - 0.0
  - 0.0
  - 0.0
  - 0.0
  - 0.0
  - 0.8668978878668208
---
header:
  stamp:
    sec: 1722533453
    nanosec: 814291673
  frame_id: odom
child_frame_id: base_link
pose:
  pose:
    position:
      x: 0.0
      y: 0.0
      z: 0.0
    orientation:
      x: 0.0
      y: 0.0
      z: 0.0
      w: 1.0
  covariance:
  - 0.00021374126121039957
  - 0.0
  - 0.0
  - 0.0
  - 0.0
  - 0.0
  - 0.0
  - 0.00029893859304055097
  - 0.0
  - 0.0
  - 0.0
  - 0.0
  - 0.0
  - 0.0
  - 9.524390604904128e-07
  - 0.0
  - 0.0
  - 0.0
  - 0.0
  - 0.0
  - 0.0
  - 9.998255069626099e-07
  - 0.0
  - 0.0
  - 0.0
  - 0.0
  - 0.0
  - 0.0
  - 9.998255069626099e-07
  - 0.0
  - 0.0
  - 0.0
  - 0.0
  - 0.0
  - 0.0
  - 0.014278553842269092
twist:
  twist:
    linear:
      x: 0.0
      y: 0.0
      z: 0.0
    angular:
      x: 0.0
      y: 0.0
      z: 0.0
  covariance:
  - 0.011107219435439037
  - 0.0
  - 0.0
  - 0.0
  - 0.0
  - 0.0
  - 0.0
  - 0.06658426338388317
  - 0.0
  - 0.0
  - 0.0
  - 0.0
  - 0.0
  - 0.0
  - 9.994768858686423e-07
  - 0.0
  - 0.0
  - 0.0
  - 0.0
  - 0.0
  - 0.0
  - 9.998255069515095e-07
  - 0.0
  - 0.0
  - 0.0
  - 0.0
  - 0.0
  - 0.0
  - 9.998255069515095e-07
  - 0.0
  - 0.0
  - 0.0
  - 0.0
  - 0.0
  - 0.0
  - 0.8670596696700361
---
header:
  stamp:
    sec: 1722533453
    nanosec: 850050623
  frame_id: odom
child_frame_id: base_link
pose:
  pose:
    position:
      x: 0.0
      y: 0.0
      z: 0.0
    orientation:
      x: 0.0
      y: 0.0
      z: 0.0
      w: 1.0
  covariance:
  - 0.0002505267722353301
  - 0.0
  - 0.0
  - 0.0
  - 0.0
  - 0.0
  - 0.0
  - 0.0003808791853578975
  - 0.0
  - 0.0
  - 0.0
  - 0.0
  - 0.0
  - 0.0
  - 9.734837105196628e-07
  - 0.0
  - 0.0
  - 0.0
  - 0.0
  - 0.0
  - 0.0
  - 9.999068006286186e-07
  - 0.0
  - 0.0
  - 0.0
  - 0.0
  - 0.0
  - 0.0
  - 9.999068006286186e-07
  - 0.0
  - 0.0
  - 0.0
  - 0.0
  - 0.0
  - 0.0
  - 0.01743060600942766
twist:
  twist:
    linear:
      x: 0.0
      y: 0.0
      z: 0.0
    angular:
      x: 0.0
      y: 0.0
      z: 0.0
  covariance:
  - 0.011820663084018395
  - 0.0
  - 0.0
  - 0.0
  - 0.0
  - 0.0
  - 0.0
  - 0.0713859556933501
  - 0.0
  - 0.0
  - 0.0
  - 0.0
  - 0.0
  - 0.0
  - 9.99720506108091e-07
  - 0.0
  - 0.0
  - 0.0
  - 0.0
  - 0.0
  - 0.0
  - 9.999068006175135e-07
  - 0.0
  - 0.0
  - 0.0
  - 0.0
  - 0.0
  - 0.0
  - 9.999068006175135e-07
  - 0.0
  - 0.0
  - 0.0
  - 0.0
  - 0.0
  - 0.0
  - 0.8708706279828453
---
header:
  stamp:
    sec: 1722533453
    nanosec: 949195841
  frame_id: odom
child_frame_id: base_link
pose:
  pose:
    position:
      x: 0.0
      y: 0.0
      z: 0.0
    orientation:
      x: 0.0
      y: 0.0
      z: 0.0
      w: 1.0
  covariance:
  - 0.0007392117548508469
  - 0.0
  - 0.0
  - 0.0
  - 0.0
  - 0.0
  - 0.0
  - 0.0019007194732498767
  - 0.0
  - 0.0
  - 0.0
  - 0.0
  - 0.0
  - 0.0
  - 0.0001001285529438473
  - 0.0
  - 0.0
  - 0.0
  - 0.0
  - 0.0
  - 0.0
  - 0.029744575135658816
  - 0.0
  - 0.0
  - 0.0
  - 0.0
  - 0.0
  - 0.0
  - 0.029744575135658816
  - 0.0
  - 0.0
  - 0.0
  - 0.0
  - 0.0
  - 0.0
  - 0.09934398853753441
twist:
  twist:
    linear:
      x: 0.0
      y: 0.0
      z: 0.0
    angular:
      x: 0.0
      y: 0.0
      z: 0.0
  covariance:
  - 0.01942194444417682
  - 0.0
  - 0.0
  - 0.0
  - 0.0
  - 0.0
  - 0.0
  - 0.13462272297853514
  - 0.0
  - 0.0
  - 0.0
  - 0.0
  - 0.0
  - 0.0
  - 0.009915531349364418
  - 0.0
  - 0.0
  - 0.0
  - 0.0
  - 0.0
  - 0.0
  - 0.02974456530680062
  - 0.0
  - 0.0
  - 0.0
  - 0.0
  - 0.0
  - 0.0
  - 0.02974456530680062
  - 0.0
  - 0.0
  - 0.0
  - 0.0
  - 0.0
  - 0.0
  - 0.9690243938028453
---
header:
  stamp:
    sec: 1722533454
    nanosec: 43302090
  frame_id: odom
child_frame_id: base_link
pose:
  pose:
    position:
      x: 0.0
      y: 0.0
      z: 0.0
    orientation:
      x: 0.0
      y: 0.0
      z: 0.0
      w: 1.0
  covariance:
  - 0.000378035634382781
  - 0.0
  - 0.0
  - 0.0
  - 0.0
  - 0.0
  - 0.0
  - 0.0005063962255854199
  - 0.0
  - 0.0
  - 0.0
  - 0.0
  - 0.0
  - 0.0
  - 9.730953120566047e-07
  - 0.0
  - 0.0
  - 0.0
  - 0.0
  - 0.0
  - 0.0
  - 9.999052763693782e-07
  - 0.0
  - 0.0
  - 0.0
  - 0.0
  - 0.0
  - 0.0
  - 9.999052763693782e-07
  - 0.0
  - 0.0
  - 0.0
  - 0.0
  - 0.0
  - 0.0
  - 0.01851386485952008
twist:
  twist:
    linear:
      x: 0.0
      y: 0.0
      z: 0.0
    angular:
      x: 0.0
      y: 0.0
      z: 0.0
  covariance:
  - 0.01286858873980323
  - 0.0
  - 0.0
  - 0.0
  - 0.0
  - 0.0
  - 0.0
  - 0.08524095554015464
  - 0.0
  - 0.0
  - 0.0
  - 0.0
  - 0.0
  - 0.0
  - 9.99715936789872e-07
  - 0.0
  - 0.0
  - 0.0
  - 0.0
  - 0.0
  - 0.0
  - 9.999052763582723e-07
  - 0.0
  - 0.0
  - 0.0
  - 0.0
  - 0.0
  - 0.0
  - 9.999052763582723e-07
  - 0.0
  - 0.0
  - 0.0
  - 0.0
  - 0.0
  - 0.0
  - 0.879221320354703
---
header:
  stamp:
    sec: 1722533454
    nanosec: 93044584
  frame_id: odom
child_frame_id: base_link
pose:
  pose:
    position:
      x: 0.0
      y: 0.0
      z: 0.0
    orientation:
      x: 0.0
      y: 0.0
      z: 0.0
      w: 1.0
  covariance:
  - 0.00020403423912138387
  - 0.0
  - 0.0
  - 0.0
  - 0.0
  - 0.0
  - 0.0
  - 0.00026256041289550165
  - 0.0
  - 0.0
  - 0.0
  - 0.0
  - 0.0
  - 0.0
  - 9.199301593518356e-07
  - 0.0
  - 0.0
  - 0.0
  - 0.0
  - 0.0
  - 0.0
  - 9.996851464542854e-07
  - 0.0
  - 0.0
  - 0.0
  - 0.0
  - 0.0
  - 0.0
  - 9.996851464542854e-07
  - 0.0
  - 0.0
  - 0.0
  - 0.0
  - 0.0
  - 0.0
  - 0.011946731041273336
twist:
  twist:
    linear:
      x: 0.0
      y: 0.0
      z: 0.0
    angular:
      x: 0.0
      y: 0.0
      z: 0.0
  covariance:
  - 0.01058186073450323
  - 0.0
  - 0.0
  - 0.0
  - 0.0
  - 0.0
  - 0.0
  - 0.07193966536578958
  - 0.0
  - 0.0
  - 0.0
  - 0.0
  - 0.0
  - 0.0
  - 9.990566266437686e-07
  - 0.0
  - 0.0
  - 0.0
  - 0.0
  - 0.0
  - 0.0
  - 9.996851464431925e-07
  - 0.0
  - 0.0
  - 0.0
  - 0.0
  - 0.0
  - 0.0
  - 9.996851464431925e-07
  - 0.0
  - 0.0
  - 0.0
  - 0.0
  - 0.0
  - 0.0
  - 0.8707226338088561
---
header:
  stamp:
    sec: 1722533454
    nanosec: 138765936
  frame_id: odom
child_frame_id: base_link
pose:
  pose:
    position:
      x: 0.0
      y: 0.0
      z: 0.0
    orientation:
      x: 0.0
      y: 0.0
      z: 0.0
      w: 1.0
  covariance:
  - 0.00016746362887529347
  - 0.0
  - 0.0
  - 0.0
  - 0.0
  - 0.0
  - 0.0
  - 0.00023607422391219848
  - 0.0
  - 0.0
  - 0.0
  - 0.0
  - 0.0
  - 0.0
  - 9.017889911218552e-07
  - 0.0
  - 0.0
  - 0.0
  - 0.0
  - 0.0
  - 0.0
  - 9.995971611665052e-07
  - 0.0
  - 0.0
  - 0.0
  - 0.0
  - 0.0
  - 0.0
  - 9.995971611665052e-07
  - 0.0
  - 0.0
  - 0.0
  - 0.0
  - 0.0
  - 0.0
  - 0.011410352088040308
twist:
  twist:
    linear:
      x: 0.0
      y: 0.0
      z: 0.0
    angular:
      x: 0.0
      y: 0.0
      z: 0.0
  covariance:
  - 0.010455192090500179
  - 0.0
  - 0.0
  - 0.0
  - 0.0
  - 0.0
  - 0.0
  - 0.06597920977156997
  - 0.0
  - 0.0
  - 0.0
  - 0.0
  - 0.0
  - 0.0
  - 9.987934264411398e-07
  - 0.0
  - 0.0
  - 0.0
  - 0.0
  - 0.0
  - 0.0
  - 9.995971611554158e-07
  - 0.0
  - 0.0
  - 0.0
  - 0.0
  - 0.0
  - 0.0
  - 9.995971611554158e-07
  - 0.0
  - 0.0
  - 0.0
  - 0.0
  - 0.0
  - 0.0
  - 0.8686367020835682
---
header:
  stamp:
    sec: 1722533454
    nanosec: 189769897
  frame_id: odom
child_frame_id: base_link
pose:
  pose:
    position:
      x: 0.0
      y: 0.0
      z: 0.0
    orientation:
      x: 0.0
      y: 0.0
      z: 0.0
      w: 1.0
  covariance:
  - 0.00016781879670943055
  - 0.0
  - 0.0
  - 0.0
  - 0.0
  - 0.0
  - 0.0
  - 0.00025320597650934306
  - 0.0
  - 0.0
  - 0.0
  - 0.0
  - 0.0
  - 0.0
  - 9.377846467077213e-07
  - 0.0
  - 0.0
  - 0.0
  - 0.0
  - 0.0
  - 0.0
  - 9.997646741804175e-07
  - 0.0
  - 0.0
  - 0.0
  - 0.0
  - 0.0
  - 0.0
  - 9.997646741804175e-07
  - 0.0
  - 0.0
  - 0.0
  - 0.0
  - 0.0
  - 0.0
  - 0.012877435410074252
twist:
  twist:
    linear:
      x: 0.0
      y: 0.0
      z: 0.0
    angular:
      x: 0.0
      y: 0.0
      z: 0.0
  covariance:
  - 0.01084067468928538
  - 0.0
  - 0.0
  - 0.0
  - 0.0
  - 0.0
  - 0.0
  - 0.06291181916900959
  - 0.0
  - 0.0
  - 0.0
  - 0.0
  - 0.0
  - 0.0
  - 9.99294686065893e-07
  - 0.0
  - 0.0
  - 0.0
  - 0.0
  - 0.0
  - 0.0
  - 9.997646741693207e-07
  - 0.0
  - 0.0
  - 0.0
  - 0.0
  - 0.0
  - 0.0
  - 9.997646741693207e-07
  - 0.0
  - 0.0
  - 0.0
  - 0.0
  - 0.0
  - 0.0
  - 0.8690246558006843
---
header:
  stamp:
    sec: 1722533454
    nanosec: 242513409
  frame_id: odom
child_frame_id: base_link
pose:
  pose:
    position:
      x: 0.0
      y: 0.0
      z: 0.0
    orientation:
      x: 0.0
      y: 0.0
      z: 0.0
      w: 1.0
  covariance:
  - 0.00017285730476848104
  - 0.0
  - 0.0
  - 0.0
  - 0.0
  - 0.0
  - 0.0
  - 0.0002590396045932314
  - 0.0
  - 0.0
  - 0.0
  - 0.0
  - 0.0
  - 0.0
  - 9.337023110082164e-07
  - 0.0
  - 0.0
  - 0.0
  - 0.0
  - 0.0
  - 0.0
  - 9.99746730178806e-07
  - 0.0
  - 0.0
  - 0.0
  - 0.0
  - 0.0
  - 0.0
  - 9.99746730178806e-07
  - 0.0
  - 0.0
  - 0.0
  - 0.0
  - 0.0
  - 0.0
  - 0.012915489830020284
twist:
  twist:
    linear:
      x: 0.0
      y: 0.0
      z: 0.0
    angular:
      x: 0.0
      y: 0.0
      z: 0.0
  covariance:
  - 0.011071863425082287
  - 0.0
  - 0.0
  - 0.0
  - 0.0
  - 0.0
  - 0.0
  - 0.06076757872517931
  - 0.0
  - 0.0
  - 0.0
  - 0.0
  - 0.0
  - 0.0
  - 9.992409591416672e-07
  - 0.0
  - 0.0
  - 0.0
  - 0.0
  - 0.0
  - 0.0
  - 9.997467301677092e-07
  - 0.0
  - 0.0
  - 0.0
  - 0.0
  - 0.0
  - 0.0
  - 9.997467301677092e-07
  - 0.0
  - 0.0
  - 0.0
  - 0.0
  - 0.0
  - 0.0
  - 0.8675859264396605
---
header:
  stamp:
    sec: 1722533454
    nanosec: 286982904
  frame_id: odom
child_frame_id: base_link
pose:
  pose:
    position:
      x: 0.0
      y: 0.0
      z: 0.0
    orientation:
      x: 0.0
      y: 0.0
      z: 0.0
      w: 1.0
  covariance:
  - 0.00018476481878461646
  - 0.0
  - 0.0
  - 0.0
  - 0.0
  - 0.0
  - 0.0
  - 0.0002778734880560968
  - 0.0
  - 0.0
  - 0.0
  - 0.0
  - 0.0
  - 0.0
  - 9.50949811549457e-07
  - 0.0
  - 0.0
  - 0.0
  - 0.0
  - 0.0
  - 0.0
  - 9.99819457494563e-07
  - 0.0
  - 0.0
  - 0.0
  - 0.0
  - 0.0
  - 0.0
  - 9.99819457494563e-07
  - 0.0
  - 0.0
  - 0.0
  - 0.0
  - 0.0
  - 0.0
  - 0.014084110049616086
twist:
  twist:
    linear:
      x: 0.0
      y: 0.0
      z: 0.0
    angular:
      x: 0.0
      y: 0.0
      z: 0.0
  covariance:
  - 0.011300283608567323
  - 0.0
  - 0.0
  - 0.0
  - 0.0
  - 0.0
  - 0.0
  - 0.06170346136454666
  - 0.0
  - 0.0
  - 0.0
  - 0.0
  - 0.0
  - 0.0
  - 9.994587632022595e-07
  - 0.0
  - 0.0
  - 0.0
  - 0.0
  - 0.0
  - 0.0
  - 9.99819457483463e-07
  - 0.0
  - 0.0
  - 0.0
  - 0.0
  - 0.0
  - 0.0
  - 9.99819457483463e-07
  - 0.0
  - 0.0
  - 0.0
  - 0.0
  - 0.0
  - 0.0
  - 0.8680777229597008
---
header:
  stamp:
    sec: 1722533454
    nanosec: 350054218
  frame_id: odom
child_frame_id: base_link
pose:
  pose:
    position:
      x: 0.0
      y: 0.0
      z: 0.0
    orientation:
      x: 0.0
      y: 0.0
      z: 0.0
      w: 1.0
  covariance:
  - 0.00041996652964285775
  - 0.0
  - 0.0
  - 0.0
  - 0.0
  - 0.0
  - 0.0
  - 0.0009324376511139933
  - 0.0
  - 0.0
  - 0.0
  - 0.0
  - 0.0
  - 0.0
  - 6.402624366632854e-05
  - 0.0
  - 0.0
  - 0.0
  - 0.0
  - 0.0
  - 0.0
  - 0.018922397996730025
  - 0.0
  - 0.0
  - 0.0
  - 0.0
  - 0.0
  - 0.0
  - 0.018922397996730025
  - 0.0
  - 0.0
  - 0.0
  - 0.0
  - 0.0
  - 0.0
  - 0.06375851567423532
twist:
  twist:
    linear:
      x: 0.0
      y: 0.0
      z: 0.0
    angular:
      x: 0.0
      y: 0.0
      z: 0.0
  covariance:
  - 0.015783836871288887
  - 0.0
  - 0.0
  - 0.0
  - 0.0
  - 0.0
  - 0.0
  - 0.10038649714245268
  - 0.0
  - 0.0
  - 0.0
  - 0.0
  - 0.0
  - 0.0
  - 0.006308134836035884
  - 0.0
  - 0.0
  - 0.0
  - 0.0
  - 0.0
  - 0.0
  - 0.018922394019457483
  - 0.0
  - 0.0
  - 0.0
  - 0.0
  - 0.0
  - 0.0
  - 0.018922394019457483
  - 0.0
  - 0.0
  - 0.0
  - 0.0
  - 0.0
  - 0.0
  - 0.9305183238197008
---
header:
  stamp:
    sec: 1722533454
    nanosec: 406245161
  frame_id: odom
child_frame_id: base_link
pose:
  pose:
    position:
      x: 0.008752925737955235
      y: 0.0
      z: 0.0
    orientation:
      x: 0.0
      y: 0.0
      z: 0.0
      w: 1.0
  covariance:
  - 0.00043260370490778486
  - 0.0
  - 0.0
  - 0.0
  - 0.0
  - 0.0
  - 0.0
  - 0.0006786760005498074
  - 0.0
  - 0.0
  - 0.0
  - 0.0
  - 0.0
  - 0.0
  - 9.923433188918647e-07
  - 0.0
  - 0.0
  - 0.0
  - 0.0
  - 0.0
  - 0.0
  - 9.999720739300735e-07
  - 0.0
  - 0.0
  - 0.0
  - 0.0
  - 0.0
  - 0.0
  - 9.999720739300735e-07
  - 0.0
  - 0.0
  - 0.0
  - 0.0
  - 0.0
  - 0.0
  - 0.023751238498291007
twist:
  twist:
    linear:
      x: 0.03725249611489171
      y: 0.0
      z: 0.0
    angular:
      x: 0.0
      y: 0.0
      z: 0.0
  covariance:
  - 0.014814304772806212
  - 0.0
  - 0.0
  - 0.0
  - 0.0
  - 0.0
  - 0.0
  - 0.08160684355493839
  - 0.0
  - 0.0
  - 0.0
  - 0.0
  - 0.0
  - 0.0
  - 9.999096007978964e-07
  - 0.0
  - 0.0
  - 0.0
  - 0.0
  - 0.0
  - 0.0
  - 9.99972027290947e-07
  - 0.0
  - 0.0
  - 0.0
  - 0.0
  - 0.0
  - 0.0
  - 9.99972027290947e-07
  - 0.0
  - 0.0
  - 0.0
  - 0.0
  - 0.0
  - 0.0
  - 0.8803225519669713
---
header:
  stamp:
    sec: 1722533454
    nanosec: 499045857
  frame_id: odom
child_frame_id: base_link
pose:
  pose:
    position:
      x: 0.01254102913519168
      y: 0.0
      z: 0.0
    orientation:
      x: 0.0
      y: 0.0
      z: 0.0
      w: 1.0
  covariance:
  - 0.001059201423246584
  - 0.0
  - 0.0
  - 0.0
  - 0.0
  - 0.0
  - 0.0
  - 0.002340712121761235
  - 0.0
  - 0.0
  - 0.0
  - 9.901205027588215e-05
  - 0.0
  - 0.0
  - 9.380172563000935e-05
  - 0.0
  - -3.787997902140454e-09
  - 0.0
  - 0.0
  - 0.0
  - 0.0
  - 0.02784121738395624
  - 0.0
  - 0.0
  - 0.0
  - 0.0
  - -3.787997902140455e-09
  - 0.0
  - 0.02784121738395624
  - 0.0
  - 0.0
  - 9.901205027588215e-05
  - 0.0
  - 0.0
  - 0.0
  - 0.10106582217220328
twist:
  twist:
    linear:
      x: 0.044387051011704065
      y: 0.0
      z: 0.0
    angular:
      x: 0.0
      y: 0.0
      z: 0.0
  covariance:
  - 0.02294082495327021
  - 0.0
  - 0.0
  - 0.0
  - 0.0
  - 0.0
  - 0.0
  - 0.1414433451476413
  - 0.0
  - 0.0
  - 0.0
  - 0.0
  - 0.0
  - 0.0
  - 0.009281078121792003
  - 0.0
  - 0.0
  - 0.0
  - 0.0
  - 0.0
  - 0.0
  - 0.02784120877202729
  - 0.0
  - 0.0
  - 0.0
  - 0.0
  - 0.0
  - 0.0
  - 0.02784120877202729
  - 0.0
  - 0.0
  - 0.0
  - 0.0
  - 0.0
  - 0.0
  - 0.9721952410069713
---
header:
  stamp:
    sec: 1722533454
    nanosec: 599034652
  frame_id: odom
child_frame_id: base_link
pose:
  pose:
    position:
      x: 0.017363552754232764
      y: 0.0
      z: 0.0
    orientation:
      x: 0.0
      y: 0.0
      z: 0.0
      w: 1.0
  covariance:
  - 0.002340892775262207
  - 0.0
  - 0.0
  - 0.0
  - 0.0
  - 0.0
  - 0.0
  - 0.006654941377754706
  - 0.0
  - 0.0
  - 0.0
  - 0.0006479372975308151
  - 0.0
  - 0.0
  - 0.00028794257236148884
  - 0.0
  - -0.0001342687611626913
  - 0.0
  - 0.0
  - 0.0
  - 0.0
  - 0.058116224140729554
  - 0.0
  - 0.0
  - 0.0
  - 0.0
  - -0.0001342687611626913
  - 0.0
  - 0.058116224140729554
  - 0.0
  - 0.0
  - 0.0006479372975308151
  - 0.0
  - 0.0
  - 0.0
  - 0.20225730412920967
twist:
  twist:
    linear:
      x: 0.05207422985563878
      y: 0.0
      z: 0.0
    angular:
      x: 0.0
      y: 0.0
      z: 0.0
  covariance:
  - 0.03490911023617764
  - 0.0
  - 0.0
  - 0.0
  - 0.0
  - 0.0
  - 0.0
  - 0.21447333589944365
  - 0.0
  - 0.0
  - 0.0
  - 0.0
  - 0.0
  - 0.0
  - 0.019558325878897193
  - 0.0
  - 0.0
  - 0.0
  - 0.0
  - 0.0
  - 0.0
  - 0.05783784727202729
  - 0.0
  - 0.0
  - 0.0
  - 0.0
  - 0.0
  - 0.0
  - 0.05783784727202729
  - 0.0
  - 0.0
  - 0.0
  - 0.0
  - 0.0
  - 0.0
  - 1.0711841480569713
---
header:
  stamp:
    sec: 1722533454
    nanosec: 649036461
  frame_id: odom
child_frame_id: base_link
pose:
  pose:
    position:
      x: 0.02006346590686536
      y: 0.0
      z: 0.0
    orientation:
      x: 0.0
      y: 0.0
      z: 0.0
      w: 1.0
  covariance:
  - 0.003323227218514671
  - 0.0
  - 0.0
  - 0.0
  - 0.0
  - 0.0
  - 0.0
  - 0.010289931009025739
  - 0.0
  - 0.0
  - 0.0
  - 0.0012524090786615173
  - 0.0
  - 0.0
  - 0.00048298371539443757
  - 0.0
  - -0.00029155336971863397
  - 0.0
  - 0.0
  - 0.0
  - 0.0
  - 0.07353977216566072
  - 0.0
  - 0.0
  - 0.0
  - 0.0
  - -0.0002915533697186339
  - 0.0
  - 0.07353977216566072
  - 0.0
  - 0.0
  - 0.0012524090786615173
  - 0.0
  - 0.0
  - 0.0
  - 0.2603993072887698
twist:
  twist:
    linear:
      x: 0.05591838907671215
      y: 0.0
      z: 0.0
    angular:
      x: 0.0
      y: 0.0
      z: 0.0
  covariance:
  - 0.04231941809475495
  - 0.0
  - 0.0
  - 0.0
  - 0.0
  - 0.0
  - 0.0
  - 0.25449908742743804
  - 0.0
  - 0.0
  - 0.0
  - 0.0
  - 0.0
  - 0.0
  - 0.02498151210399395
  - 0.0
  - 0.0
  - 0.0
  - 0.0
  - 0.0
  - 0.0
  - 0.07283838997202728
  - 0.0
  - 0.0
  - 0.0
  - 0.0
  - 0.0
  - 0.0
  - 0.07283838997202728
  - 0.0
  - 0.0
  - 0.0
  - 0.0
  - 0.0
  - 0.0
  - 1.1206859389669712
---
header:
  stamp:
    sec: 1722533454
    nanosec: 708946693
  frame_id: odom
child_frame_id: base_link
pose:
  pose:
    position:
      x: 0.12604937741622282
      y: 0.0
      z: 0.0
    orientation:
      x: 0.0
      y: 0.0
      z: 0.0
      w: 1.0
  covariance:
  - 0.0005464507592794149
  - 0.0
  - 0.0
  - 0.0
  - 0.0
  - 0.0
  - 0.0
  - 0.0006424237472590224
  - 0.0
  - 0.0
  - 0.0
  - 5.032297959604972e-05
  - 0.0
  - 0.0
  - 9.83847823828796e-07
  - 0.0
  - -1.6159185361629183e-14
  - 0.0
  - 0.0
  - 0.0
  - 0.0
  - 9.999443674031121e-07
  - 0.0
  - 0.0
  - 0.0
  - 0.0
  - -1.6159185361629186e-14
  - 0.0
  - 9.999443674030956e-07
  - 0.0
  - 0.0
  - 5.0322979596049734e-05
  - 0.0
  - 0.0
  - 0.0
  - 0.02144028611173822
twist:
  twist:
    linear:
      x: 0.36670851332537757
      y: 0.0
      z: 0.0
    angular:
      x: 0.0
      y: 0.0
      z: 0.0
  covariance:
  - 0.013819424549189201
  - 0.0
  - 0.0
  - 0.0
  - 0.0
  - 0.0
  - 0.0
  - 0.09946484839760572
  - 0.0
  - 0.0
  - 0.0
  - -0.00016557423154219838
  - 0.0
  - 0.0
  - 9.998331394043811e-07
  - 0.0
  - -4.569773730500901e-22
  - 0.0
  - 0.0
  - 0.0
  - 0.0
  - 9.999443673920027e-07
  - 0.0
  - 0.0
  - 0.0
  - 0.0
  - -4.5697737305009e-22
  - 0.0
  - 9.999443673920029e-07
  - 0.0
  - 0.0
  - -0.00016557423154219819
  - 0.0
  - 0.0
  - 0.0
  - 0.8895489945068409
---
header:
  stamp:
    sec: 1722533454
    nanosec: 767820155
  frame_id: odom
child_frame_id: base_link
pose:
  pose:
    position:
      x: 0.15783716790645028
      y: 0.0
      z: 0.0
    orientation:
      x: 0.0
      y: 0.0
      z: 0.0
      w: 1.0
  covariance:
  - 0.00033510868560074976
  - 0.0
  - 0.0
  - 0.0
  - 0.0
  - 0.0
  - 0.0
  - 0.00041482108733783424
  - 0.0
  - 0.0
  - 0.0
  - 5.279558041802594e-05
  - 0.0
  - 0.0
  - 9.46052238270579e-07
  - 0.0
  - -7.463768209207478e-14
  - 0.0
  - 0.0
  - 0.0
  - 0.0
  - 9.99798776998606e-07
  - 0.0
  - 0.0
  - 0.0
  - 0.0
  - -7.463768209207478e-14
  - 0.0
  - 9.997987769985027e-07
  - 0.0
  - 0.0
  - 5.2795580418025943e-05
  - 0.0
  - 0.0
  - 0.0
  - 0.015454692264934398
twist:
  twist:
    linear:
      x: 0.42899631755735984
      y: 0.0
      z: 0.0
    angular:
      x: 0.0
      y: 0.0
      z: 0.0
  covariance:
  - 0.012473542840094757
  - 0.0
  - 0.0
  - 0.0
  - 0.0
  - 0.0
  - 0.0
  - 0.08976009806721287
  - 0.0
  - 0.0
  - 0.0
  - 2.4908564867752236e-05
  - 0.0
  - 0.0
  - 9.993968164781181e-07
  - 0.0
  - -2.4833281536989892e-24
  - 0.0
  - 0.0
  - 0.0
  - 0.0
  - 9.997987769875048e-07
  - 0.0
  - 0.0
  - 0.0
  - 0.0
  - -2.48332815369899e-24
  - 0.0
  - 9.997987769875048e-07
  - 0.0
  - 0.0
  - 2.4908564867751802e-05
  - 0.0
  - 0.0
  - 0.0
  - 0.8834994991985284
---
header:
  stamp:
    sec: 1722533454
    nanosec: 830929126
  frame_id: odom
child_frame_id: base_link
pose:
  pose:
    position:
      x: 0.18746654873406363
      y: 0.0
      z: 0.0
    orientation:
      x: 0.0
      y: 0.0
      z: 0.0
      w: 1.0
  covariance:
  - 0.00029271709083308764
  - 0.0
  - 0.0
  - 0.0
  - 0.0
  - 0.0
  - 0.0
  - 0.0004091098719105102
  - 0.0
  - 0.0
  - 0.0
  - 6.500093991817879e-05
  - 0.0
  - 0.0
  - 9.56106863638797e-07
  - 0.0
  - -6.790847600917392e-14
  - 0.0
  - 0.0
  - 0.0
  - 0.0
  - 9.998398309499976e-07
  - 0.0
  - 0.0
  - 0.0
  - 0.0
  - -6.790847600917392e-14
  - 0.0
  - 9.998398309498928e-07
  - 0.0
  - 0.0
  - 6.50009399181788e-05
  - 0.0
  - 0.0
  - 0.0
  - 0.01599509543438824
twist:
  twist:
    linear:
      x: 0.4713664834736892
      y: 0.0
      z: 0.0
    angular:
      x: 0.0
      y: 0.0
      z: 0.0
  covariance:
  - 0.013026238660082916
  - 0.0
  - 0.0
  - 0.0
  - 0.0
  - 0.0
  - 0.0
  - 0.08257958934765461
  - 0.0
  - 0.0
  - 0.0
  - -7.77427729469342e-05
  - 0.0
  - 0.0
  - 9.995198005160978e-07
  - 0.0
  - -2.2603486046845263e-24
  - 0.0
  - 0.0
  - 0.0
  - 0.0
  - 9.998398309388947e-07
  - 0.0
  - 0.0
  - 0.0
  - 0.0
  - -2.260348604684526e-24
  - 0.0
  - 9.998398309388947e-07
  - 0.0
  - 0.0
  - -7.774277294693424e-05
  - 0.0
  - 0.0
  - 0.0
  - 0.8831068168836687
---
header:
  stamp:
    sec: 1722533454
    nanosec: 892999615
  frame_id: odom
child_frame_id: base_link
pose:
  pose:
    position:
      x: 0.21579536964872864
      y: 0.0
      z: 0.0
    orientation:
      x: 0.0
      y: 0.0
      z: 0.0
      w: 1.0
  covariance:
  - 0.0002470091101204736
  - 0.0
  - 0.0
  - 0.0
  - 0.0
  - 0.0
  - 0.0
  - 0.00035922342073384456
  - 0.0
  - 0.0
  - 0.0
  - 6.980766722442907e-05
  - 0.0
  - 0.0
  - 9.568573933914404e-07
  - 0.0
  - -7.162320244485613e-14
  - 0.0
  - 0.0
  - 0.0
  - 0.0
  - 9.99842947762649e-07
  - 0.0
  - 0.0
  - 0.0
  - 0.0
  - -7.162320244485613e-14
  - 0.0
  - 9.998429477625297e-07
  - 0.0
  - 0.0
  - 6.980766722442907e-05
  - 0.0
  - 0.0
  - 0.0
  - 0.015384301958587074
twist:
  twist:
    linear:
      x: 0.500248300386539
      y: 0.0
      z: 0.0
    angular:
      x: 0.0
      y: 0.0
      z: 0.0
  covariance:
  - 0.01315829238392214
  - 0.0
  - 0.0
  - 0.0
  - 0.0
  - 0.0
  - 0.0
  - 0.07402341100622806
  - 0.0
  - 0.0
  - 0.0
  - -0.0001344463578775137
  - 0.0
  - 0.0
  - 9.99529139065377e-07
  - 0.0
  - -2.3833473485432603e-24
  - 0.0
  - 0.0
  - 0.0
  - 0.0
  - 9.998429477515463e-07
  - 0.0
  - 0.0
  - 0.0
  - 0.0
  - -2.3833473485432606e-24
  - 0.0
  - 9.998429477515463e-07
  - 0.0
  - 0.0
  - -0.00013444635787751387
  - 0.0
  - 0.0
  - 0.0
  - 0.8802602116619453
---
header:
  stamp:
    sec: 1722533454
    nanosec: 941451668
  frame_id: odom
child_frame_id: base_link
pose:
  pose:
    position:
      x: 0.23703284638949554
      y: 0.0
      z: 0.0
    orientation:
      x: 0.0
      y: 0.0
      z: 0.0
      w: 1.0
  covariance:
  - 0.00021703327316559412
  - 0.0
  - 0.0
  - 0.0
  - 0.0
  - 0.0
  - 0.0
  - 0.00031255052545899585
  - 0.0
  - 0.0
  - 0.0
  - 6.651941731524187e-05
  - 0.0
  - 0.0
  - 9.47036085555212e-07
  - 0.0
  - -9.06591516285931e-14
  - 0.0
  - 0.0
  - 0.0
  - 0.0
  - 9.998031690379514e-07
  - 0.0
  - 0.0
  - 0.0
  - 0.0
  - -9.065915162859307e-14
  - 0.0
  - 9.998031690377962e-07
  - 0.0
  - 0.0
  - 6.651941731524187e-05
  - 0.0
  - 0.0
  - 0.0
  - 0.014225961858849508
twist:
  twist:
    linear:
      x: 0.5126791770254604
      y: 0.0
      z: 0.0
    angular:
      x: 0.0
      y: 0.0
      z: 0.0
  covariance:
  - 0.012932011788056823
  - 0.0
  - 0.0
  - 0.0
  - 0.0
  - 0.0
  - 0.0
  - 0.0683682305788251
  - 0.0
  - 0.0
  - 0.0
  - -0.00015939141061377577
  - 0.0
  - 0.0
  - 9.994099715552138e-07
  - 0.0
  - -3.0151111311701535e-24
  - 0.0
  - 0.0
  - 0.0
  - 0.0
  - 9.99803169026851e-07
  - 0.0
  - 0.0
  - 0.0
  - 0.0
  - -3.015111131170154e-24
  - 0.0
  - 9.99803169026851e-07
  - 0.0
  - 0.0
  - -0.0001593914106137755
  - 0.0
  - 0.0
  - 0.0
  - 0.8768949383736
---
header:
  stamp:
    sec: 1722533454
    nanosec: 996395226
  frame_id: odom
child_frame_id: base_link
pose:
  pose:
    position:
      x: 0.2608312346782497
      y: 0.0
      z: 0.0
    orientation:
      x: 0.0
      y: 0.0
      z: 0.0
      w: 1.0
  covariance:
  - 0.000216868447073789
  - 0.0
  - 0.0
  - 0.0
  - 0.0
  - 0.0
  - 0.0
  - 0.0003144994965994798
  - 0.0
  - 0.0
  - 0.0
  - 7.044342577762577e-05
  - 0.0
  - 0.0
  - 9.535809189684365e-07
  - 0.0
  - -8.081648221336648e-14
  - 0.0
  - 0.0
  - 0.0
  - 0.0
  - 9.998300409645853e-07
  - 0.0
  - 0.0
  - 0.0
  - 0.0
  - -8.081648221336648e-14
  - 0.0
  - 9.998300409644445e-07
  - 0.0
  - 0.0
  - 7.044342577762577e-05
  - 0.0
  - 0.0
  - 0.0
  - 0.014592526502387156
twist:
  twist:
    linear:
      x: 0.5196166101597538
      y: 0.0
      z: 0.0
    angular:
      x: 0.0
      y: 0.0
      z: 0.0
  covariance:
  - 0.012927296783722479
  - 0.0
  - 0.0
  - 0.0
  - 0.0
  - 0.0
  - 0.0
  - 0.06668499803315536
  - 0.0
  - 0.0
  - 0.0
  - -0.00026846746914327115
  - 0.0
  - 0.0
  - 9.994904691858625e-07
  - 0.0
  - -2.687608138553241e-24
  - 0.0
  - 0.0
  - 0.0
  - 0.0
  - 9.998300409534843e-07
  - 0.0
  - 0.0
  - 0.0
  - 0.0
  - -2.6876081385532388e-24
  - 0.0
  - 9.998300409534843e-07
  - 0.0
  - 0.0
  - -0.0002684674691432719
  - 0.0
  - 0.0
  - 0.0
  - 0.8754381546719995
---
header:
  stamp:
    sec: 1722533455
    nanosec: 38626514
  frame_id: odom
child_frame_id: base_link
pose:
  pose:
    position:
      x: 0.2787496576538569
      y: 0.0
      z: 0.0
    orientation:
      x: 0.0
      y: 0.0
      z: 0.0
      w: 1.0
  covariance:
  - 0.00022417933117548325
  - 0.0
  - 0.0
  - 0.0
  - 0.0
  - 0.0
  - 0.0
  - 0.00032135089930790254
  - 0.0
  - 0.0
  - 0.0
  - 6.995344673341763e-05
  - 0.0
  - 0.0
  - 9.368559859886191e-07
  - 0.0
  - -1.1069698022810028e-13
  - 0.0
  - 0.0
  - 0.0
  - 0.0
  - 9.997597808975861e-07
  - 0.0
  - 0.0
  - 0.0
  - 0.0
  - -1.1069698022810028e-13
  - 0.0
  - 9.99759780897392e-07
  - 0.0
  - 0.0
  - 6.995344673341763e-05
  - 0.0
  - 0.0
  - 0.0
  - 0.014142613092265333
twist:
  twist:
    linear:
      x: 0.5200341195737598
      y: 0.0
      z: 0.0
    angular:
      x: 0.0
      y: 0.0
      z: 0.0
  covariance:
  - 0.01285283052463809
  - 0.0
  - 0.0
  - 0.0
  - 0.0
  - 0.0
  - 0.0
  - 0.06618469433126815
  - 0.0
  - 0.0
  - 0.0
  - -0.000364398365096581
  - 0.0
  - 0.0
  - 9.99280034388457e-07
  - 0.0
  - -3.68112509353418e-24
  - 0.0
  - 0.0
  - 0.0
  - 0.0
  - 9.99759780886487e-07
  - 0.0
  - 0.0
  - 0.0
  - 0.0
  - -3.6811250935341814e-24
  - 0.0
  - 9.99759780886487e-07
  - 0.0
  - 0.0
  - -0.0003643983650965814
  - 0.0
  - 0.0
  - 0.0
  - 0.8735870673732363
---
header:
  stamp:
    sec: 1722533455
    nanosec: 94235791
  frame_id: odom
child_frame_id: base_link
pose:
  pose:
    position:
      x: 0.3021112558595935
      y: 0.0
      z: 0.0
    orientation:
      x: 0.0
      y: 0.0
      z: 0.0
      w: 1.0
  covariance:
  - 0.00024605449458100175
  - 0.0
  - 0.0
  - 0.0
  - 0.0
  - 0.0
  - 0.0
  - 0.00034550300698813136
  - 0.0
  - 0.0
  - 0.0
  - 6.49189636571577e-05
  - 0.0
  - 0.0
  - 9.236698632555388e-07
  - 0.0
  - -1.3380387021354853e-13
  - 0.0
  - 0.0
  - 0.0
  - 0.0
  - 9.9970048313407e-07
  - 0.0
  - 0.0
  - 0.0
  - 0.0
  - -1.3380387021354853e-13
  - 0.0
  - 9.997004831338357e-07
  - 0.0
  - 0.0
  - 6.49189636571577e-05
  - 0.0
  - 0.0
  - 0.0
  - 0.01417160498904654
twist:
  twist:
    linear:
      x: 0.516866552208002
      y: 0.0
      z: 0.0
    angular:
      x: 0.0
      y: 0.0
      z: 0.0
  covariance:
  - 0.012829725074555213
  - 0.0
  - 0.0
  - 0.0
  - 0.0
  - 0.0
  - 0.0
  - 0.06832881094823014
  - 0.0
  - 0.0
  - 0.0
  - -0.00041777102472037586
  - 0.0
  - 0.0
  - 9.991025245361796e-07
  - 0.0
  - -4.448181404384391e-24
  - 0.0
  - 0.0
  - 0.0
  - 0.0
  - 9.99700483122973e-07
  - 0.0
  - 0.0
  - 0.0
  - 0.0
  - -4.4481814043843934e-24
  - 0.0
  - 9.99700483122973e-07
  - 0.0
  - 0.0
  - -0.00041777102472037505
  - 0.0
  - 0.0
  - 0.0
  - 0.8728343368921553
---
header:
  stamp:
    sec: 1722533455
    nanosec: 143277813
  frame_id: odom
child_frame_id: base_link
pose:
  pose:
    position:
      x: 0.3202478142649236
      y: 0.0
      z: 0.0
    orientation:
      x: 0.0
      y: 0.0
      z: 0.0
      w: 1.0
  covariance:
  - 0.0001855665080932971
  - 0.0
  - 0.0
  - 0.0
  - 0.0
  - 0.0
  - 0.0
  - 0.0002474585818717503
  - 0.0
  - 0.0
  - 0.0
  - 5.05883040504162e-05
  - 0.0
  - 0.0
  - 9.182150055889782e-07
  - 0.0
  - -1.3806222987707357e-13
  - 0.0
  - 0.0
  - 0.0
  - 0.0
  - 9.996771433581903e-07
  - 0.0
  - 0.0
  - 0.0
  - 0.0
  - -1.380622298770736e-13
  - 0.0
  - 9.99677143357957e-07
  - 0.0
  - 0.0
  - 5.058830405041622e-05
  - 0.0
  - 0.0
  - 0.0
  - 0.011852498224388108
twist:
  twist:
    linear:
      x: 0.5023545087302306
      y: 0.0
      z: 0.0
    angular:
      x: 0.0
      y: 0.0
      z: 0.0
  covariance:
  - 0.011360901593349246
  - 0.0
  - 0.0
  - 0.0
  - 0.0
  - 0.0
  - 0.0
  - 0.06363402093396985
  - 0.0
  - 0.0
  - 0.0
  - -0.0001730208000895317
  - 0.0
  - 0.0
  - 9.990326784426878e-07
  - 0.0
  - -4.582587985479549e-24
  - 0.0
  - 0.0
  - 0.0
  - 0.0
  - 9.996771433470975e-07
  - 0.0
  - 0.0
  - 0.0
  - 0.0
  - -4.5825879854795516e-24
  - 0.0
  - 9.996771433470975e-07
  - 0.0
  - 0.0
  - -0.00017302080008953075
  - 0.0
  - 0.0
  - 0.0
  - 0.8687946756142477
---
header:
  stamp:
    sec: 1722533455
    nanosec: 189253355
  frame_id: odom
child_frame_id: base_link
pose:
  pose:
    position:
      x: 0.33838185006894567
      y: 0.0
      z: 0.0
    orientation:
      x: 0.0
      y: 0.0
      z: 0.0
      w: 1.0
  covariance:
  - 0.00016644086161543995
  - 0.0
  - 0.0
  - 0.0
  - 0.0
  - 0.0
  - 0.0
  - 0.00023242474289651688
  - 0.0
  - 0.0
  - 0.0
  - 5.0687986341425186e-05
  - 0.0
  - 0.0
  - 9.04847361651649e-07
  - 0.0
  - -1.5761600793613622e-13
  - 0.0
  - 0.0
  - 0.0
  - 0.0
  - 9.996118992001943e-07
  - 0.0
  - 0.0
  - 0.0
  - 0.0
  - -1.5761600793613622e-13
  - 0.0
  - 9.996118991999332e-07
  - 0.0
  - 0.0
  - 5.068798634142519e-05
  - 0.0
  - 0.0
  - 0.0
  - 0.01157755860186164
twist:
  twist:
    linear:
      x: 0.49352986850533354
      y: 0.0
      z: 0.0
    angular:
      x: 0.0
      y: 0.0
      z: 0.0
  covariance:
  - 0.01092213862357663
  - 0.0
  - 0.0
  - 0.0
  - 0.0
  - 0.0
  - 0.0
  - 0.06164654038243572
  - 0.0
  - 0.0
  - 0.0
  - -0.00016856167889816199
  - 0.0
  - 0.0
  - 9.988375013060002e-07
  - 0.0
  - -5.230987234621143e-24
  - 0.0
  - 0.0
  - 0.0
  - 0.0
  - 9.996118991891037e-07
  - 0.0
  - 0.0
  - 0.0
  - 0.0
  - -5.230987234621146e-24
  - 0.0
  - 9.996118991891037e-07
  - 0.0
  - 0.0
  - -0.00016856167889816115
  - 0.0
  - 0.0
  - 0.0
  - 0.8670380384551023
---
header:
  stamp:
    sec: 1722533455
    nanosec: 239668704
  frame_id: odom
child_frame_id: base_link
pose:
  pose:
    position:
      x: 0.358726145292037
      y: 0.0
      z: 0.0
    orientation:
      x: 0.0
      y: 0.0
      z: 0.0
      w: 1.0
  covariance:
  - 0.00016778641746054048
  - 0.0
  - 0.0
  - 0.0
  - 0.0
  - 0.0
  - 0.0
  - 0.00024450081392806143
  - 0.0
  - 0.0
  - 0.0
  - 5.422752743933206e-05
  - 0.0
  - 0.0
  - 9.183180135360487e-07
  - 0.0
  - -1.330804210953777e-13
  - 0.0
  - 0.0
  - 0.0
  - 0.0
  - 9.996769968910676e-07
  - 0.0
  - 0.0
  - 0.0
  - 0.0
  - -1.3308042109537767e-13
  - 0.0
  - 9.996769968908507e-07
  - 0.0
  - 0.0
  - 5.422752743933203e-05
  - 0.0
  - 0.0
  - 0.0
  - 0.012186068650180284
twist:
  twist:
    linear:
      x: 0.48530046741890875
      y: 0.0
      z: 0.0
    angular:
      x: 0.0
      y: 0.0
      z: 0.0
  covariance:
  - 0.010887654934777273
  - 0.0
  - 0.0
  - 0.0
  - 0.0
  - 0.0
  - 0.0
  - 0.06079134023096123
  - 0.0
  - 0.0
  - 0.0
  - -0.00023554738891180853
  - 0.0
  - 0.0
  - 9.99032240406784e-07
  - 0.0
  - -4.419176586661607e-24
  - 0.0
  - 0.0
  - 0.0
  - 0.0
  - 9.996769968799738e-07
  - 0.0
  - 0.0
  - 0.0
  - 0.0
  - -4.4191765866616045e-24
  - 0.0
  - 9.996769968799738e-07
  - 0.0
  - 0.0
  - -0.0002355473889118081
  - 0.0
  - 0.0
  - 0.0
  - 0.8664531387117455
---
header:
  stamp:
    sec: 1722533455
    nanosec: 296572500
  frame_id: odom
child_frame_id: base_link
pose:
  pose:
    position:
      x: 0.38115420517569976
      y: 0.0
      z: 0.0
    orientation:
      x: 0.0
      y: 0.0
      z: 0.0
      w: 1.0
  covariance:
  - 0.00015995592186740997
  - 0.0
  - 0.0
  - 0.0
  - 0.0
  - 0.0
  - 0.0
  - 0.0002302819616362145
  - 0.0
  - 0.0
  - 0.0
  - 4.8996615665954676e-05
  - 0.0
  - 0.0
  - 9.154309286956192e-07
  - 0.0
  - -1.342325276922203e-13
  - 0.0
  - 0.0
  - 0.0
  - 0.0
  - 9.996639033079075e-07
  - 0.0
  - 0.0
  - 0.0
  - 0.0
  - -1.3423252769222022e-13
  - 0.0
  - 9.996639033076946e-07
  - 0.0
  - 0.0
  - 4.89966156659547e-05
  - 0.0
  - 0.0
  - 0.0
  - 0.011701653566761698
twist:
  twist:
    linear:
      x: 0.47328028922950643
      y: 0.0
      z: 0.0
    angular:
      x: 0.0
      y: 0.0
      z: 0.0
  covariance:
  - 0.010600088687372227
  - 0.0
  - 0.0
  - 0.0
  - 0.0
  - 0.0
  - 0.0
  - 0.058673130667390105
  - 0.0
  - 0.0
  - 0.0
  - -0.0002307846549429279
  - 0.0
  - 0.0
  - 9.989930627593658e-07
  - 0.0
  - -4.4554393947923825e-24
  - 0.0
  - 0.0
  - 0.0
  - 0.0
  - 9.996639032968153e-07
  - 0.0
  - 0.0
  - 0.0
  - 0.0
  - -4.455439394792382e-24
  - 0.0
  - 9.996639032968153e-07
  - 0.0
  - 0.0
  - -0.00023078465494292798
  - 0.0
  - 0.0
  - 0.0
  - 0.8644130445456777
---
header:
  stamp:
    sec: 1722533455
    nanosec: 344854362
  frame_id: odom
child_frame_id: base_link
pose:
  pose:
    position:
      x: 0.4003039990159247
      y: 0.0
      z: 0.0
    orientation:
      x: 0.0
      y: 0.0
      z: 0.0
      w: 1.0
  covariance:
  - 0.00016091442019949373
  - 0.0
  - 0.0
  - 0.0
  - 0.0
  - 0.0
  - 0.0
  - 0.00023292071618032404
  - 0.0
  - 0.0
  - 0.0
  - 4.988258995325661e-05
  - 0.0
  - 0.0
  - 9.219352878703198e-07
  - 0.0
  - -1.2141811615498306e-13
  - 0.0
  - 0.0
  - 0.0
  - 0.0
  - 9.996940917121095e-07
  - 0.0
  - 0.0
  - 0.0
  - 0.0
  - -1.214181161549831e-13
  - 0.0
  - 9.996940917119206e-07
  - 0.0
  - 0.0
  - 4.988258995325662e-05
  - 0.0
  - 0.0
  - 0.0
  - 0.012005709107929422
twist:
  twist:
    linear:
      x: 0.463912304411751
      y: 0.0
      z: 0.0
    angular:
      x: 0.0
      y: 0.0
      z: 0.0
  covariance:
  - 0.010520609134755176
  - 0.0
  - 0.0
  - 0.0
  - 0.0
  - 0.0
  - 0.0
  - 0.05873611872553472
  - 0.0
  - 0.0
  - 0.0
  - -0.00023857426064946094
  - 0.0
  - 0.0
  - 9.990833960760346e-07
  - 0.0
  - -4.031665403113792e-24
  - 0.0
  - 0.0
  - 0.0
  - 0.0
  - 9.996940917010155e-07
  - 0.0
  - 0.0
  - 0.0
  - 0.0
  - -4.0316654031137886e-24
  - 0.0
  - 9.996940917010155e-07
  - 0.0
  - 0.0
  - -0.00023857426064946137
  - 0.0
  - 0.0
  - 0.0
  - 0.8637750608410006
---
header:
  stamp:
    sec: 1722533455
    nanosec: 396923222
  frame_id: odom
child_frame_id: base_link
pose:
  pose:
    position:
      x: 0.42098041377172973
      y: 0.0
      z: 0.0
    orientation:
      x: 0.0
      y: 0.0
      z: 0.0
      w: 1.0
  covariance:
  - 0.00016609948100696439
  - 0.0
  - 0.0
  - 0.0
  - 0.0
  - 0.0
  - 0.0
  - 0.00024163274570547538
  - 0.0
  - 0.0
  - 0.0
  - 5.020421519312871e-05
  - 0.0
  - 0.0
  - 9.153742243280742e-07
  - 0.0
  - -1.289296402591238e-13
  - 0.0
  - 0.0
  - 0.0
  - 0.0
  - 9.99663145869305e-07
  - 0.0
  - 0.0
  - 0.0
  - 0.0
  - -1.2892964025912384e-13
  - 0.0
  - 9.996631458691083e-07
  - 0.0
  - 0.0
  - 5.020421519312872e-05
  - 0.0
  - 0.0
  - 0.0
  - 0.012037218319897895
twist:
  twist:
    linear:
      x: 0.45441281910423265
      y: 0.0
      z: 0.0
    angular:
      x: 0.0
      y: 0.0
      z: 0.0
  covariance:
  - 0.010513565215471922
  - 0.0
  - 0.0
  - 0.0
  - 0.0
  - 0.0
  - 0.0
  - 0.0590330327603459
  - 0.0
  - 0.0
  - 0.0
  - -0.0002722203114874132
  - 0.0
  - 0.0
  - 9.989907967230868e-07
  - 0.0
  - -4.28073289422196e-24
  - 0.0
  - 0.0
  - 0.0
  - 0.0
  - 9.99663145858212e-07
  - 0.0
  - 0.0
  - 0.0
  - 0.0
  - -4.280732894221962e-24
  - 0.0
  - 9.99663145858212e-07
  - 0.0
  - 0.0
  - -0.0002722203114874134
  - 0.0
  - 0.0
  - 0.0
  - 0.8627974053265047
---
header:
  stamp:
    sec: 1722533455
    nanosec: 445407676
  frame_id: odom
child_frame_id: base_link
pose:
  pose:
    position:
      x: 0.4399878218997846
      y: 0.0
      z: 0.0
    orientation:
      x: 0.0
      y: 0.0
      z: 0.0
      w: 1.0
  covariance:
  - 0.00016047474770667936
  - 0.0
  - 0.0
  - 0.0
  - 0.0
  - 0.0
  - 0.0
  - 0.00022852745268644485
  - 0.0
  - 0.0
  - 0.0
  - 4.444070893656386e-05
  - 0.0
  - 0.0
  - 9.082448359373773e-07
  - 0.0
  - -1.3674847307208958e-13
  - 0.0
  - 0.0
  - 0.0
  - 0.0
  - 9.996291129365862e-07
  - 0.0
  - 0.0
  - 0.0
  - 0.0
  - -1.3674847307208963e-13
  - 0.0
  - 9.996291129363825e-07
  - 0.0
  - 0.0
  - 4.444070893656386e-05
  - 0.0
  - 0.0
  - 0.0
  - 0.011466305090701422
twist:
  twist:
    linear:
      x: 0.4450704128954274
      y: 0.0
      z: 0.0
    angular:
      x: 0.0
      y: 0.0
      z: 0.0
  covariance:
  - 0.01029205237948161
  - 0.0
  - 0.0
  - 0.0
  - 0.0
  - 0.0
  - 0.0
  - 0.05819049092057785
  - 0.0
  - 0.0
  - 0.0
  - -0.00023187981798343226
  - 0.0
  - 0.0
  - 9.988889860387606e-07
  - 0.0
  - -4.538140824562029e-24
  - 0.0
  - 0.0
  - 0.0
  - 0.0
  - 9.996291129254952e-07
  - 0.0
  - 0.0
  - 0.0
  - 0.0
  - -4.5381408245620324e-24
  - 0.0
  - 9.996291129254952e-07
  - 0.0
  - 0.0
  - -0.00023187981798343266
  - 0.0
  - 0.0
  - 0.0
  - 0.8612977565793273
---
header:
  stamp:
    sec: 1722533455
    nanosec: 489508917
  frame_id: odom
child_frame_id: base_link
pose:
  pose:
    position:
      x: 0.4573278572312303
      y: 0.0
      z: 0.0
    orientation:
      x: 0.0
      y: 0.0
      z: 0.0
      w: 1.0
  covariance:
  - 0.00015513394729326432
  - 0.0
  - 0.0
  - 0.0
  - 0.0
  - 0.0
  - 0.0
  - 0.00022239044907169857
  - 0.0
  - 0.0
  - 0.0
  - 4.426525585786283e-05
  - 0.0
  - 0.0
  - 9.063273895525834e-07
  - 0.0
  - -1.3709176369291226e-13
  - 0.0
  - 0.0
  - 0.0
  - 0.0
  - 9.996197927726765e-07
  - 0.0
  - 0.0
  - 0.0
  - 0.0
  - -1.370917636929122e-13
  - 0.0
  - 9.996197927724758e-07
  - 0.0
  - 0.0
  - 4.4265255857862834e-05
  - 0.0
  - 0.0
  - 0.0
  - 0.011424586066731074
twist:
  twist:
    linear:
      x: 0.4374927593352833
      y: 0.0
      z: 0.0
    angular:
      x: 0.0
      y: 0.0
      z: 0.0
  covariance:
  - 0.010148612395621853
  - 0.0
  - 0.0
  - 0.0
  - 0.0
  - 0.0
  - 0.0
  - 0.05799530413914128
  - 0.0
  - 0.0
  - 0.0
  - -0.0002119455973004442
  - 0.0
  - 0.0
  - 9.98861109259121e-07
  - 0.0
  - -4.548900547421329e-24
  - 0.0
  - 0.0
  - 0.0
  - 0.0
  - 9.99619792761586e-07
  - 0.0
  - 0.0
  - 0.0
  - 0.0
  - -4.548900547421328e-24
  - 0.0
  - 9.99619792761586e-07
  - 0.0
  - 0.0
  - -0.00021194559730044452
  - 0.0
  - 0.0
  - 0.0
  - 0.8605264342619494
---
header:
  stamp:
    sec: 1722533455
    nanosec: 538973766
  frame_id: odom
child_frame_id: base_link
pose:
  pose:
    position:
      x: 0.47702344261087887
      y: 0.0
      z: 0.0
    orientation:
      x: 0.0
      y: 0.0
      z: 0.0
      w: 1.0
  covariance:
  - 0.0001629047487864465
  - 0.0
  - 0.0
  - 0.0
  - 0.0
  - 0.0
  - 0.0
  - 0.00024142032286895916
  - 0.0
  - 0.0
  - 0.0
  - 5.000200057628711e-05
  - 0.0
  - 0.0
  - 9.303787758923744e-07
  - 0.0
  - -1.0032349611529449e-13
  - 0.0
  - 0.0
  - 0.0
  - 0.0
  - 9.997322100975205e-07
  - 0.0
  - 0.0
  - 0.0
  - 0.0
  - -1.0032349611529452e-13
  - 0.0
  - 9.997322100973763e-07
  - 0.0
  - 0.0
  - 5.00020005762871e-05
  - 0.0
  - 0.0
  - 0.0
  - 0.012549636685819522
twist:
  twist:
    linear:
      x: 0.4307940759490643
      y: 0.0
      z: 0.0
    angular:
      x: 0.0
      y: 0.0
      z: 0.0
  covariance:
  - 0.010293101125463543
  - 0.0
  - 0.0
  - 0.0
  - 0.0
  - 0.0
  - 0.0
  - 0.05935704508302771
  - 0.0
  - 0.0
  - 0.0
  - -0.00024115487159279115
  - 0.0
  - 0.0
  - 9.991974894460605e-07
  - 0.0
  - -3.3324239151232756e-24
  - 0.0
  - 0.0
  - 0.0
  - 0.0
  - 9.997322100864248e-07
  - 0.0
  - 0.0
  - 0.0
  - 0.0
  - -3.3324239151232785e-24
  - 0.0
  - 9.997322100864248e-07
  - 0.0
  - 0.0
  - -0.00024115487159279136
  - 0.0
  - 0.0
  - 0.0
  - 0.8612989974890178
---
header:
  stamp:
    sec: 1722533455
    nanosec: 587226077
  frame_id: odom
child_frame_id: base_link
pose:
  pose:
    position:
      x: 0.49616480935326324
      y: 0.0
      z: 0.0
    orientation:
      x: 0.0
      y: 0.0
      z: 0.0
      w: 1.0
  covariance:
  - 0.00016466143988637377
  - 0.0
  - 0.0
  - 0.0
  - 0.0
  - 0.0
  - 0.0
  - 0.00024359184832238595
  - 0.0
  - 0.0
  - 0.0
  - 4.873197271831356e-05
  - 0.0
  - 0.0
  - 9.244481977151486e-07
  - 0.0
  - -1.0723471426819298e-13
  - 0.0
  - 0.0
  - 0.0
  - 0.0
  - 9.99705311607623e-07
  - 0.0
  - 0.0
  - 0.0
  - 0.0
  - -1.0723471426819298e-13
  - 0.0
  - 9.997053116074705e-07
  - 0.0
  - 0.0
  - 4.873197271831357e-05
  - 0.0
  - 0.0
  - 0.0
  - 0.012415879499454406
twist:
  twist:
    linear:
      x: 0.4245691834608604
      y: 0.0
      z: 0.0
    angular:
      x: 0.0
      y: 0.0
      z: 0.0
  covariance:
  - 0.01029062782763266
  - 0.0
  - 0.0
  - 0.0
  - 0.0
  - 0.0
  - 0.0
  - 0.05917642539992403
  - 0.0
  - 0.0
  - 0.0
  - -0.00024942789789326623
  - 0.0
  - 0.0
  - 9.991169751992075e-07
  - 0.0
  - -3.561873502253169e-24
  - 0.0
  - 0.0
  - 0.0
  - 0.0
  - 9.997053115965276e-07
  - 0.0
  - 0.0
  - 0.0
  - 0.0
  - -3.5618735022531676e-24
  - 0.0
  - 9.997053115965276e-07
  - 0.0
  - 0.0
  - -0.0002494278978932661
  - 0.0
  - 0.0
  - 0.0
  - 0.8605057928830071
---
header:
  stamp:
    sec: 1722533455
    nanosec: 641350218
  frame_id: odom
child_frame_id: base_link
pose:
  pose:
    position:
      x: 0.5177063522304843
      y: 0.0
      z: 0.0
    orientation:
      x: 0.0
      y: 0.0
      z: 0.0
      w: 1.0
  covariance:
  - 0.000169280668896695
  - 0.0
  - 0.0
  - 0.0
  - 0.0
  - 0.0
  - 0.0
  - 0.00024693632224185235
  - 0.0
  - 0.0
  - 0.0
  - 4.5493846862287774e-05
  - 0.0
  - 0.0
  - 9.095386647172476e-07
  - 0.0
  - -1.2651516022017755e-13
  - 0.0
  - 0.0
  - 0.0
  - 0.0
  - 9.99634994161981e-07
  - 0.0
  - 0.0
  - 0.0
  - 0.0
  - -1.2651516022017753e-13
  - 0.0
  - 9.996349941618043e-07
  - 0.0
  - 0.0
  - 4.549384686228777e-05
  - 0.0
  - 0.0
  - 0.0
  - 0.01196836853689047
twist:
  twist:
    linear:
      x: 0.41865504849214047
      y: 0.0
      z: 0.0
    angular:
      x: 0.0
      y: 0.0
      z: 0.0
  covariance:
  - 0.0103131224565593
  - 0.0
  - 0.0
  - 0.0
  - 0.0
  - 0.0
  - 0.0
  - 0.0591551992822805
  - 0.0
  - 0.0
  - 0.0
  - -0.0002631325251679527
  - 0.0
  - 0.0
  - 9.989065780851751e-07
  - 0.0
  - -4.199702301327214e-24
  - 0.0
  - 0.0
  - 0.0
  - 0.0
  - 9.996349941508892e-07
  - 0.0
  - 0.0
  - 0.0
  - 0.0
  - -4.199702301327214e-24
  - 0.0
  - 9.996349941508892e-07
  - 0.0
  - 0.0
  - -0.000263132525167952
  - 0.0
  - 0.0
  - 0.0
  - 0.8594043308108785
---
header:
  stamp:
    sec: 1722533455
    nanosec: 687118296
  frame_id: odom
child_frame_id: base_link
pose:
  pose:
    position:
      x: 0.5358733428657106
      y: 0.0
      z: 0.0
    orientation:
      x: 0.0
      y: 0.0
      z: 0.0
      w: 1.0
  covariance:
  - 0.00016054745223325034
  - 0.0
  - 0.0
  - 0.0
  - 0.0
  - 0.0
  - 0.0
  - 0.00023037400510854538
  - 0.0
  - 0.0
  - 0.0
  - 4.212444950512342e-05
  - 0.0
  - 0.0
  - 9.068092709011016e-07
  - 0.0
  - -1.287780527262382e-13
  - 0.0
  - 0.0
  - 0.0
  - 0.0
  - 9.996221265667408e-07
  - 0.0
  - 0.0
  - 0.0
  - 0.0
  - -1.2877805272623823e-13
  - 0.0
  - 9.996221265665625e-07
  - 0.0
  - 0.0
  - 4.212444950512342e-05
  - 0.0
  - 0.0
  - 0.0
  - 0.011559045578251048
twist:
  twist:
    linear:
      x: 0.41407091834560517
      y: 0.0
      z: 0.0
    angular:
      x: 0.0
      y: 0.0
      z: 0.0
  covariance:
  - 0.010110913165316048
  - 0.0
  - 0.0
  - 0.0
  - 0.0
  - 0.0
  - 0.0
  - 0.05842448514001719
  - 0.0
  - 0.0
  - 0.0
  - -0.00021202038971320045
  - 0.0
  - 0.0
