header:
  stamp:
    sec: 1722530805
    nanosec: 888370876
  frame_id: map
child_frame_id: base_link
pose:
  pose:
    position:
      x: -0.52011416432478
      y: 0.3946904933585201
      z: 2.1457979329140214e-22
    orientation:
      x: -2.7704040063635722e-12
      y: 1.4745764932314964e-09
      z: -0.00037498074386880826
      w: 0.9999999296947184
  covariance:
  - 0.04514394518700082
  - -0.00015076484909144565
  - -8.458990107768064e-20
  - 1.4270337932865818e-19
  - -5.5450491633818706e-17
  - 4.125481694443901e-08
  - -0.00015076484909144546
  - 0.04552787700679322
  - -7.191013193859278e-23
  - 7.867982421337328e-20
  - 8.909594317089509e-17
  - -6.716851415489065e-08
  - -8.458990107768067e-20
  - -7.191013193859281e-23
  - 9.999392812555232e-07
  - -2.4896314753888495e-21
  - 2.0235931136786452e-21
  - -1.224655442106627e-21
  - 1.42703379328658e-19
  - 7.867982421337331e-20
  - -2.4896314753888487e-21
  - 2.400405346447533e-08
  - -1.1182282201086568e-16
  - -3.960242673953702e-12
  - -5.545049163381885e-17
  - 8.90959431708953e-17
  - 2.023593113678646e-21
  - -1.1182282200969474e-16
  - 2.400398451085185e-08
  - -1.4513243017917975e-08
  - 4.125481694443901e-08
  - -6.716851415489065e-08
  - -1.2246554421066235e-21
  - -3.960242673953697e-12
  - -1.4513243017917935e-08
  - 10.899491036495265
twist:
  twist:
    linear:
      x: -1.02479784537657e-08
      y: -1.260926861088712e-08
      z: -2.163314971907052e-27
    angular:
      x: 2.2151237895025324e-17
      y: -9.828576709841245e-15
      z: 6.103071118102342e-05
  covariance:
  - 0.0009193127455867793
  - -2.302725812939042e-13
  - 3.0743831017918652e-24
  - 2.5952484388447624e-28
  - -2.0758419251602034e-24
  - 5.388869314327286e-22
  - -2.3027258129390435e-13
  - 0.000919312746642979
  - 6.936236141652201e-27
  - 8.582875555192155e-29
  - -1.6729432419001172e-25
  - 9.690215327927334e-23
  - 3.0743831017918656e-24
  - 6.936236141652195e-27
  - 9.995146625623619e-07
  - -8.23254583288781e-32
  - 6.691487716702905e-32
  - 1.616696784898676e-28
  - 2.5952484388448897e-28
  - 8.58287555519217e-29
  - -8.232545832887806e-32
  - 9.99838116093274e-07
  - -1.2419883165561031e-27
  - -2.290246857607819e-18
  - -2.075841925160206e-24
  - -1.672943241900119e-25
  - 6.691487716702902e-32
  - -1.2419883165430998e-27
  - 9.99838116093274e-07
  - 6.274015155538977e-16
  - 5.388869314327288e-22
  - 9.690215327927346e-23
  - 1.6166967848986751e-28
  - -2.29024685760782e-18
  - 6.274015155538973e-16
  - 0.01632652533434034
---
header:
  stamp:
    sec: 1722530806
    nanosec: 48339288
  frame_id: map
child_frame_id: base_link
pose:
  pose:
    position:
      x: -0.5223139572177755
      y: 0.39613469128418677
      z: 2.6788893356735067e-22
    orientation:
      x: -1.9356960316144484e-12
      y: 1.056453878329445e-09
      z: -0.0003451984021452942
      w: 0.9999999404190298
  covariance:
  - 0.025046178863339676
  - -0.0002538471556059421
  - -3.2602953648846e-20
  - 9.462983488972167e-20
  - 2.1847574438209744e-17
  - -2.2821131460372087e-08
  - -0.0002538471556059419
  - 0.02528559210484889
  - -1.1982412704806854e-21
  - 8.99759436427673e-20
  - 1.0861862369512498e-16
  - -1.1319245270214086e-07
  - -3.260295364884602e-20
  - -1.1982412704806854e-21
  - 9.998895817763544e-07
  - 4.2896685164151893e-23
  - 3.0783622361951003e-21
  - -1.724038452664844e-21
  - 9.462983488972165e-20
  - 8.997594364276721e-20
  - 4.2896685164151893e-23
  - 1.8916239384861254e-08
  - -5.905724094091643e-17
  - -3.2598080080355375e-12
  - 2.1847574438209797e-17
  - 1.0861862369512525e-16
  - 3.0783622361951003e-21
  - -5.905724094025026e-17
  - 1.891620276417112e-08
  - -1.0566632846877804e-08
  - -2.2821131460372077e-08
  - -1.131924527021409e-07
  - -1.7240384526648386e-21
  - -3.2598080080355383e-12
  - -1.0566632846877773e-08
  - 10.97950651491891
twist:
  twist:
    linear:
      x: -3.005833770417689e-08
      y: 3.9054373642764877e-10
      z: -7.104194328255241e-28
    angular:
      x: 1.5333129229659298e-17
      y: -7.04190945769108e-15
      z: -0.00014502531881167402
  covariance:
  - 0.0008692212087893665
  - -1.496936485450839e-13
  - 3.3728982451931994e-24
  - 9.439704103109742e-29
  - -1.2382848486023143e-24
  - 7.468595455896376e-22
  - -1.4969364854508394e-13
  - 0.0008692212094688264
  - 7.354591966414576e-27
  - 4.824993440715211e-29
  - -9.33169915621933e-26
  - 1.0776465844362066e-22
  - 3.372898245193197e-24
  - 7.354591966414579e-27
  - 9.991180173527525e-07
  - 1.4084037172163062e-33
  - 1.009188495328009e-31
  - 7.931519675391288e-28
  - 9.439704103110501e-29
  - 4.8249934407152097e-29
  - 1.408403717216306e-33
  - 9.99705659711914e-07
  - -6.559851589641087e-28
  - -1.1883904094917336e-18
  - -1.2382848486023176e-24
  - -9.331699156219348e-26
  - 1.0091884953280084e-31
  - -6.559851589567101e-28
  - 9.99705659711914e-07
  - 1.6144664808440855e-15
  - 7.468595455896393e-22
  - 1.077646584436208e-22
  - 7.931519675391287e-28
  - -1.188390409491734e-18
  - 1.6144664808440857e-15
  - 0.01410707928704964
---
header:
  stamp:
    sec: 1722530806
    nanosec: 82634119
  frame_id: map
child_frame_id: base_link
pose:
  pose:
    position:
      x: -0.5223139604152254
      y: 0.39613469132300216
      z: 2.440793399712547e-22
    orientation:
      x: -1.830935482845496e-12
      y: 9.98106291373737e-10
      z: -0.0003459789829921592
      w: 0.9999999401492699
  covariance:
  - 0.042194064818953
  - -0.0002538475932157941
  - -2.804755773080735e-20
  - 8.957645735088511e-20
  - 2.12527506442318e-17
  - -2.3518975509710046e-08
  - -0.00025384759321579417
  - 0.04243347847276335
  - -2.4716196048138382e-23
  - 9.827830387976263e-20
  - 1.4716998085184584e-16
  - -1.6209343479921892e-07
  - -2.8047557730807343e-20
  - -2.4716196048138376e-23
  - 9.9988859581164e-07
  - 3.3046956259151986e-23
  - 2.8163140366456647e-21
  - -1.5449578465011652e-21
  - 8.957645735088508e-20
  - 9.827830387976254e-20
  - 3.304695625915201e-23
  - 1.82700474362529e-08
  - -5.270456413119285e-17
  - -3.0277400788581346e-12
  - 2.125275064423184e-17
  - 1.4716998085184636e-16
  - 2.8163140366456654e-21
  - -5.2704564130600084e-17
  - 1.827001469166341e-08
  - -9.995948508419457e-09
  - -2.351897550971004e-08
  - -1.6209343479921895e-07
  - -1.5449578465011597e-21
  - -3.027740078858135e-12
  - -9.995948508419427e-09
  - 10.99666534140063
twist:
  twist:
    linear:
      x: -2.9166245626319455e-08
      y: 3.4218598253386216e-10
      z: -2.43584029074017e-27
    angular:
      x: 1.4503968866991917e-17
      y: -6.651721740542363e-15
      z: -2.3277015715116797e-05
  covariance:
  - 0.0008671022213745257
  - -1.4111270757919618e-13
  - 2.988394382184423e-24
  - 9.026119324326018e-29
  - -1.1367978029501481e-24
  - 1.9601127355805864e-22
  - -1.411127075791962e-13
  - 0.0008671022220152747
  - 6.515256304984695e-27
  - 4.456841932502247e-29
  - -8.567855245947322e-26
  - 2.277532771949079e-23
  - 2.9883943821844233e-24
  - 6.515256304984697e-27
  - 9.99110153623141e-07
  - 1.0810631455454544e-33
  - 9.21297577010731e-32
  - 1.1388158729320772e-28
  - 9.026119324326719e-29
  - 4.4568419325022463e-29
  - 1.0810631455454542e-33
  - 9.997030324010533e-07
  - -5.851989768285952e-28
  - -1.2119177558356111e-18
  - -1.136797802950151e-24
  - -8.56785524594733e-26
  - 9.212975770107307e-32
  - -5.851989768220134e-28
  - 9.997030324010533e-07
  - 2.4496227594828666e-16
  - 1.960112735580591e-22
  - 2.2775327719490812e-23
  - 1.1388158729320772e-28
  - -1.2119177558356113e-18
  - 2.4496227594828666e-16
  - 0.013450611316794885
---
header:
  stamp:
    sec: 1722530806
    nanosec: 97087635
  frame_id: map
child_frame_id: base_link
pose:
  pose:
    position:
      x: -0.5223139625958071
      y: 0.3961346913500459
      z: 3.6877543723267e-22
    orientation:
      x: -1.786795019297212e-12
      y: 9.777898343777488e-10
      z: -0.00033404482086654285
      w: 0.9999999442070273
  covariance:
  - 0.049421109349327454
  - -0.0002538478916449929
  - -4.0875995793109704e-20
  - 8.80226121970795e-20
  - 2.115801859191828e-17
  - -2.3874441168028004e-08
  - -0.0002538478916449929
  - 0.04966052328431412
  - -3.517994959004852e-23
  - 1.0291966503990169e-19
  - 1.6590149899148043e-16
  - -1.860831932476112e-07
  - -4.08759957931097e-20
  - -3.5179949590048534e-23
  - 9.999135308103216e-07
  - 3.967667988010335e-23
  - 3.382641589885827e-21
  - -1.8411776797651997e-21
  - 8.802261219707949e-20
  - 1.0291966503990158e-19
  - 3.9676679880103353e-23
  - 1.814366037155048e-08
  - -5.0799007758543117e-17
  - -2.9636889477377088e-12
  - 2.1158018591918324e-17
  - 1.6590149899148102e-16
  - 3.382641589885829e-21
  - -5.0799007757969855e-17
  - 1.814362880422832e-08
  - -9.814703098813676e-09
  - -2.3874441168028e-08
  - -1.860831932476112e-07
  - -1.8411776797651944e-21
  - -2.963688947737708e-12
  - -9.81470309881365e-09
  - 11.003895065052475
twist:
  twist:
    linear:
      x: -2.7257341626543955e-07
      y: 3.197164138028126e-09
      z: -3.681407937717746e-27
    angular:
      x: 1.4085212598803698e-17
      y: 7.348905383999357e-08
      z: 0.0017668914811692805
  covariance:
  - 0.00819560892497618
  - -1.2324610552977369e-11
  - 2.2976804646865765e-23
  - 8.317861906951992e-28
  - -1.0515893704108077e-23
  - 1.2168346795620323e-23
  - -1.2324610552977375e-11
  - 0.008195608980938452
  - 5.009821953540892e-26
  - 4.092436370706997e-28
  - -7.95635169005634e-25
  - 9.272449672722435e-25
  - 2.2976804646865765e-23
  - 5.0098219535408893e-26
  - 9.993090825542573e-07
  - 1.303098628729883e-33
  - 1.055120442802176e-31
  - -1.081915600363639e-31
  - 8.317861906952643e-28
  - 4.092436370706994e-28
  - 1.3030986287298826e-33
  - 9.997694819079436e-07
  - 1.0095962856695886e-22
  - -3.333980970693707e-22
  - -1.05158937041081e-23
  - -7.956351690056349e-25
  - 1.0551204428021759e-31
  - 1.0095962856695886e-22
  - 9.997227071251502e-07
  - -1.1394177875898455e-06
  - 1.2168346795620351e-23
  - 9.27244967272245e-25
  - -1.0819156003636397e-31
  - -3.333980970693706e-22
  - -1.1394177875898453e-06
  - 3.76267561248972e-06
---
header:
  stamp:
    sec: 1722530806
    nanosec: 179669071
  frame_id: map
child_frame_id: base_link
pose:
  pose:
    position:
      x: -0.5212879309114479
      y: 0.39697743541815467
      z: 1.0352323586365277e-15
    orientation:
      x: -1.5166659167173207e-12
      y: 1.244434807240074e-09
      z: -0.0002802323326067178
      w: 0.9999999607349191
  covariance:
  - 0.04097461718657994
  - -0.0003214128738083757
  - -2.934811860044545e-14
  - 1.6330789870877687e-19
  - 1.6010163555314927e-16
  - -1.8858436946361523e-07
  - -0.00032141287380837557
  - 0.04107552603516242
  - -2.553049099410365e-14
  - 1.973014965049359e-19
  - 2.732714269400672e-16
  - -3.2065811836056627e-07
  - -2.9348118600445454e-14
  - -2.5530490994103655e-14
  - 9.99982790489247e-07
  - 4.062831457102954e-21
  - 8.78424178685672e-21
  - 1.0552293930168393e-19
  - 1.6330789870877692e-19
  - 1.9730149650493596e-19
  - 4.062831457102954e-21
  - 2.2320162396049888e-08
  - -4.9522188100287085e-17
  - -3.8034477453603446e-12
  - 1.601016355531497e-16
  - 2.7327142694006815e-16
  - 8.784241786856723e-21
  - -4.9522188099611216e-17
  - 2.2320132351457303e-08
  - -9.665519268563771e-09
  - -1.8858436946361523e-07
  - -3.206581183605663e-07
  - 1.0552293930168393e-19
  - -3.803447745360343e-12
  - -9.665519268563745e-09
  - 11.045222264879104
twist:
  twist:
    linear:
      x: -2.0251346310650973e-08
      y: 8.73813139241936e-09
      z: -5.1667511242960367e-20
    angular:
      x: 1.243114539748291e-17
      y: -7.260007427435778e-15
      z: 0.00036499621881158964
  covariance:
  - 0.0009752638934826491
  - -1.691645184067825e-13
  - 1.613341014248259e-23
  - -3.824854353628075e-29
  - -1.0984768291359752e-24
  - 7.7851969101299e-22
  - -1.6916451840678254e-13
  - 0.000975263894175459
  - 1.2673079012219742e-23
  - 3.467160313285095e-29
  - -7.76339271353341e-26
  - 2.0929102063838604e-22
  - 1.6133410142482588e-23
  - 1.2673079012219753e-23
  - 9.998623571454138e-07
  - 1.3539533247453627e-31
  - 2.9269931797141712e-31
  - 5.79583540953528e-27
  - -3.8248543536274385e-29
  - 3.467160313285088e-29
  - 1.3539533247453634e-31
  - 9.999541105881453e-07
  - -5.439254259765799e-28
  - -8.385631481738372e-19
  - -1.098476829135978e-24
  - -7.763392713533418e-26
  - 2.926993179714173e-31
  - -5.439254259690624e-28
  - 9.999541105881453e-07
  - 1.9493790772713975e-15
  - 7.78519691012992e-22
  - 2.0929102063838602e-22
  - 5.795835409535281e-27
  - -8.385631481738372e-19
  - 1.949379077271398e-15
  - 0.02176748531467637
---
header:
  stamp:
    sec: 1722530806
    nanosec: 236649206
  frame_id: map
child_frame_id: base_link
pose:
  pose:
    position:
      x: -0.522221924703843
      y: 0.3963448621628076
      z: -1.9722774522241226e-15
    orientation:
      x: -1.093221865520676e-12
      y: 1.9176922461077878e-09
      z: -0.00018903063546061487
      w: 0.9999999821337092
  covariance:
  - 0.019439598155436607
  - -0.00039398351433532524
  - -6.204372515318423e-14
  - -2.4214601421724304e-19
  - -9.606073950588371e-17
  - 1.1862327366392583e-07
  - -0.0003939835143353252
  - 0.01942218926091033
  - -6.475599073759033e-14
  - -7.05375247226037e-20
  - 2.460920120626182e-16
  - -3.0173226379201974e-07
  - -6.204372515318423e-14
  - -6.475599073759031e-14
  - 9.999527056219856e-07
  - -3.92909088421087e-21
  - 1.2276651933725598e-20
  - 6.909536073185625e-19
  - -2.421460142172432e-19
  - -7.053752472260357e-20
  - -3.9290908842108725e-21
  - 2.1494764967658276e-08
  - -4.6144568964084795e-17
  - -4.725760444312273e-12
  - -9.606073950588397e-17
  - 2.4609201206261884e-16
  - 1.2276651933725595e-20
  - -4.614456896396887e-17
  - 2.1494737184695012e-08
  - -9.16562852770905e-09
  - 1.1862327366392585e-07
  - -3.0173226379201963e-07
  - 6.909536073185629e-19
  - -4.725760444312268e-12
  - -9.165628527709023e-09
  - 11.073722435122832
twist:
  twist:
    linear:
      x: -5.603074804803621e-08
      y: -1.751649893560577e-08
      z: 9.839229207917701e-20
    angular:
      x: 9.701616124313517e-18
      y: -8.553687190401107e-15
      z: 0.0013664918683761816
  covariance:
  - 0.0009353618678570221
  - -1.0375822903109603e-12
  - 1.2597020057028181e-22
  - -1.1355530454239027e-28
  - -9.026007430871872e-25
  - 1.4311359693255617e-21
  - -1.0375822903109607e-12
  - 0.0009353618684992241
  - 1.2794365393336244e-22
  - 7.616529916347403e-29
  - -2.984743246637769e-26
  - 3.4329279148067134e-22
  - 1.2597020057028184e-22
  - 1.2794365393336248e-22
  - 9.996218953072017e-07
  - -1.304501862795913e-31
  - 4.075389880119841e-31
  - 1.360053300849808e-26
  - -1.1355530454238532e-28
  - 7.616529916347402e-29
  - -1.3045018627959134e-31
  - 9.99873901519295e-07
  - -5.036529607021748e-28
  - -7.202078247776607e-19
  - -9.026007430871892e-25
  - -2.984743246637761e-26
  - 4.075389880119841e-31
  - -5.0365296070087595e-28
  - 9.99873901519295e-07
  - 1.8079762005554123e-15
  - 1.431135969325566e-21
  - 3.432927914806713e-22
  - 1.3600533008498084e-26
  - -7.20207824777661e-19
  - 1.8079762005554107e-15
  - 0.016202062909948054
---
header:
  stamp:
    sec: 1722530806
    nanosec: 252070290
  frame_id: map
child_frame_id: base_link
pose:
  pose:
    position:
      x: -0.5222219279942355
      y: 0.3963448611520808
      z: -1.587517670529783e-19
    orientation:
      x: -1.0504383068214151e-12
      y: 1.9020138810584298e-09
      z: -0.00018249627803764478
      w: 0.9999999833475541
  covariance:
  - 0.02715044176362404
  - -0.00039398532681877025
  - -5.107580118108448e-18
  - -2.4534501186876466e-19
  - -1.0587770363187492e-16
  - 1.3324651296884884e-07
  - -0.0003939853268187703
  - 0.027133032790848263
  - -5.2478641577907765e-18
  - -4.30676247291629e-20
  - 2.7981135462496e-16
  - -3.498466612750311e-07
  - -5.107580118108451e-18
  - -5.247864157790773e-18
  - 9.999189552842761e-07
  - -2.2611734310891583e-21
  - 7.407050390074185e-21
  - -3.0952504123345633e-21
  - -2.4534501186876485e-19
  - -4.3067624729162736e-20
  - -2.2611734310891572e-21
  - 2.1270334441681064e-08
  - -4.48535278384828e-17
  - -4.7973625435171754e-12
  - -1.058777036318752e-16
  - 2.798113546249607e-16
  - 7.407050390074186e-21
  - -4.48535278383522e-17
  - 2.1270307745026758e-08
  - -8.992278335393872e-09
  - 1.332465129688489e-07
  - -3.49846661275031e-07
  - -3.095250412334554e-21
  - -4.7973625435171706e-12
  - -8.992278335393844e-09
  - 11.08143811976346
twist:
  twist:
    linear:
      x: -5.197028736710105e-08
      y: -1.5824140678783115e-08
      z: 6.530764624185258e-23
    angular:
      x: 9.315294205598087e-18
      y: -1.2677549995015707e-14
      z: 0.0006669182669447695
  covariance:
  - 0.0008975594218380604
  - -8.741628309146429e-13
  - 4.97229854792835e-24
  - -1.2454644984039153e-28
  - -8.383799704442937e-25
  - 9.441358188287938e-22
  - -8.74162830914643e-13
  - 0.000897559422409837
  - 8.159277201391825e-26
  - 6.836728011765747e-29
  - -2.878644838334647e-26
  - 1.647954667964632e-22
  - 4.97229854792835e-24
  - 8.159277201391829e-26
  - 9.993523770151607e-07
  - -7.455629094050479e-32
  - 2.4421575110722633e-31
  - 3.881292875461081e-27
  - -1.24546449840387e-28
  - 6.83672801176574e-29
  - -7.455629094050479e-32
  - 9.997839391066247e-07
  - -4.982417629990256e-28
  - -1.791990503830573e-18
  - -8.383799704442959e-25
  - -2.878644838334639e-26
  - 2.442157511072264e-31
  - -4.982417629975601e-28
  - 9.997839391066247e-07
  - 3.674242841940457e-15
  - 9.441358188287966e-22
  - 1.6479546679646316e-22
  - 3.881292875461084e-27
  - -1.791990503830574e-18
  - 3.674242841940458e-15
  - 0.015358458147832495
---
header:
  stamp:
    sec: 1722530806
    nanosec: 328977247
  frame_id: map
child_frame_id: base_link
pose:
  pose:
    position:
      x: -0.5224361694094274
      y: 0.3956314055645358
      z: -1.1576092438992732e-11
    orientation:
      x: -1.0408203688343337e-12
      y: 1.4961532005768076e-09
      z: -0.00018737723425197526
      w: 0.9999999824448859
  covariance:
  - 0.015193835612392766
  - -0.00044238717562097905
  - -5.528952825676774e-10
  - -8.223149449033515e-19
  - -4.747521094237282e-16
  - 6.077199650134888e-07
  - -0.0004423871756209791
  - 0.015063929308635158
  - -6.543402420887175e-10
  - -3.859492552364753e-19
  - 5.87145371793933e-16
  - -7.496264065824952e-07
  - -5.528952825676775e-10
  - -6.543402420887177e-10
  - 9.99959719289732e-07
  - -4.7793757590761535e-20
  - 5.969655873444397e-20
  - 6.677842342176662e-15
  - -8.22314944903352e-19
  - -3.859492552364756e-19
  - -4.7793757590761547e-20
  - 2.230344570978411e-08
  - -4.229037012895352e-17
  - -4.4393165419997225e-12
  - -4.747521094237292e-16
  - 5.871453717939344e-16
  - 5.969655873444396e-20
  - -4.2290370128612875e-17
  - 2.230341281972279e-08
  - -9.231623716487859e-09
  - 6.077199650134886e-07
  - -7.496264065824953e-07
  - 6.6778423421766605e-15
  - -4.43931654199972e-12
  - -9.231623716487846e-09
  - 11.119927301006518
twist:
  twist:
    linear:
      x: -6.259012194710025e-08
      y: -4.7456975187121716e-08
      z: 5.786142079491219e-17
    angular:
      x: 4.404579437501667e-18
      y: -2.0706325069225185e-12
      z: -0.0003333296441612518
  covariance:
  - 0.0009766354096319028
  - -1.2424467699519772e-12
  - 1.2139637263778438e-19
  - -4.145624599107922e-29
  - -3.351824990420473e-25
  - 2.2380433116125795e-22
  - -1.2424467699519778e-12
  - 0.0009766354100038395
  - 1.4371494295949633e-19
  - 9.070120416100735e-29
  - -2.45553087844895e-25
  - 6.631840670194143e-21
  - 1.2139637263778428e-19
  - 1.4371494295949638e-19
  - 9.996778907074362e-07
  - -3.963427271256849e-31
  - 4.9535411629091444e-31
  - -2.646565566636881e-27
  - -4.1456245991077065e-29
  - 9.070120416100733e-29
  - -3.96342727125685e-31
  - 9.998925956221706e-07
  - 1.650525702838914e-26
  - -4.141600582549033e-22
  - -3.3518249904204873e-25
  - -2.4555308784489488e-25
  - 4.953541162909147e-31
  - 1.650525702839008e-26
  - 9.99892595622043e-07
  - -3.0736405809703625e-11
  - 2.23804331161267e-22
  - 6.63184067019414e-21
  - -2.646565566636881e-27
  - -4.141600582549083e-22
  - -3.073640580970362e-11
  - 0.015178646386097897
---
header:
  stamp:
    sec: 1722530806
    nanosec: 396718273
  frame_id: map
child_frame_id: base_link
pose:
  pose:
    position:
      x: -0.5224361819270952
      y: 0.39563139836851113
      z: 5.260512282055375e-22
    orientation:
      x: -9.425970196428091e-13
      y: 1.3151324292996903e-09
      z: -0.00019094259104460298
      w: 0.9999999817704633
  covariance:
  - 0.04906622402150715
  - -0.00044239177476567337
  - -3.8753975310905147e-20
  - -7.732938628647027e-19
  - -5.129468636349173e-16
  - 7.238448893491889e-07
  - -0.0004423917747656732
  - 0.04893631636291891
  - 7.24635714192926e-23
  - -2.8071149524207755e-19
  - 6.794515439128623e-16
  - -9.533517108308343e-07
  - -3.875397531090516e-20
  - 7.246357141929265e-23
  - 9.998860191342284e-07
  - -2.952082288675965e-21
  - 5.2998770385088454e-21
  - -2.144232314505825e-21
  - -7.732938628647032e-19
  - -2.8071149524207775e-19
  - -2.9520822886759654e-21
  - 2.09210032449072e-08
  - -3.4151713927517114e-17
  - -3.834876673210736e-12
  - -5.129468636349182e-16
  - 6.794515439128634e-16
  - 5.299877038508843e-21
  - -3.4151713927233463e-17
  - 2.092097557205807e-08
  - -8.443935830502368e-09
  - 7.238448893491891e-07
  - -9.533517108308346e-07
  - -2.1442323145058215e-21
  - -3.834876673210735e-12
  - -8.443935830502353e-09
  - 11.153819207826315
twist:
  twist:
    linear:
      x: -4.861887758455382e-08
      y: -2.708090634179445e-08
      z: -5.24968322694326e-27
    angular:
      x: 7.95573264450051e-18
      y: -8.764475910160196e-15
      z: -1.2295701677283341e-05
  covariance:
  - 0.0008647508568121399
  - -4.772783828748076e-13
  - 4.005437472644473e-24
  - -7.215903720599521e-29
  - -6.147667888306403e-25
  - 3.3078717243387177e-22
  - -4.772783828748076e-13
  - 0.0008647508572026375
  - 3.635369756649987e-27
  - 9.409254046463024e-29
  - 9.935141814176197e-27
  - 1.024688243765636e-22
  - 4.0054374726444716e-24
  - 3.635369756649983e-27
  - 9.990896050494176e-07
  - -9.674080403463814e-32
  - 1.7367886440991165e-31
  - 7.3099514326133395e-28
  - -7.215903720599198e-29
  - 9.409254046463026e-29
  - -9.674080403463815e-32
  - 9.996961664191492e-07
  - -3.7919754151528623e-28
  - -1.6079047968263678e-18
  - -6.147667888306426e-25
  - 9.935141814176324e-27
  - 1.736788644099116e-31
  - -3.7919754151213687e-28
  - 9.99696166419149e-07
  - 9.573969522478516e-16
  - 3.307871724338733e-22
  - 1.0246882437656352e-22
  - 7.30995143261335e-28
  - -1.6079047968263675e-18
  - 9.57396952247852e-16
  - 0.013329786501473425
---
header:
  stamp:
    sec: 1722530806
    nanosec: 438079163
  frame_id: map
child_frame_id: base_link
pose:
  pose:
    position:
      x: -0.5211806726299262
      y: 0.3935646563127771
      z: -5.142385811111008e-19
    orientation:
      x: -1.3746412898146943e-12
      y: -3.8286682544920794e-10
      z: -0.0003583141949216453
      w: 0.9999999358054668
  covariance:
  - 0.017595107948311442
  - -0.00047081568004517493
  - -1.958656612432492e-17
  - -1.720601714375143e-19
  - -9.716870397485804e-17
  - 1.4077989072359115e-07
  - -0.00047081568004517504
  - 0.01738880850253735
  - -2.4916821403410426e-17
  - -1.8493542115565322e-19
  - 3.8058323445589296e-17
  - -5.4874342719076824e-08
  - -1.958656612432492e-17
  - -2.4916821403410442e-17
  - 9.999014903882283e-07
  - -5.822390205353998e-21
  - 3.6694510124847466e-21
  - -1.2953301448297852e-21
  - -1.720601714375143e-19
  - -1.8493542115565331e-19
  - -5.822390205353997e-21
  - 1.939723831245647e-08
  - -2.2436920141924684e-17
  - -1.6140628174925628e-12
  - -9.716870397485817e-17
  - 3.8058323445589364e-17
  - 3.669451012484746e-21
  - -2.2436920140611114e-17
  - 1.939721446048153e-08
  - -7.769420493669506e-09
  - 1.4077989072359115e-07
  - -5.487434271907681e-08
  - -1.2953301448297819e-21
  - -1.6140628174925664e-12
  - -7.769420493669492e-09
  - 11.174502431342246
twist:
  twist:
    linear:
      x: -3.2763713170414776e-08
      y: -5.1414659312179414e-08
      z: 2.093989002896794e-22
    angular:
      x: 8.24831297015492e-18
      y: 2.537251420429974e-15
      z: -0.0023724146038830033
  covariance:
  - 0.0008799236913956657
  - -3.95932508515183e-13
  - -8.1445071763836605e-25
  - 4.9964162623470804e-29
  - -5.665166400414065e-25
  - 3.3960895897504516e-22
  - -3.9593250851518276e-13
  - 0.0008799236917850652
  - 1.243714812457728e-25
  - 7.357144608491504e-29
  - 3.3685837285780134e-26
  - 2.8468147599745397e-22
  - -8.144507176383665e-25
  - 1.2437148124577288e-25
  - 9.992130081967127e-07
  - -1.9120131005301127e-31
  - 1.2047926409645376e-31
  - 1.8096748790944926e-27
  - 4.996416262347422e-29
  - 7.357144608491495e-29
  - -1.9120131005301125e-31
  - 9.997373939058515e-07
  - -2.492085807174044e-28
  - -3.7531941330748857e-19
  - -5.665166400414089e-25
  - 3.368583728578031e-26
  - 1.204792640964537e-31
  - -2.492085807028654e-28
  - 9.997373939058515e-07
  - 3.1602526367762646e-15
  - 3.39608958975047e-22
  - 2.8468147599745345e-22
  - 1.8096748790944922e-27
  - -3.753194133074885e-19
  - 3.1602526367762642e-15
  - 0.013693428605141817
---
header:
  stamp:
    sec: 1722530806
    nanosec: 489189959
  frame_id: map
child_frame_id: base_link
pose:
  pose:
    position:
      x: -0.5211806784033272
      y: 0.3935646473909635
      z: -1.1635284442181855e-22
    orientation:
      x: -1.2709471737987156e-12
      y: -3.8135938361362246e-10
      z: -0.00037428854063424713
      w: 0.9999999299540417
  covariance:
  - 0.04315126076659977
  - -0.00047081760771339377
  - 1.2911314968146313e-20
  - -1.6721514237686804e-19
  - -1.7622990891149775e-16
  - 2.745197915422118e-07
  - -0.00047081760771339377
  - 0.0429449604765081
  - -6.773381447872011e-23
  - -1.6501036918511175e-19
  - 9.103757889319227e-17
  - -1.4146893415822502e-07
  - 1.2911314968146314e-20
  - -6.773381447872008e-23
  - 9.999055824711403e-07
  - -5.444218766048336e-21
  - 3.518831240989108e-21
  - -1.378876187005068e-21
  - -1.672151423768679e-19
  - -1.6501036918511197e-19
  - -5.4442187660483364e-21
  - 1.8602396846187043e-08
  - -1.806836009873166e-17
  - -1.0896395158653263e-12
  - -1.762299089114979e-16
  - 9.103757889319247e-17
  - 3.518831240989108e-21
  - -1.8068360097511392e-17
  - 1.8602376346657343e-08
  - -7.211133971700669e-09
  - 2.7451979154221177e-07
  - -1.41468934158225e-07
  - -1.3788761870050662e-21
  - -1.0896395158653301e-12
  - -7.211133971700656e-09
  - 11.200075126135069
twist:
  twist:
    linear:
      x: -3.1829425488731995e-08
      y: -4.9244738667033805e-08
      z: 1.1618398064608885e-27
    angular:
      x: 7.519885884802944e-18
      y: 2.541756134187207e-15
      z: -0.00018766759616930653
  covariance:
  - 0.0008835644079513985
  - -3.6769834386259763e-13
  - -1.049815487384756e-24
  - 7.414432258905305e-29
  - -5.062109814283631e-25
  - 7.175774688878281e-23
  - -3.6769834386259753e-13
  - 0.0008835644083144274
  - 3.11198466189495e-27
  - 6.416684945283416e-29
  - 2.977853659404715e-26
  - 1.870233573241399e-23
  - -1.049815487384756e-24
  - 3.1119846618949504e-27
  - 9.992456565567386e-07
  - -1.786979568320196e-31
  - 1.1550010264998407e-31
  - 1.32561508997143e-28
  - 7.414432258905618e-29
  - 6.416684945283408e-29
  - -1.786979568320197e-31
  - 9.997482991108e-07
  - -2.006585919791628e-28
  - 4.344057770295981e-19
  - -5.062109814283649e-25
  - 2.97785365940473e-26
  - 1.15500102649984e-31
  - -2.0065859196560782e-28
  - 9.997482991108e-07
  - 2.319427729764951e-16
  - 7.175774688878315e-23
  - 1.870233573241394e-23
  - 1.325615089971431e-28
  - 4.344057770295982e-19
  - 2.319427729764951e-16
  - 0.014318001161090221
---
header:
  stamp:
    sec: 1722530806
    nanosec: 541297930
  frame_id: map
child_frame_id: base_link
pose:
  pose:
    position:
      x: -0.5217209648076001
      y: 0.39363924739697004
      z: 5.920421596315361e-24
    orientation:
      x: -9.704350663504452e-13
      y: 2.2562591829438154e-10
      z: -0.00017965150386919983
      w: 0.9999999838626684
  covariance:
  - 0.021894902571587733
  - -0.0004756088087377576
  - -1.1333906222904969e-20
  - -6.343403021735408e-20
  - -7.08956515459755e-17
  - 1.2222482033448673e-07
  - -0.0004756088087377571
  - 0.021672912440753606
  - -7.538636431584259e-21
  - -1.6476116753030094e-20
  - 5.740189013694753e-17
  - -9.882627397786388e-08
  - -1.1333906222904975e-20
  - -7.538636431584252e-21
  - 9.998773020471437e-07
  - -3.9632922841094804e-21
  - 2.9703345866653514e-21
  - -1.1211576565649797e-21
  - -6.343403021735413e-20
  - -1.6476116753030115e-20
  - -3.963292284109481e-21
  - 1.7356434691076747e-08
  - -1.9384939292038366e-17
  - -2.8612049008659062e-12
  - -7.08956515459757e-17
  - 5.740189013694764e-17
  - 2.970334586665352e-21
  - -1.9384939290586782e-17
  - 1.7356418027904502e-08
  - -6.5211951246361165e-09
  - 1.2222482033448675e-07
  - -9.882627397786388e-08
  - -1.1211576565649773e-21
  - -2.861204900865906e-12
  - -6.521195124636103e-09
  - 11.226134547095002
twist:
  twist:
    linear:
      x: -3.394915221466706e-08
      y: -4.532298415748699e-08
      z: 1.7736959988363756e-25
    angular:
      x: 6.738699209170372e-18
      y: -1.5038544351800894e-15
      z: 0.0016705068751029228
  covariance:
  - 0.0008581540580228627
  - -3.0021194571512426e-13
  - 7.251988204823962e-25
  - -6.489162292621153e-29
  - -4.283719125992368e-25
  - -3.7456489748012937e-23
  - -3.0021194571512426e-13
  - 0.0008581540583463329
  - 3.611390874689521e-27
  - 5.884118645777493e-29
  - 2.721355344256087e-26
  - 8.637780599371233e-23
  - 7.251988204823958e-25
  - 3.611390874689519e-27
  - 9.990200991346743e-07
  - -1.2944161578817466e-31
  - 9.701259562555005e-32
  - 3.343752238302503e-28
  - -6.489162292620936e-29
  - 5.884118645777488e-29
  - -1.294416157881747e-31
  - 9.996729391909794e-07
  - -2.1529716300044662e-28
  - -8.443881210471103e-21
  - -4.283719125992385e-25
  - 2.7213553442561e-26
  - 9.701259562555013e-32
  - -2.1529716298428506e-28
  - 9.996729391909796e-07
  - 6.480882030816248e-16
  - -3.7456489748012466e-23
  - 8.637780599371232e-23
  - 3.3437522383025053e-28
  - -8.443881210471084e-21
  - 6.480882030816246e-16
  - 0.013450679196623428
---
header:
  stamp:
    sec: 1722530806
    nanosec: 592264787
  frame_id: map
child_frame_id: base_link
pose:
  pose:
    position:
      x: -0.5217209696177113
      y: 0.39363924097667624
      z: 4.9039354749133336e-23
    orientation:
      x: -8.877102458835179e-13
      y: 2.1145500877284718e-10
      z: -0.00017127694652664988
      w: 0.9999999853321037
  covariance:
  - 0.047378945580312366
  - -0.0004756098626536529
  - -5.014765476727058e-21
  - -8.663063481363305e-20
  - -1.1999174869164489e-16
  - 2.2502880352013233e-07
  - -0.0004756098626536522
  - 0.047156954956746724
  - -1.4675284164681603e-23
  - 6.2374279347994275e-21
  - 9.384406960381018e-17
  - -1.7590602888018416e-07
  - -5.01476547672706e-21
  - -1.46752841646816e-23
  - 9.998642439089214e-07
  - -3.330407477940601e-21
  - 2.4929905727922715e-21
  - -9.115566088841952e-22
  - -8.663063481363313e-20
  - 6.237427934799425e-21
  - -3.330407477940602e-21
  - 1.6451859764104516e-08
  - -1.6871063820165196e-17
  - -2.838156262916005e-12
  - -1.1999174869164526e-16
  - 9.38440696038104e-17
  - 2.492990572792272e-21
  - -1.6871063818877735e-17
  - 1.6451845695556802e-08
  - -5.993619624501737e-09
  - 2.2502880352013236e-07
  - -1.7590602888018418e-07
  - -9.115566088841926e-22
  - -2.8381562629160035e-12
  - -5.993619624501724e-09
  - 11.251632966723417
twist:
  twist:
    linear:
      x: -3.217410506131197e-08
      y: -4.298176490009125e-08
      z: -4.896644229692856e-28
    angular:
      x: 6.158319522347185e-18
      y: -1.4093307164472699e-15
      z: 9.466410000557629e-05
  covariance:
  - 0.0008468193270206809
  - -2.6979375656404656e-13
  - 7.434894556135734e-25
  - -6.991071198715789e-29
  - -3.7320463031052625e-25
  - 4.1974925643040695e-24
  - -2.697937565640464e-13
  - 0.0008468193273116453
  - 3.2493280015028416e-27
  - 5.212557472150827e-29
  - 2.3700691194854022e-26
  - 4.226025608689731e-24
  - 7.434894556135734e-25
  - 3.249328001502841e-27
  - 9.989160106662805e-07
  - -1.083699319269375e-31
  - 8.112077499077388e-32
  - 1.5476753430212343e-29
  - -6.99107119871561e-29
  - 5.212557472150826e-29
  - -1.0836993192693742e-31
  - 9.99638147458289e-07
  - -1.873582396773408e-28
  - -2.3060032437476557e-19
  - -3.7320463031052754e-25
  - 2.3700691194854143e-26
  - 8.112077499077385e-32
  - -1.8735823966303937e-28
  - 9.99638147458289e-07
  - 3.3741649367218904e-17
  - 4.197492564304121e-24
  - 4.226025608689724e-24
  - 1.5476753430212348e-29
  - -2.3060032437476557e-19
  - 3.37416493672189e-17
  - 0.012997052138812668
---
header:
  stamp:
    sec: 1722530806
    nanosec: 642564761
  frame_id: map
child_frame_id: base_link
pose:
  pose:
    position:
      x: -0.5217433426109106
      y: 0.3955155629385154
      z: -2.180830404688243e-22
    orientation:
      x: -1.0891124944555477e-12
      y: -1.3437838819223218e-09
      z: -0.0003735916837397075
      w: 0.9999999302146245
  covariance:
  - 0.02234341522981395
  - -0.0004559711335397786
  - 3.3070521992630333e-20
  - 3.8445164457982915e-20
  - -2.849608543260474e-17
  - 5.813652710102077e-08
  - -0.0004559711335397782
  - 0.022155715042037234
  - -3.776512343629718e-21
  - 6.066119563874052e-20
  - 4.119853749695881e-17
  - -8.410984950149149e-08
  - 3.3070521992630345e-20
  - -3.776512343629721e-21
  - 9.998865273161016e-07
  - -2.335547454267158e-21
  - 2.6095012291405735e-21
  - -9.446346009742281e-22
  - 3.844516445798297e-20
  - 6.066119563874052e-20
  - -2.335547454267157e-21
  - 1.5531587191076045e-08
  - -1.0069974427053629e-17
  - -8.934600525332447e-13
  - -2.84960854326048e-17
  - 4.119853749695891e-17
  - 2.609501229140573e-21
  - -1.0069974426144772e-17
  - 1.5531574826716683e-08
  - -5.545863604234229e-09
  - 5.8136527101020773e-08
  - -8.410984950149147e-08
  - -9.446346009742263e-22
  - -8.934600525332462e-13
  - -5.545863604234222e-09
  - 11.276788551328984
twist:
  twist:
    linear:
      x: -3.181080951941973e-08
      y: -2.8507350330580737e-08
      z: -4.431638782594845e-25
    angular:
      x: 3.913960055458749e-18
      y: 8.956679180871348e-15
      z: -0.0017037721043984266
  covariance:
  - 0.0008661176432419427
  - -2.601511613103803e-13
  - -4.1924830899320965e-24
  - 3.808467149810133e-29
  - -3.3636521898849592e-25
  - 8.55721279223497e-23
  - -2.601511613103802e-13
  - 0.0008661176435251076
  - 2.050777141891638e-27
  - 3.825534633265692e-29
  - 2.332119024845578e-26
  - 5.666252275941758e-23
  - -4.1924830899320965e-24
  - 2.0507771418916396e-27
  - 9.990936579388762e-07
  - -7.621856329040647e-32
  - 8.516075176266858e-32
  - 6.995253660506047e-28
  - 3.808467149810331e-29
  - 3.8255346332656846e-29
  - -7.62185632904065e-32
  - 9.99697520555234e-07
  - -1.1184469586610299e-28
  - 8.830425584047341e-19
  - -3.3636521898849735e-25
  - 2.332119024845589e-26
  - 8.516075176266859e-32
  - -1.118446958560154e-28
  - 9.99697520555234e-07
  - 1.3784176119338456e-15
  - 8.557212792235025e-23
  - 5.666252275941751e-23
  - 6.9952536605060455e-28
  - 8.830425584047333e-19
  - 1.3784176119338452e-15
  - 0.013657858839574419
---
header:
  stamp:
    sec: 1722530806
    nanosec: 696206264
  frame_id: map
child_frame_id: base_link
pose:
  pose:
    position:
      x: -0.5217433475117067
      y: 0.3955155585439887
      z: -2.6875505827487924e-22
    orientation:
      x: -9.974022295056062e-13
      y: -1.2534246292566088e-09
      z: -0.0003831584765535706
      w: 0.9999999265947882
  covariance:
  - 0.04916484186789116
  - -0.0004559721594247037
  - 2.9426336985616106e-20
  - 3.2650707229004076e-20
  - -5.827533689958038e-17
  - 1.281042092269386e-07
  - -0.00045597215942470317
  - 0.04897714125858074
  - -6.315532634162775e-23
  - 5.915224114943188e-20
  - 7.374574536185627e-17
  - -1.622693271237321e-07
  - 2.942633698561611e-20
  - -6.315532634162775e-23
  - 9.99864832131722e-07
  - -1.878185532327534e-21
  - 2.0920831129821986e-21
  - -7.284301169172131e-22
  - 3.265070722900414e-20
  - 5.915224114943185e-20
  - -1.8781855323275352e-21
  - 1.494012557791506e-08
  - -8.211194234006548e-18
  - -6.656584876143183e-13
  - -5.827533689958047e-17
  - 7.374574536185644e-17
  - 2.0920831129821978e-21
  - -8.211194233253173e-18
  - 1.4940114963896015e-08
  - -5.141710622925554e-09
  - 1.2810420922693864e-07
  - -1.6226932712373206e-07
  - -7.284301169172117e-22
  - -6.656584876143198e-13
  - -5.141710622925544e-09
  - 11.30362605130517
twist:
  twist:
    linear:
      x: -2.982899820531461e-08
      y: -2.6779143718238934e-08
      z: 2.6824750051916873e-27
    angular:
      x: 3.4461735618654305e-18
      y: 8.353534360292421e-15
      z: -8.894468139451215e-05
  covariance:
  - 0.0008468601771340241
  - -2.285873365379815e-13
  - -4.309826075987204e-24
  - 4.46002053430527e-29
  - -2.9214130985826026e-25
  - 1.3674692893251422e-23
  - -2.2858733653798144e-13
  - 0.0008468601773830742
  - 1.7802704369430023e-27
  - 3.2434464539079324e-29
  - 2.0248850922324112e-26
  - 2.1052887842421772e-24
  - -4.309826075987201e-24
  - 1.7802704369430008e-27
  - 9.989206984734232e-07
  - -6.095746258455727e-32
  - 6.789961051614304e-32
  - 2.780558628829624e-29
  - 4.4600205343054484e-29
  - 3.243446453907927e-29
  - -6.095746258455729e-32
  - 9.996397146310431e-07
  - -9.117817207155547e-29
  - 1.4247014949655262e-18
  - -2.9214130985826136e-25
  - 2.0248850922324172e-26
  - 6.789961051614302e-32
  - -9.117817206319116e-29
  - 9.996397146310433e-07
  - 6.66522632427914e-17
  - 1.3674692893251484e-23
  - 2.105288784242172e-24
  - 2.7805586288296226e-29
  - 1.4247014949655262e-18
  - 6.665226324279136e-17
  - 0.012870233173487929
---
header:
  stamp:
    sec: 1722530806
    nanosec: 744504733
  frame_id: map
child_frame_id: base_link
pose:
  pose:
    position:
      x: -0.5234504053817963
      y: 0.39476407710176087
      z: -3.939383753520818e-19
    orientation:
      x: -6.586721556049658e-14
      y: 1.899027011846695e-09
      z: -0.00025061340336714693
      w: 0.9999999685964606
  covariance:
  - 0.023273100429630735
  - -0.0004393345977599778
  - -7.558229715708661e-18
  - -6.652111600192372e-20
  - -5.0779195166167503e-17
  - 1.1466730290657134e-07
  - -0.00043933459775997785
  - 0.023114037321164366
  - -9.204764359828352e-18
  - -3.91720467241545e-20
  - 6.947912807239356e-17
  - -1.5662915791726382e-07
  - -7.558229715708663e-18
  - -9.204764359828354e-18
  - 9.998806810161723e-07
  - -2.3698992253548895e-21
  - 3.1130426289470953e-21
  - -1.1023312153026406e-21
  - -6.652111600192365e-20
  - -3.9172046724154496e-20
  - -2.3698992253548903e-21
  - 1.4520966533567511e-08
  - -9.666737418488735e-18
  - -1.6100676573623405e-12
  - -5.0779195166167614e-17
  - 6.947912807239371e-17
  - 3.113042628947094e-21
  - -9.666737417820319e-18
  - 1.4520947985350424e-08
  - -5.1867116852111e-09
  - 1.1466730290657137e-07
  - -1.5662915791726376e-07
  - -1.1023312153026374e-21
  - -1.6100676573623397e-12
  - -5.18671168521109e-09
  - 11.327779370592637
twist:
  twist:
    linear:
      x: -4.1632821479522344e-08
      y: -3.1716393368450425e-08
      z: 1.5960288528696927e-22
    angular:
      x: 3.61219748798753e-18
      y: -1.2653959460693146e-14
      z: 0.0010757234627229101
  covariance:
  - 0.0008613589099270993
  - -2.2221899773504343e-13
  - 6.1729611823365595e-24
  - -1.2020646463275036e-29
  - -2.6730825911600145e-25
  - 3.5035675719465177e-22
  - -2.2221899773504328e-13
  - 0.0008613589101660501
  - 2.9010420343227934e-26
  - 3.646339996507208e-29
  - 2.010755323898932e-26
  - 4.540690031236197e-23
  - 6.172961182336557e-24
  - 2.9010420343227934e-26
  - 9.99047039663097e-07
  - -7.718771942625863e-32
  - 1.0139360046779366e-31
  - 3.59624089375733e-27
  - -1.2020646463273593e-29
  - 3.646339996507203e-29
  - -7.718771942625866e-32
  - 9.9968194251472e-07
  - -1.0736825006645984e-28
  - -1.1084946340521535e-18
  - -2.673082591160024e-25
  - 2.010755323898938e-26
  - 1.013936004677937e-31
  - -1.0736825005907417e-28
  - 9.9968194251472e-07
  - 5.551012262017502e-15
  - 3.5035675719465337e-22
  - 4.5406900312361914e-23
  - 3.596240893757331e-27
  - -1.1084946340521531e-18
  - 5.551012262017504e-15
  - 0.013790228211069316
---
header:
  stamp:
    sec: 1722530806
    nanosec: 795554824
  frame_id: map
child_frame_id: base_link
pose:
  pose:
    position:
      x: -0.5234504127800347
      y: 0.3947640714637055
      z: 6.116574935078315e-22
    orientation:
      x: -4.0885208393130556e-14
      y: 1.8121196289942548e-09
      z: -0.00024308963340175812
      w: 0.9999999704537146
  covariance:
  - 0.04879894713602415
  - -0.00043933572759406373
  - -5.298756598933443e-20
  - -7.658384275339137e-20
  - -8.554848411751051e-17
  - 2.0166301055396088e-07
  - -0.0004393357275940636
  - 0.04863988361801156
  - 5.971939422485416e-23
  - -1.8739108830763312e-20
  - 1.149855238760365e-16
  - -2.7096433741672956e-07
  - -5.2987565989334453e-20
  - 5.971939422485424e-23
  - 9.998885667628004e-07
  - -2.3280071055780576e-21
  - 3.0531568260373114e-21
  - -1.0483811400532239e-21
  - -7.658384275339137e-20
  - -1.8739108830763303e-20
  - -2.328007105578057e-21
  - 1.4342767728301485e-08
  - -9.151272428193146e-18
  - -1.5923186238041647e-12
  - -8.554848411751065e-17
  - 1.1498552387603671e-16
  - 3.05315682603731e-21
  - -9.1512724276658e-18
  - 1.4342751157587264e-08
  - -4.915588789039519e-09
  - 2.016630105539609e-07
  - -2.709643374167295e-07
  - -1.0483811400532215e-21
  - -1.592318623804164e-12
  - -4.915588789039509e-09
  - 11.353322669625634
twist:
  twist:
    linear:
      x: -4.020078217869704e-08
      y: -3.0652846196056946e-08
      z: -6.105760183282627e-27
    angular:
      x: 3.208823218629699e-18
      y: -1.2077174460672568e-14
      z: 8.381188080792328e-05
  covariance:
  - 0.0008673524475972234
  - -2.077583654007833e-13
  - 5.489064163146316e-24
  - -1.7753829897675763e-29
  - -2.4401814322013988e-25
  - 6.448582608884506e-23
  - -2.077583654007832e-13
  - 0.000867352447821121
  - 1.4626795613015852e-27
  - 3.377519770069915e-29
  - 1.8345175826500777e-26
  - 5.234900904415694e-25
  - 5.4890641631463124e-24
  - 1.4626795613015854e-27
  - 9.991099220673068e-07
  - -7.582737510703472e-32
  - 9.944681038130357e-32
  - 2.631251348019077e-28
  - -1.7753829897674468e-29
  - 3.377519770069911e-29
  - -7.582737510703471e-32
  - 9.997029549985685e-07
  - -1.0161961446807663e-28
  - -2.2438699649814068e-18
  - -2.4401814322014084e-25
  - 1.8345175826500834e-26
  - 9.944681038130357e-32
  - -1.0161961446221737e-28
  - 9.997029549985685e-07
  - 4.080770234911281e-16
  - 6.448582608884535e-23
  - 5.234900904415529e-25
  - 2.631251348019077e-28
  - -2.2438699649814068e-18
  - 4.0807702349112815e-16
  - 0.013644109333434889
---
header:
  stamp:
    sec: 1722530806
    nanosec: 845916326
  frame_id: map
child_frame_id: base_link
pose:
  pose:
    position:
      x: -0.5231451947416166
      y: 0.3964314180858892
      z: -7.302859403689786e-23
    orientation:
      x: -8.371078494308846e-13
      y: -5.360023181627378e-10
      z: -0.0003459068694531153
      w: 0.999999940174217
  covariance:
  - 0.024201376601876424
  - -0.00042419388011374605
  - 1.0746917454218606e-20
  - 9.266113604378127e-21
  - -1.011287456462338e-17
  - 2.405045060084214e-08
  - -0.0004241938801137458
  - 0.024063281166112203
  - -1.8386638036109348e-21
  - 1.9455455691709493e-20
  - 3.984911750385409e-17
  - -9.539344993403599e-08
  - 1.0746917454218603e-20
  - -1.8386638036109344e-21
  - 9.998711809133235e-07
  - -9.273809215017616e-22
  - 2.3384179873893535e-21
  - -8.360413720600341e-22
  - 9.266113604378133e-21
  - 1.9455455691709484e-20
  - -9.273809215017616e-22
  - 1.3683150939464219e-08
  - -5.739819376326895e-18
  - -7.558165835557801e-13
  - -1.0112874564623395e-17
  - 3.9849117503854166e-17
  - 2.3384179873893527e-21
  - -5.739819375542873e-18
  - 1.368312995836309e-08
  - -4.848920530261609e-09
  - 2.405045060084214e-08
  - -9.539344993403602e-08
  - -8.360413720600324e-22
  - -7.558165835557804e-13
  - -4.8489205302616016e-09
  - 11.37850748634614
twist:
  twist:
    linear:
      x: -3.522608206105938e-08
      y: -1.3983810299776011e-08
      z: -2.2400608393454094e-25
    angular:
      x: 4.343140318326245e-18
      y: 3.5723966347442174e-15
      z: -0.0006218179426094371
  covariance:
  - 0.0008524808665805411
  - -2.0320240416087747e-13
  - -1.749204301296484e-24
  - 1.512707863745091e-29
  - -2.144323079021647e-25
  - 1.9715773445278053e-22
  - -2.0320240416087742e-13
  - 0.0008524808667753519
  - 2.2703007744719318e-27
  - 2.5504864989084805e-29
  - 1.9127908198906443e-26
  - 7.601629070022998e-23
  - -1.749204301296484e-24
  - 2.270300774471931e-27
  - 9.989713017846308e-07
  - -3.0077341848898957e-32
  - 7.584214974061738e-32
  - 1.7229065774703596e-27
  - 1.5127078637452127e-29
  - 2.5504864989084743e-29
  - -3.007734184889895e-32
  - 9.996566298355375e-07
  - -6.374358255842733e-29
  - 1.7620291196912146e-19
  - -2.1443230790216544e-25
  - 1.9127908198906504e-26
  - 7.584214974061739e-32
  - -6.374358254971219e-29
  - 9.996566298355375e-07
  - 3.341641723493978e-15
  - 1.971577344527813e-22
  - 7.601629070022991e-23
  - 1.722906577470359e-27
  - 1.7620291196912143e-19
  - 3.341641723493978e-15
  - 0.013102848087242262
---
header:
  stamp:
    sec: 1722530806
    nanosec: 890723771
  frame_id: map
child_frame_id: base_link
pose:
  pose:
    position:
      x: -0.5231451995788705
      y: 0.39643141616317923
      z: -1.3623298715640169e-22
    orientation:
      x: -7.929346826242365e-13
      y: -5.153603974267477e-10
      z: -0.0003494477369938853
      w: 0.9999999389431377
  covariance:
  - 0.04660568203423394
  - -0.00042419492641903537
  - 1.3240415147897834e-20
  - 7.152623778629634e-21
  - -2.1849198035770614e-17
  - 5.4424660259237395e-08
  - -0.0004241949264190351
  - 0.0464675862581055
  - -3.9930219178052857e-23
  - 2.2316618327213495e-20
  - 6.869395740524685e-17
  - -1.7211888051038412e-07
  - 1.3240415147897835e-20
  - -3.9930219178052857e-23
  - 9.998765962764726e-07
  - -9.087951825488916e-22
  - 2.2861339381058094e-21
  - -7.902646797419407e-22
  - 7.152623778629641e-21
  - 2.231661832721349e-20
  - -9.087951825488913e-22
  - 1.3444549765378122e-08
  - -4.8668881150859726e-18
  - -6.640698484478895e-13
  - -2.1849198035770648e-17
  - 6.869395740524692e-17
  - 2.2861339381058087e-21
  - -4.866888114382659e-18
  - 1.3444530927964588e-08
  - -4.602443597090647e-09
  - 5.4424660259237395e-08
  - -1.7211888051038415e-07
  - -7.902646797419397e-22
  - -6.6406984844789e-13
  - -4.602443597090642e-09
  - 11.400925431401111
twist:
  twist:
    linear:
      x: -3.420018740773706e-08
      y: -1.3595370848938681e-08
      z: 1.3600588664180294e-27
    angular:
      x: 4.084087816332407e-18
      y: 3.434769251569335e-15
      z: -5.692429906535596e-05
  covariance:
  - 0.0008569364141094718
  - -1.9138018103010934e-13
  - -1.6818265621541074e-24
  - 1.669763954017912e-29
  - -1.9711218846290133e-25
  - 3.925662308683768e-23
  - -1.913801810301093e-13
  - 0.0008569364142930977
  - 2.0008097622253323e-27
  - 2.3198172371512325e-29
  - 1.7579104619110825e-26
  - 4.805931594667438e-24
  - -1.6818265621541067e-24
  - 2.0008097622253315e-27
  - 9.990144721390587e-07
  - -2.9490248234965494e-32
  - 7.418464699169132e-32
  - 1.4863944795068083e-28
  - 1.6697639540180254e-29
  - 2.319817237151228e-29
  - -2.9490248234965516e-32
  - 9.996710586712046e-07
  - -5.404619197114148e-29
  - 5.794860335802082e-19
  - -1.9711218846290193e-25
  - 1.7579104619110877e-26
  - 7.418464699169134e-32
  - -5.404619196332809e-29
  - 9.996710586712046e-07
  - 2.896731895067749e-16
  - 3.9256623086837823e-23
  - 4.805931594667426e-24
  - 1.48639447950681e-28
  - 5.794860335802081e-19
  - 2.896731895067751e-16
  - 0.013266235881844182
---
header:
  stamp:
    sec: 1722530806
    nanosec: 944663218
  frame_id: map
child_frame_id: base_link
pose:
  pose:
    position:
      x: -0.522698173054229
      y: 0.39789868224221303
      z: -5.313262838449273e-23
    orientation:
      x: -6.578376603511427e-13
      y: -2.4196913644621e-10
      z: -0.00031809404172960224
      w: 0.999999949408089
  covariance:
  - 0.023549365577577277
  - -0.00041424928554098
  - 5.6180712554265115e-21
  - 4.6017334115428455e-20
  - 2.213498139480663e-18
  - -5.996100153922173e-09
  - -0.0004142492855409799
  - 0.02341457128004933
  - -2.3239144606784155e-23
  - 5.965317911118017e-20
  - 2.4962632455408146e-17
  - -6.682931515192457e-08
  - 5.618071255426514e-21
  - -2.3239144606784146e-23
  - 9.998710876916428e-07
  - -1.6142568972626434e-22
  - 1.8207330065458584e-21
  - -6.155294343853759e-22
  - 4.6017334115428455e-20
  - 5.965317911118026e-20
  - -1.6142568972626434e-22
  - 1.2778448616565375e-08
  - -4.7475552043948124e-18
  - -8.079647336751892e-13
  - 2.213498139480667e-18
  - 2.4962632455408177e-17
  - 1.8207330065458584e-21
  - -4.7475552037636066e-18
  - 1.2778432333918342e-08
  - -4.283155068242042e-09
  - -5.996100153922173e-09
  - -6.682931515192456e-08
  - -6.15529434385375e-22
  - -8.079647336751897e-13
  - -4.283155068242037e-09
  - 11.427901381864679
twist:
  twist:
    linear:
      x: -2.9480672749067286e-08
      y: -2.6211029913866217e-09
      z: -2.8891495933434103e-28
    angular:
      x: 3.871250765458201e-18
      y: 1.6126526888886318e-15
      z: 0.00019736311317592657
  covariance:
  - 0.0008521758997637225
  - -1.6589648052248293e-13
  - -8.14446726755337e-25
  - 5.5987082960576766e-30
  - -1.7201951846332731e-25
  - 5.2105162254013856e-23
  - -1.658964805224829e-13
  - 0.0008521758999333439
  - 1.9416490528295543e-27
  - 2.0170592984036897e-29
  - 1.6841304101665685e-26
  - 4.57386544076643e-23
  - -8.144467267553375e-25
  - 1.9416490528295543e-27
  - 9.989705586018536e-07
  - -5.224419567194986e-33
  - 5.89293207910171e-32
  - 3.7843571631906263e-28
  - 5.598708296058647e-30
  - 2.017059298403684e-29
  - -5.224419567194985e-33
  - 9.996563814547864e-07
  - -5.271901715714724e-29
  - 2.746327494283961e-19
  - -1.7201951846332777e-25
  - 1.6841304101665736e-26
  - 5.892932079101711e-32
  - -5.271901715014183e-29
  - 9.996563814547864e-07
  - 8.800925605700277e-16
  - 5.210516225401405e-23
  - 4.573865440766427e-23
  - 3.7843571631906263e-28
  - 2.746327494283962e-19
  - 8.800925605700277e-16
  - 0.012971922894823563
---
header:
  stamp:
    sec: 1722530806
    nanosec: 997574000
  frame_id: map
child_frame_id: base_link
pose:
  pose:
    position:
      x: -0.5226981776683046
      y: 0.3978986818304335
      z: -4.7654610523332485e-23
    orientation:
      x: -6.170734841884397e-13
      y: -2.2640182410549586e-10
      z: -0.0003168344769473171
      w: 0.9999999498079558
  covariance:
  - 0.05000541188271016
  - -0.00041425019789104406
  - 5.375594976157625e-21
  - 4.273626956049923e-20
  - -2.154856891884777e-19
  - 4.854637938408628e-10
  - -0.00041425019789104417
  - 0.049870617288275444
  - -2.1143208321872965e-23
  - 6.112531887486325e-20
  - 4.938082349358911e-17
  - -1.4070741640199127e-07
  - 5.375594976157625e-21
  - -2.1143208321872974e-23
  - 9.998706929094e-07
  - -1.515861049729825e-22
  - 1.6985272777931246e-21
  - -5.494733951702789e-22
  - 4.273626956049922e-20
  - 6.112531887486338e-20
  - -1.5158610497298246e-22
  - 1.2539491543253743e-08
  - -4.247441713379829e-18
  - -7.852020518968535e-13
  - -2.1548568918847676e-19
  - 4.938082349358917e-17
  - 1.6985272777931234e-21
  - -4.247441712819539e-18
  - 1.2539477209531101e-08
  - -4.021602811672595e-09
  - 4.854637938408633e-10
  - -1.4070741640199127e-07
  - -5.4947339517027785e-22
  - -7.85202051896854e-13
  - -4.0216028116725875e-09
  - 11.454373084854145
twist:
  twist:
    linear:
      x: -2.8266274209597652e-08
      y: -2.522643571903407e-09
      z: 4.755011988421007e-28
    angular:
      x: 3.6338430356885285e-18
      y: 1.5087927556824336e-15
      z: 1.0715188728992593e-05
  covariance:
  - 0.0008513186070756034
  - -1.5244707312712317e-13
  - -7.409429744599861e-25
  - 4.280942121491675e-30
  - -1.547118959570305e-25
  - 6.0431022934202706e-24
  - -1.5244707312712314e-13
  - 0.0008513186072315146
  - 1.7845670673329443e-27
  - 1.821578476930935e-29
  - 1.514550683362985e-26
  - 2.052027858948534e-24
  - -7.409429744599862e-25
  - 1.784567067332944e-27
  - 9.989674115004863e-07
  - -4.90089624146457e-33
  - 5.491470472470004e-32
  - 1.831434821522954e-29
  - 4.2809421214925465e-30
  - 1.8215784769309317e-29
  - -4.900896241464568e-33
  - 9.996553296002188e-07
  - -4.7159140396900097e-29
  - 2.541034182969179e-19
  - -1.54711895957031e-25
  - 1.514550683362989e-26
  - 5.491470472470004e-32
  - -4.715914039067947e-29
  - 9.996553296002188e-07
  - 4.482489392946162e-17
  - 6.043102293420293e-24
  - 2.0520278589485324e-24
  - 1.831434821522955e-29
  - 2.541034182969179e-19
  - 4.482489392946163e-17
  - 0.012771606963743343
---
header:
  stamp:
    sec: 1722530807
    nanosec: 46045453
  frame_id: map
child_frame_id: base_link
pose:
  pose:
    position:
      x: -0.5224736578005856
      y: 0.39784045539129664
      z: 4.1418646106433417e-22
    orientation:
      x: -8.338543934920871e-15
      y: 1.9726029970658155e-09
      z: -0.00016191767604471294
      w: 0.999999986891333
  covariance:
  - 0.023825409810837313
  - -0.0005423186940830363
  - -5.062746888098923e-20
  - -2.7654350336715682e-21
  - -3.063197609341319e-18
  - 9.113334005916011e-09
  - -0.0005423186940830363
  - 0.023653823159455953
  - -1.1503651718883179e-21
  - 7.610898752811786e-21
  - 2.201123597397767e-17
  - -6.538287057128564e-08
  - -5.0627468880989224e-20
  - -1.150365171888319e-21
  - 9.998812799578932e-07
  - -1.754832424174411e-22
  - 1.609446349378406e-21
  - -5.172113242541065e-22
  - -2.765435033671571e-21
  - 7.610898752811789e-21
  - -1.7548324241744109e-22
  - 1.2141664316639907e-08
  - -7.158445108326131e-18
  - -1.6237450206313272e-12
  - -3.0631976093413258e-18
  - 2.201123597397772e-17
  - 1.6094463493784057e-21
  - -7.158445107990106e-18
  - 1.2141649489425073e-08
  - -3.910371882740055e-09
  - 9.11333400591601e-09
  - -6.538287057128562e-08
  - -5.172113242541055e-22
  - -1.6237450206313264e-12
  - -3.910371882740046e-09
  - 11.478613430075974
twist:
  twist:
    linear:
      x: -2.6048876663219807e-08
      y: -2.840259343121593e-09
      z: -1.1675565981143208e-26
    angular:
      x: 2.1837338780867276e-18
      y: -1.3147001345356389e-14
      z: 0.0010281635733390675
  covariance:
  - 0.0008610018034347627
  - -1.5035570586808562e-13
  - 6.211884271062351e-24
  - -2.8757900653973463e-29
  - -1.3998569896956401e-25
  - 9.892142531802384e-23
  - -1.503557058680856e-13
  - 0.0008610018035809971
  - 1.1347344061124711e-27
  - 2.1300197215443972e-29
  - 1.472698544328224e-26
  - 3.250086392815034e-23
  - 6.2118842710623494e-24
  - 1.1347344061124715e-27
  - 9.99051814966172e-07
  - -5.6848771209668844e-33
  - 5.213905039329928e-32
  - 7.739146165690306e-28
  - -2.8757900653972774e-29
  - 2.1300197215443958e-29
  - -5.68487712096688e-33
  - 9.996835384162484e-07
  - -7.949158546220704e-29
  - -1.5803300324650005e-18
  - -1.3998569896956438e-25
  - 1.472698544328228e-26
  - 5.213905039329925e-32
  - -7.949158545849205e-29
  - 9.996835384162487e-07
  - 1.9309167427057606e-15
  - 9.89214253180241e-23
  - 3.250086392815033e-23
  - 7.739146165690305e-28
  - -1.5803300324650012e-18
  - 1.9309167427057606e-15
  - 0.01332155223758865
---
header:
  stamp:
    sec: 1722530807
    nanosec: 88599467
  frame_id: map
child_frame_id: base_link
pose:
  pose:
    position:
      x: -0.5224736609902314
      y: 0.3978404550419483
      z: 3.4556361958748065e-22
    orientation:
      x: 5.183957652102234e-15
      y: 1.886506750857151e-09
      z: -0.00015634832310135841
      w: 0.9999999877776009
  covariance:
  - 0.045102941159481866
  - -0.0005423195696043076
  - -4.4935635375744943e-20
  - -3.486869376962782e-21
  - -4.736468685071939e-18
  - 1.468796723586765e-08
  - -0.0005423195696043071
  - 0.04493135423051237
  - 5.55941474622424e-23
  - 1.4968906292540063e-20
  - 3.7742841818958974e-17
  - -1.1709329953072273e-07
  - -4.493563537574494e-20
  - 5.559414746224242e-23
  - 9.998686490222118e-07
  - -1.5544078015506214e-22
  - 1.4259143075266382e-21
  - -4.414460997420809e-22
  - -3.486869376962785e-21
  - 1.496890629254007e-20
  - -1.5544078015506211e-22
  - 1.2006391804813888e-08
  - -6.826857699503975e-18
  - -1.583833235100656e-12
  - -4.736468685071947e-18
  - 3.774284181895905e-17
  - 1.425914307526639e-21
  - -6.826857699237335e-18
  - 1.2006378342260277e-08
  - -3.730954511019546e-09
  - 1.4687967235867652e-08
  - -1.1709329953072276e-07
  - -4.414460997420804e-22
  - -1.5838332351006554e-12
  - -3.730954511019541e-09
  - 11.499903483457953
twist:
  twist:
    linear:
      x: -2.488270371198697e-08
      y: -2.7125343338190656e-09
      z: -3.449359112294978e-27
    angular:
      x: 1.9305569069065278e-18
      y: -1.2572884124260135e-14
      z: 9.846616134410046e-05
  covariance:
  - 0.000850073493330133
  - -1.3712835311531042e-13
  - 6.3645306222571454e-24
  - -2.907388310158648e-29
  - -1.2736773956782713e-25
  - 1.7535597559254327e-23
  - -1.3712835311531037e-13
  - 0.0008500734934635657
  - 9.814620037667938e-28
  - 1.9684497245331815e-29
  - 1.3398484527897144e-26
  - 2.075953845718967e-24
  - 6.3645306222571454e-24
  - 9.814620037667933e-28
  - 9.989511200753565e-07
  - -5.018792081982061e-33
  - 4.6039209819697505e-32
  - 6.319019942598249e-29
  - -2.9073883101585816e-29
  - 1.9684497245331812e-29
  - -5.018792081982059e-33
  - 9.996498839723158e-07
  - -7.580763806499802e-29
  - -2.127479771103207e-18
  - -1.2736773956782743e-25
  - 1.339848452789718e-26
  - 4.603920981969749e-32
  - -7.580763806203776e-29
  - 9.996498839723158e-07
  - 1.7614991150626527e-16
  - 1.753559755925437e-23
  - 2.075953845718963e-24
  - 6.319019942598249e-29
  - -2.127479771103207e-18
  - 1.761499115062653e-16
  - 0.012960847760475347
---
header:
  stamp:
    sec: 1722530807
    nanosec: 139750783
  frame_id: map
child_frame_id: base_link
pose:
  pose:
    position:
      x: -0.5242489021879
      y: 0.39902612884297317
      z: 5.443611613927604e-22
    orientation:
      x: 3.83039108490532e-15
      y: 1.7536050599104317e-09
      z: -0.0001567894960712139
      w: 0.9999999877085269
  covariance:
  - 0.021105725240918704
  - -0.0004014173494558466
  - -5.855652697037417e-20
  - 4.945248176134038e-20
  - 7.246729376497979e-18
  - -2.3569565904158665e-08
  - -0.0004014173494558468
  - 0.021000348478371265
  - -7.232803006391378e-21
  - 6.799059767837269e-20
  - 3.287588830965873e-17
  - -1.076764200430331e-07
  - -5.855652697037418e-20
  - -7.232803006391384e-21
  - 9.9989810606135e-07
  - 3.8627523545747564e-22
  - 2.4854409941919557e-21
  - -7.4611797068047e-22
  - 4.9452481761340365e-20
  - 6.799059767837263e-20
  - 3.8627523545747564e-22
  - 1.1792366953839004e-08
  - -6.089923029649802e-18
  - -1.4567532175385284e-12
  - 7.246729376497983e-18
  - 3.2875888309658784e-17
  - 2.4854409941919553e-21
  - -6.089923029418664e-18
  - 1.1792355116014772e-08
  - -3.5212038069983688e-09
  - -2.356956590415867e-08
  - -1.0767642004303312e-07
  - -7.461179706804688e-22
  - -1.4567532175385274e-12
  - -3.5212038069983634e-09
  - 11.52548488821861
twist:
  twist:
    linear:
      x: -3.735631257798609e-08
      y: 5.7795974358025575e-09
      z: 1.5451871243500692e-25
    angular:
      x: 1.807468453409555e-18
      y: -1.168806732408392e-14
