header:
  stamp:
    sec: 1722525240
    nanosec: 473995781
  frame_id: odom
child_frame_id: base_link
pose:
  pose:
    position:
      x: -0.2968043036290099
      y: 0.030202577988916915
      z: 0.0
    orientation:
      x: 0.0
      y: 0.0
      z: -0.1463084335897996
      w: 0.9892390218043864
  covariance:
  - 0.00018055721564290972
  - 2.0379821311566404e-05
  - 0.0
  - 0.0
  - 0.0
  - 1.5849221426101752e-21
  - 2.0379821311566408e-05
  - 0.00024178427029447093
  - 0.0
  - 0.0
  - 0.0
  - -5.028923947208231e-22
  - 0.0
  - 0.0
  - 9.261618388399764e-07
  - -2.835087902064368e-30
  - 4.8493470326947916e-32
  - 0.0
  - 0.0
  - 0.0
  - -2.8350879020643672e-30
  - 9.997131272866588e-07
  - 1.861954031726864e-54
  - 0.0
  - 0.0
  - 0.0
  - 4.849347032694791e-32
  - 1.8619540317528054e-54
  - 9.997131272866588e-07
  - 0.0
  - 1.5849221426101754e-21
  - -5.028923947208231e-22
  - 0.0
  - 0.0
  - 0.0
  - 0.012468915945168767
twist:
  twist:
    linear:
      x: -1.96277163165558e-19
      y: -1.1528276429584621e-17
      z: 0.0
    angular:
      x: 0.0
      y: 0.0
      z: -1.9953308894159062e-34
  covariance:
  - 0.010954193953516413
  - -3.74050270814445e-18
  - 0.0
  - 0.0
  - 0.0
  - 5.376418753718776e-21
  - -5.266342258598307e-18
  - 0.059133660764725725
  - 0.0
  - 0.0
  - 0.0
  - 4.691963812028317e-23
  - 0.0
  - 0.0
  - 9.991403678086284e-07
  - -9.417352718964903e-41
  - 1.610814977047951e-42
  - 0.0
  - 0.0
  - 0.0
  - -9.4173527189649e-41
  - 9.997131272755635e-07
  - 2.0643238126999067e-65
  - 0.0
  - 0.0
  - 0.0
  - 1.610814977047951e-42
  - 2.064323812728634e-65
  - 9.997131272755635e-07
  - 0.0
  - 5.376418753718743e-21
  - 4.691963812027631e-23
  - 0.0
  - 0.0
  - 0.0
  - 0.8634073044764448
---
header:
  stamp:
    sec: 1722525240
    nanosec: 528191222
  frame_id: odom
child_frame_id: base_link
pose:
  pose:
    position:
      x: -0.2968043036290099
      y: 0.030202577988916915
      z: 0.0
    orientation:
      x: 0.0
      y: 0.0
      z: -0.1463084335897996
      w: 0.9892390218043864
  covariance:
  - 0.00016739634690303431
  - 1.9194178689312217e-05
  - 0.0
  - 0.0
  - 0.0
  - 1.4861672537084466e-21
  - 1.919417868931222e-05
  - 0.00022506137789795146
  - 0.0
  - 0.0
  - 0.0
  - -4.711610734033485e-22
  - 0.0
  - 0.0
  - 9.236339495332754e-07
  - -2.9320060627263777e-30
  - 4.8005885455419554e-32
  - 0.0
  - 0.0
  - 0.0
  - -2.9320060627263774e-30
  - 9.997017855109567e-07
  - 1.8431431107846486e-54
  - 0.0
  - 0.0
  - 0.0
  - 4.800588545541956e-32
  - 1.8431431108252415e-54
  - 9.997017855109567e-07
  - 0.0
  - 1.4861672537084466e-21
  - -4.7116107340334855e-22
  - 0.0
  - 0.0
  - 0.0
  - 0.01214410610463455
twist:
  twist:
    linear:
      x: -1.8791342830648173e-19
      y: -1.1528276429584621e-17
      z: 0.0
    angular:
      x: 0.0
      y: 0.0
      z: -1.8998849037973452e-34
  covariance:
  - 0.01049710778847733
  - -1.4724746174724365e-18
  - 0.0
  - 0.0
  - 0.0
  - -9.316728930603411e-22
  - -3.900674668248881e-18
  - 0.058447272960107766
  - 0.0
  - 0.0
  - 0.0
  - 5.017633239022633e-23
  - 0.0
  - 0.0
  - 9.991064218693173e-07
  - -9.73706809118353e-41
  - 1.594255481172871e-42
  - 0.0
  - 0.0
  - 0.0
  - -9.737068091183527e-41
  - 9.997017854998623e-07
  - 2.0431526722509257e-65
  - 0.0
  - 0.0
  - 0.0
  - 1.5942554811728706e-42
  - 2.0431526722959594e-65
  - 9.997017854998623e-07
  - 0.0
  - -9.316728930603827e-22
  - 5.017633239021673e-23
  - 0.0
  - 0.0
  - 0.0
  - 0.8620103734947437
---
header:
  stamp:
    sec: 1722525240
    nanosec: 582296600
  frame_id: odom
child_frame_id: base_link
pose:
  pose:
    position:
      x: -0.2968043036290099
      y: 0.030202577988916915
      z: 0.0
    orientation:
      x: 0.0
      y: 0.0
      z: -0.1463084335897996
      w: 0.9892390218043864
  covariance:
  - 0.00016024773894241035
  - 1.8634671291129026e-05
  - 0.0
  - 0.0
  - 0.0
  - 1.3992851595917615e-21
  - 1.863467129112902e-05
  - 0.00021623184302816594
  - 0.0
  - 0.0
  - 0.0
  - -4.426450112441264e-22
  - 0.0
  - 0.0
  - 9.128881522462876e-07
  - -3.344237135783898e-30
  - 5.239196026377612e-32
  - 0.0
  - 0.0
  - 0.0
  - -3.3442371357838964e-30
  - 9.99651466564349e-07
  - 2.0113355739890324e-54
  - 0.0
  - 0.0
  - 0.0
  - 5.23919602637761e-32
  - 2.0113355739576418e-54
  - 9.99651466564349e-07
  - 0.0
  - 1.3992851595917609e-21
  - -4.426450112441263e-22
  - 0.0
  - 0.0
  - 0.0
  - 0.011620674047114601
twist:
  twist:
    linear:
      x: -1.799188832316753e-19
      y: -1.1528276429584621e-17
      z: 0.0
    angular:
      x: 0.0
      y: 0.0
      z: -1.8091490477987899e-34
  covariance:
  - 0.01023480757456618
  - -3.9361866884772825e-20
  - 0.0
  - 0.0
  - 0.0
  - -5.048071278095935e-21
  - -1.2036067575959292e-18
  - 0.057459254685929946
  - 0.0
  - 0.0
  - 0.0
  - 5.934161412894737e-23
  - 0.0
  - 0.0
  - 9.989558545439409e-07
  - -1.1101246976492655e-40
  - 1.739159636370653e-42
  - 0.0
  - 0.0
  - 0.0
  - -1.1101246976492655e-40
  - 9.996514665532568e-07
  - 2.2291084888699224e-65
  - 0.0
  - 0.0
  - 0.0
  - 1.7391596363706535e-42
  - 2.2291084888351167e-65
  - 9.996514665532568e-07
  - 0.0
  - -5.048071278095984e-21
  - 5.934161412893148e-23
  - 0.0
  - 0.0
  - 0.0
  - 0.8604180954617378
---
header:
  stamp:
    sec: 1722525240
    nanosec: 624695520
  frame_id: odom
child_frame_id: base_link
pose:
  pose:
    position:
      x: -0.2968043036290099
      y: 0.030202577988916915
      z: 0.0
    orientation:
      x: 0.0
      y: 0.0
      z: -0.1463084335897996
      w: 0.9892390218043864
  covariance:
  - 0.0001592127879257455
  - 1.9379164735077615e-05
  - 0.0
  - 0.0
  - 0.0
  - 1.4487703980925931e-21
  - 1.9379164735077615e-05
  - 0.00021743357211205234
  - 0.0
  - 0.0
  - 0.0
  - -4.5778756685476625e-22
  - 0.0
  - 0.0
  - 9.210104131854004e-07
  - -3.0326236778415952e-30
  - 4.594082282640738e-32
  - 0.0
  - 0.0
  - 0.0
  - -3.0326236778415963e-30
  - 9.996898036829276e-07
  - 1.7637924984939108e-54
  - 0.0
  - 0.0
  - 0.0
  - 4.594082282640739e-32
  - 1.7637924984384396e-54
  - 9.996898036829276e-07
  - 0.0
  - 1.4487703980925925e-21
  - -4.5778756685476625e-22
  - 0.0
  - 0.0
  - 0.0
  - 0.011937910176553653
twist:
  twist:
    linear:
      x: -1.7389334748066203e-19
      y: -1.1528276429584621e-17
      z: 0.0
    angular:
      x: 0.0
      y: 0.0
      z: -1.7410949127783489e-34
  covariance:
  - 0.010164378339712435
  - 7.059818498523442e-20
  - 0.0
  - 0.0
  - 0.0
  - -7.008981252246234e-21
  - 2.242724972163296e-19
  - 0.057567012104283805
  - 0.0
  - 0.0
  - 0.0
  - 6.202402898994461e-23
  - 0.0
  - 0.0
  - 9.990705636190082e-07
  - -1.0069553977486046e-40
  - 1.5254240062263362e-42
  - 0.0
  - 0.0
  - 0.0
  - -1.0069553977486052e-40
  - 9.996898036718336e-07
  - 1.954992181630245e-65
  - 0.0
  - 0.0
  - 0.0
  - 1.5254240062263365e-42
  - 1.9549921815687246e-65
  - 9.996898036718336e-07
  - 0.0
  - -7.008981252246284e-21
  - 6.202402898992774e-23
  - 0.0
  - 0.0
  - 0.0
  - 0.8601950847808277
---
header:
  stamp:
    sec: 1722525240
    nanosec: 660931843
  frame_id: odom
child_frame_id: base_link
pose:
  pose:
    position:
      x: -0.2968043036290099
      y: 0.030202577988916915
      z: 0.0
    orientation:
      x: 0.0
      y: 0.0
      z: -0.1463084335897996
      w: 0.9892390218043864
  covariance:
  - 0.00016902929209136182
  - 2.2534615388220184e-05
  - 0.0
  - 0.0
  - 0.0
  - 1.633611040585034e-21
  - 2.2534615388220177e-05
  - 0.00023672999009225238
  - 0.0
  - 0.0
  - 0.0
  - -5.156053678510211e-22
  - 0.0
  - 0.0
  - 9.459690875030198e-07
  - -2.074750312843424e-30
  - 3.0599822382435277e-32
  - 0.0
  - 0.0
  - 0.0
  - -2.074750312843424e-30
  - 9.997992227964012e-07
  - 1.1750124573067056e-54
  - 0.0
  - 0.0
  - 0.0
  - 3.059982238243529e-32
  - 1.175012457281187e-54
  - 9.997992227964012e-07
  - 0.0
  - 1.6336110405850335e-21
  - -5.15605367851021e-22
  - 0.0
  - 0.0
  - 0.0
  - 0.013284605942001818
twist:
  twist:
    linear:
      x: -1.6889919540771077e-19
      y: -1.1528276429584621e-17
      z: 0.0
    angular:
      x: 0.0
      y: 0.0
      z: -1.6849066093687493e-34
  covariance:
  - 0.01032512120847269
  - 9.344008767640754e-20
  - 0.0
  - 0.0
  - 0.0
  - -8.317241484442173e-21
  - 8.347172778490255e-19
  - 0.05920985295615689
  - 0.0
  - 0.0
  - 0.0
  - 7.087461274761214e-23
  - 0.0
  - 0.0
  - 9.993981514606282e-07
  - -6.894047743085593e-41
  - 1.0167810325083443e-42
  - 0.0
  - 0.0
  - 0.0
  - -6.894047743085595e-41
  - 9.997992227853028e-07
  - 1.30273290866591e-65
  - 0.0
  - 0.0
  - 0.0
  - 1.0167810325083452e-42
  - 1.3027329086375745e-65
  - 9.997992227853028e-07
  - 0.0
  - -8.317241484442221e-21
  - 7.087461274759729e-23
  - 0.0
  - 0.0
  - 0.0
  - 0.8615093078262438
---
header:
  stamp:
    sec: 1722525240
    nanosec: 727367290
  frame_id: odom
child_frame_id: base_link
pose:
  pose:
    position:
      x: -0.2968043036290099
      y: 0.030202577988916915
      z: 0.0
    orientation:
      x: 0.0
      y: 0.0
      z: -0.1463084335897996
      w: 0.9892390218043864
  covariance:
  - 0.0001959229089507692
  - 2.6214087152479667e-05
  - 0.0
  - 0.0
  - 0.0
  - 1.871885026232595e-21
  - 2.6214087152479674e-05
  - 0.0002746778362972003
  - 0.0
  - 0.0
  - 0.0
  - -5.884726340142026e-22
  - 0.0
  - 0.0
  - 9.438327010760635e-07
  - -2.1570700021328723e-30
  - 3.0145637177896865e-32
  - 0.0
  - 0.0
  - 0.0
  - -2.1570700021328723e-30
  - 9.997898667420703e-07
  - 1.1577243987485575e-54
  - 0.0
  - 0.0
  - 0.0
  - 3.014563717789688e-32
  - 1.157724398728638e-54
  - 9.997898667420703e-07
  - 0.0
  - 1.8718850262325958e-21
  - -5.884726340142027e-22
  - 0.0
  - 0.0
  - 0.0
  - 0.013846532286884965
twist:
  twist:
    linear:
      x: -1.6009655879515875e-19
      y: -1.1528276429584621e-17
      z: 0.0
    angular:
      x: 0.0
      y: 0.0
      z: -1.5863583400436826e-34
  covariance:
  - 0.010693696722270255
  - -5.2613259003143937e-20
  - 0.0
  - 0.0
  - 0.0
  - -1.0285746919879394e-20
  - -9.03146838558231e-19
  - 0.06138326536497704
  - 0.0
  - 0.0
  - 0.0
  - 1.0293877871934926e-22
  - 0.0
  - 0.0
  - 9.993701295078766e-07
  - -7.172388850132626e-41
  - 1.0023609083439044e-42
  - 0.0
  - 0.0
  - 0.0
  - -7.172388850132626e-41
  - 9.997898667309706e-07
  - 1.284306492874704e-65
  - 0.0
  - 0.0
  - 0.0
  - 1.0023609083439046e-42
  - 1.2843064928525857e-65
  - 9.997898667309706e-07
  - 0.0
  - -1.0285746919879434e-20
  - 1.0293877871933234e-22
  - 0.0
  - 0.0
  - 0.0
  - 0.8617261549852727
---
header:
  stamp:
    sec: 1722525240
    nanosec: 771648515
  frame_id: odom
child_frame_id: base_link
pose:
  pose:
    position:
      x: -0.2968043036290099
      y: 0.030202577988916915
      z: 0.0
    orientation:
      x: 0.0
      y: 0.0
      z: -0.1463084335897996
      w: 0.9892390218043864
  covariance:
  - 0.00019437320519520067
  - 2.4084314496087042e-05
  - 0.0
  - 0.0
  - 0.0
  - 1.760312212110555e-21
  - 2.4084314496087056e-05
  - 0.0002667296609929953
  - 0.0
  - 0.0
  - 0.0
  - -5.5269621899549245e-22
  - 0.0
  - 0.0
  - 9.340500277281912e-07
  - -2.5325632380281656e-30
  - 3.4117884720501587e-32
  - 0.0
  - 0.0
  - 0.0
  - -2.5325632380281652e-30
  - 9.997478901863036e-07
  - 1.3101704524042603e-54
  - 0.0
  - 0.0
  - 0.0
  - 3.411788472050157e-32
  - 1.310170452395565e-54
  - 9.997478901863036e-07
  - 0.0
  - 1.760312212110554e-21
  - -5.526962189954923e-22
  - 0.0
  - 0.0
  - 0.0
  - 0.013276784689228046
twist:
  twist:
    linear:
      x: -1.544913843013263e-19
      y: -1.1528276429584621e-17
      z: 0.0
    angular:
      x: 0.0
      y: 0.0
      z: -1.5239673707754533e-34
  covariance:
  - 0.010577561376551421
  - -7.269594644811364e-19
  - 0.0
  - 0.0
  - 0.0
  - -9.858850040819127e-21
  - -2.382847614865974e-18
  - 0.06095888798821925
  - 0.0
  - 0.0
  - 0.0
  - 8.96456551868538e-23
  - 0.0
  - 0.0
  - 9.99244432268067e-07
  - -8.417900628930331e-41
  - 1.1340329301258635e-42
  - 0.0
  - 0.0
  - 0.0
  - -8.417900628930336e-41
  - 9.997478901752058e-07
  - 1.4531896877821233e-65
  - 0.0
  - 0.0
  - 0.0
  - 1.1340329301258643e-42
  - 1.4531896877724574e-65
  - 9.997478901752058e-07
  - 0.0
  - -9.858850040819158e-21
  - 8.964565518683872e-23
  - 0.0
  - 0.0
  - 0.0
  - 0.8607002534091698
---
header:
  stamp:
    sec: 1722525240
    nanosec: 830408109
  frame_id: odom
child_frame_id: base_link
pose:
  pose:
    position:
      x: -0.2968043036290099
      y: 0.030202577988916915
      z: 0.0
    orientation:
      x: 0.0
      y: 0.0
      z: -0.1463084335897996
      w: 0.9892390218043864
  covariance:
  - 0.00018786637186485872
  - 2.1781499797979404e-05
  - 0.0
  - 0.0
  - 0.0
  - 1.6091230494584644e-21
  - 2.178149979797941e-05
  - 0.00025330448626907924
  - 0.0
  - 0.0
  - 0.0
  - -5.044923698184695e-22
  - 0.0
  - 0.0
  - 9.322423334944463e-07
  - -2.60168319480422e-30
  - 3.34254463424676e-32
  - 0.0
  - 0.0
  - 0.0
  - -2.6016831948042187e-30
  - 9.997404279809992e-07
  - 1.2834330520229483e-54
  - 0.0
  - 0.0
  - 0.0
  - 3.342544634246759e-32
  - 1.2834330520507912e-54
  - 9.997404279809992e-07
  - 0.0
  - 1.6091230494584643e-21
  - -5.044923698184694e-22
  - 0.0
  - 0.0
  - 0.0
  - 0.012745106155401833
twist:
  twist:
    linear:
      x: -1.4735341931776502e-19
      y: -1.1528276429584621e-17
      z: 0.0
    angular:
      x: 0.0
      y: 0.0
      z: -1.444925014079295e-34
  covariance:
  - 0.010393324922879749
  - -1.4082543348043223e-18
  - 0.0
  - 0.0
  - 0.0
  - -8.424466714398804e-21
  - -2.011736438239452e-18
  - 0.06049281534730152
  - 0.0
  - 0.0
  - 0.0
  - 6.892740902452067e-23
  - 0.0
  - 0.0
  - 9.99222091212242e-07
  - -8.642733365539354e-41
  - 1.1103860676910555e-42
  - 0.0
  - 0.0
  - 0.0
  - -8.642733365539352e-41
  - 9.99740427969903e-07
  - 1.4229054075819193e-65
  - 0.0
  - 0.0
  - 0.0
  - 1.110386067691055e-42
  - 1.4229054076128223e-65
  - 9.99740427969903e-07
  - 0.0
  - -8.424466714398834e-21
  - 6.892740902450627e-23
  - 0.0
  - 0.0
  - 0.0
  - 0.8597353858507535
---
header:
  stamp:
    sec: 1722525240
    nanosec: 875908489
  frame_id: odom
child_frame_id: base_link
pose:
  pose:
    position:
      x: -0.2968043036290099
      y: 0.030202577988916915
      z: 0.0
    orientation:
      x: 0.0
      y: 0.0
      z: -0.1463084335897996
      w: 0.9892390218043864
  covariance:
  - 0.00016680566921034866
  - 1.805997727960676e-05
  - 0.0
  - 0.0
  - 0.0
  - 1.3420914963133483e-21
  - 1.805997727960675e-05
  - 0.00022106322127616928
  - 0.0
  - 0.0
  - 0.0
  - -4.2043549477046953e-22
  - 0.0
  - 0.0
  - 9.10208299354588e-07
  - -3.446697207404971e-30
  - 4.2630038122368015e-32
  - 0.0
  - 0.0
  - 0.0
  - -3.44669720740497e-30
  - 9.996393720958812e-07
  - 1.6363745607990067e-54
  - 0.0
  - 0.0
  - 0.0
  - 4.263003812236802e-32
  - 1.6363745608321954e-54
  - 9.996393720958812e-07
  - 0.0
  - 1.3420914963133481e-21
  - -4.204354947704695e-22
  - 0.0
  - 0.0
  - 0.0
  - 0.01138489130948757
twist:
  twist:
    linear:
      x: -1.420606799214031e-19
      y: -1.1528276429584621e-17
      z: 0.0
    angular:
      x: 0.0
      y: 0.0
      z: -1.3866349767611822e-34
  covariance:
  - 0.010022227116178305
  - -2.7113554398029382e-18
  - 0.0
  - 0.0
  - 0.0
  - -6.4604084638841344e-21
  - -7.457504139718356e-19
  - 0.058370343082725595
  - 0.0
  - 0.0
  - 0.0
  - 4.50237343035085e-23
  - 0.0
  - 0.0
  - 9.989196734503062e-07
  - -1.1434552733524165e-40
  - 1.4142685442322391e-42
  - 0.0
  - 0.0
  - 0.0
  - -1.1434552733524163e-40
  - 9.996393720847903e-07
  - 1.812721698680947e-65
  - 0.0
  - 0.0
  - 0.0
  - 1.4142685442322385e-42
  - 1.812721698717738e-65
  - 9.996393720847903e-07
  - 0.0
  - -6.460408463884159e-21
  - 4.502373430349959e-23
  - 0.0
  - 0.0
  - 0.0
  - 0.8576466949975643
---
header:
  stamp:
    sec: 1722525240
    nanosec: 932739458
  frame_id: odom
child_frame_id: base_link
pose:
  pose:
    position:
      x: -0.2968043036290099
      y: 0.030202577988916915
      z: 0.0
    orientation:
      x: 0.0
      y: 0.0
      z: -0.1463084335897996
      w: 0.9892390218043864
  covariance:
  - 0.00016295068731346287
  - 1.9664948626179864e-05
  - 0.0
  - 0.0
  - 0.0
  - 1.44458908149369e-21
  - 1.9664948626179867e-05
  - 0.00022203005144762837
  - 0.0
  - 0.0
  - 0.0
  - -4.520138059776974e-22
  - 0.0
  - 0.0
  - 9.154241723599149e-07
  - -3.2469859739541216e-30
  - 3.837648355586963e-32
  - 0.0
  - 0.0
  - 0.0
  - -3.2469859739541216e-30
  - 9.996634941233685e-07
  - 1.4733277817971e-54
  - 0.0
  - 0.0
  - 0.0
  - 3.8376483555869647e-32
  - 1.4733277818068776e-54
  - 9.996634941233685e-07
  - 0.0
  - 1.44458908149369e-21
  - -4.520138059776969e-22
  - 0.0
  - 0.0
  - 0.0
  - 0.011820644393102507
twist:
  twist:
    linear:
      x: -1.3571721360801383e-19
      y: -1.1528276429584621e-17
      z: 0.0
    angular:
      x: 0.0
      y: 0.0
      z: -1.3171342119938316e-34
  covariance:
  - 0.010035320022325605
  - -2.645592616416442e-18
  - 0.0
  - 0.0
  - 0.0
  - -5.0659457687463705e-21
  - -9.13579869426495e-19
  - 0.05852344000880841
  - 0.0
  - 0.0
  - 0.0
  - 4.68802605053886e-23
  - 0.0
  - 0.0
  - 9.9899183864052e-07
  - -1.0779989565176366e-40
  - 1.2740990807139764e-42
  - 0.0
  - 0.0
  - 0.0
  - -1.077998956517637e-40
  - 9.996634941122756e-07
  - 1.6329914208045032e-65
  - 0.0
  - 0.0
  - 0.0
  - 1.2740990807139764e-42
  - 1.6329914208153174e-65
  - 9.996634941122756e-07
  - 0.0
  - -5.06594576874639e-21
  - 4.68802605053884e-23
  - 0.0
  - 0.0
  - 0.0
  - 0.8577691419251657
---
header:
  stamp:
    sec: 1722525240
    nanosec: 980038269
  frame_id: odom
child_frame_id: base_link
pose:
  pose:
    position:
      x: -0.2968043036290099
      y: 0.030202577988916915
      z: 0.0
    orientation:
      x: 0.0
      y: 0.0
      z: -0.1463084335897996
      w: 0.9892390218043864
  covariance:
  - 0.0001652616191520339
  - 2.0792710247007878e-05
  - 0.0
  - 0.0
  - 0.0
  - 1.5099647890017925e-21
  - 2.079271024700787e-05
  - 0.0002277291151710055
  - 0.0
  - 0.0
  - 0.0
  - -4.717751861199884e-22
  - 0.0
  - 0.0
  - 9.237482278401656e-07
  - -2.9275551404912372e-30
  - 3.332769133271608e-32
  - 0.0
  - 0.0
  - 0.0
  - -2.9275551404912365e-30
  - 9.997024472378312e-07
  - 1.2795592893377716e-54
  - 0.0
  - 0.0
  - 0.0
  - 3.3327691332716077e-32
  - 1.2795592893436234e-54
  - 9.997024472378312e-07
  - 0.0
  - 1.5099647890017929e-21
  - -4.717751861199885e-22
  - 0.0
  - 0.0
  - 0.0
  - 0.01214570978736087
twist:
  twist:
    linear:
      x: -1.3065398250634067e-19
      y: -1.1528276429584621e-17
      z: 0.0
    angular:
      x: 0.0
      y: 0.0
      z: -1.2619510907055157e-34
  covariance:
  - 0.01012415899812375
  - -2.9829025407634768e-18
  - 0.0
  - 0.0
  - 0.0
  - -4.36824290336543e-21
  - -9.99062219505484e-19
  - 0.05847249450548188
  - 0.0
  - 0.0
  - 0.0
  - 5.409019857747564e-23
  - 0.0
  - 0.0
  - 9.991084022786782e-07
  - -9.721212650087348e-41
  - 1.1066764888929458e-42
  - 0.0
  - 0.0
  - 0.0
  - -9.721212650087354e-41
  - 9.997024472267368e-07
  - 1.4182805540883532e-65
  - 0.0
  - 0.0
  - 0.0
  - 1.106676488892946e-42
  - 1.4182805540948668e-65
  - 9.997024472267368e-07
  - 0.0
  - -4.368242903365442e-21
  - 5.409019857748188e-23
  - 0.0
  - 0.0
  - 0.0
  - 0.8578448065828833
---
header:
  stamp:
    sec: 1722525241
    nanosec: 31320968
  frame_id: odom
child_frame_id: base_link
pose:
  pose:
    position:
      x: -0.2968043036290099
      y: 0.030202577988916915
      z: 0.0
    orientation:
      x: 0.0
      y: 0.0
      z: -0.1463084335897996
      w: 0.9892390218043864
  covariance:
  - 0.00015818344075945202
  - 1.95476362613019e-05
  - 0.0
  - 0.0
  - 0.0
  - 1.4389373667509623e-21
  - 1.9547636261301903e-05
  - 0.00021691036360054242
  - 0.0
  - 0.0
  - 0.0
  - -4.491535559123437e-22
  - 0.0
  - 0.0
  - 9.145334813296522e-07
  - -3.2812514063483314e-30
  - 3.5825740716191166e-32
  - 0.0
  - 0.0
  - 0.0
  - -3.28125140634833e-30
  - 9.996590022691484e-07
  - 1.375430694277885e-54
  - 0.0
  - 0.0
  - 0.0
  - 3.5825740716191166e-32
  - 1.3754306943042827e-54
  - 9.996590022691484e-07
  - 0.0
  - 1.4389373667509615e-21
  - -4.491535559123436e-22
  - 0.0
  - 0.0
  - 0.0
  - 0.011823539654609427
twist:
  twist:
    linear:
      x: -1.2538065685460832e-19
      y: -1.1528276429584621e-17
      z: 0.0
    angular:
      x: 0.0
      y: 0.0
      z: -1.2047677380289222e-34
  covariance:
  - 0.010025954969727939
  - -2.258852318023125e-18
  - 0.0
  - 0.0
  - 0.0
  - -3.226653824132568e-21
  - -6.408859239014613e-19
  - 0.05749901487771718
  - 0.0
  - 0.0
  - 0.0
  - 4.8339320447303586e-23
  - 0.0
  - 0.0
  - 9.989783995918763e-07
  - -1.089502671732006e-40
  - 1.1895537357101521e-42
  - 0.0
  - 0.0
  - 0.0
  - -1.089502671732006e-40
  - 9.996590022580552e-07
  - 1.524650305327691e-65
  - 0.0
  - 0.0
  - 0.0
  - 1.1895537357101521e-42
  - 1.5246503053569715e-65
  - 9.996590022580552e-07
  - 0.0
  - -3.226653824132574e-21
  - 4.833932044730845e-23
  - 0.0
  - 0.0
  - 0.0
  - 0.857036009107503
---
header:
  stamp:
    sec: 1722525241
    nanosec: 79376226
  frame_id: odom
child_frame_id: base_link
pose:
  pose:
    position:
      x: -0.2968043036290099
      y: 0.030202577988916915
      z: 0.0
    orientation:
      x: 0.0
      y: 0.0
      z: -0.1463084335897996
      w: 0.9892390218043864
  covariance:
  - 0.00014975761038581533
  - 1.7834678596762437e-05
  - 0.0
  - 0.0
  - 0.0
  - 1.3121818245868632e-21
  - 1.783467859676244e-05
  - 0.00020333829808876714
  - 0.0
  - 0.0
  - 0.0
  - -4.09118876067878e-22
  - 0.0
  - 0.0
  - 9.108397216532922e-07
  - -3.422497254119943e-30
  - 3.5947116207366395e-32
  - 0.0
  - 0.0
  - 0.0
  - -3.422497254119943e-30
  - 9.99642388017408e-07
  - 1.3798624941806395e-54
  - 0.0
  - 0.0
  - 0.0
  - 3.5947116207366395e-32
  - 1.3798624941658902e-54
  - 9.99642388017408e-07
  - 0.0
  - 1.312181824586863e-21
  - -4.09118876067878e-22
  - 0.0
  - 0.0
  - 0.0
  - 0.011225664788183928
twist:
  twist:
    linear:
      x: -1.2063373922368854e-19
      y: -1.1528276429584621e-17
      z: 0.0
    angular:
      x: 0.0
      y: 0.0
      z: -1.1535517235513772e-34
  covariance:
  - 0.009879316357869
  - -7.770424497390592e-19
  - 0.0
  - 0.0
  - 0.0
  - -2.298138973299283e-21
  - -4.068539784747244e-19
  - 0.056221698323919225
  - 0.0
  - 0.0
  - 0.0
  - 4.360492205463766e-23
  - 0.0
  - 0.0
  - 9.98928695315152e-07
  - -1.1354836278886027e-40
  - 1.1926195791758908e-42
  - 0.0
  - 0.0
  - 0.0
  - -1.135483627888603e-40
  - 9.996423880063173e-07
  - 1.5286166451711283e-65
  - 0.0
  - 0.0
  - 0.0
  - 1.192619579175891e-42
  - 1.5286166451547928e-65
  - 9.996423880063173e-07
  - 0.0
  - -2.2981389732992892e-21
  - 4.360492205463931e-23
  - 0.0
  - 0.0
  - 0.0
  - 0.8559005800013636
---
header:
  stamp:
    sec: 1722525241
    nanosec: 125748904
  frame_id: odom
child_frame_id: base_link
pose:
  pose:
    position:
      x: -0.2968043036290099
      y: 0.030202577988916915
      z: 0.0
    orientation:
      x: 0.0
      y: 0.0
      z: -0.1463084335897996
      w: 0.9892390218043864
  covariance:
  - 0.0001476462634910218
  - 1.832922709703507e-05
  - 0.0
  - 0.0
  - 0.0
  - 1.364635067503276e-21
  - 1.8329227097035066e-05
  - 0.00020271272222165454
  - 0.0
  - 0.0
  - 0.0
  - -4.251718657552344e-22
  - 0.0
  - 0.0
  - 9.164084206519855e-07
  - -3.2091328686937004e-30
  - 3.2483389812434127e-32
  - 0.0
  - 0.0
  - 0.0
  - -3.2091328686937004e-30
  - 9.996683938015699e-07
  - 1.2470577319311371e-54
  - 0.0
  - 0.0
  - 0.0
  - 3.248338981243413e-32
  - 1.2470577319207708e-54
  - 9.996683938015699e-07
  - 0.0
  - 1.3646350675032753e-21
  - -4.251718657552345e-22
  - 0.0
  - 0.0
  - 0.0
  - 0.011560309560735917
twist:
  twist:
    linear:
      x: -1.1622423667715559e-19
      y: -1.1528276429584621e-17
      z: 0.0
    angular:
      x: 0.0
      y: 0.0
      z: -1.1062031950035224e-34
  covariance:
  - 0.00985992270538397
  - -1.38391238572654e-18
  - 0.0
  - 0.0
  - 0.0
  - -1.603384285026726e-21
  - -6.765095162992737e-19
  - 0.05632334736476134
  - 0.0
  - 0.0
  - 0.0
  - 4.227739914443343e-23
  - 0.0
  - 0.0
  - 9.990064984090754e-07
  - -1.0653107176898566e-40
  - 1.0783259111370869e-42
  - 0.0
  - 0.0
  - 0.0
  - -1.0653107176898568e-40
  - 9.996683937904773e-07
  - 1.3820536642481812e-65
  - 0.0
  - 0.0
  - 0.0
  - 1.0783259111370869e-42
  - 1.3820536642366788e-65
  - 9.996683937904773e-07
  - 0.0
  - -1.6033842850267267e-21
  - 4.227739914443254e-23
  - 0.0
  - 0.0
  - 0.0
  - 0.8560017013368001
---
header:
  stamp:
    sec: 1722525241
    nanosec: 182012049
  frame_id: odom
child_frame_id: base_link
pose:
  pose:
    position:
      x: -0.2968043036290099
      y: 0.030202577988916915
      z: 0.0
    orientation:
      x: 0.0
      y: 0.0
      z: -0.1463084335897996
      w: 0.9892390218043864
  covariance:
  - 0.0001452106714970689
  - 1.770630978747355e-05
  - 0.0
  - 0.0
  - 0.0
  - 1.2983198805514936e-21
  - 1.7706309787473553e-05
  - 0.00019840570105406698
  - 0.0
  - 0.0
  - 0.0
  - -4.0385542987603e-22
  - 0.0
  - 0.0
  - 9.101350825349774e-07
  - -3.44950052935943e-30
  - 3.336314190821971e-32
  - 0.0
  - 0.0
  - 0.0
  - -3.44950052935943e-30
  - 9.996390383976094e-07
  - 1.2806576332004625e-54
  - 0.0
  - 0.0
  - 0.0
  - 3.336314190821972e-32
  - 1.2806576331890434e-54
  - 9.996390383976094e-07
  - 0.0
  - 1.2983198805514936e-21
  - -4.0385542987603e-22
  - 0.0
  - 0.0
  - 0.0
  - 0.011138198379027287
twist:
  twist:
    linear:
      x: -1.1108961869050125e-19
      y: -1.1528276429584621e-17
      z: 0.0
    angular:
      x: 0.0
      y: 0.0
      z: -1.0513519181478147e-34
  covariance:
  - 0.009799829844009615
  - -7.811035207401667e-19
  - 0.0
  - 0.0
  - 0.0
  - -1.1352404814082764e-21
  - 1.57738611057933e-19
  - 0.05552664873857642
  - 0.0
  - 0.0
  - 0.0
  - 4.354062367962069e-23
  - 0.0
  - 0.0
  - 9.989186752313562e-07
  - -1.1443739047399542e-40
  - 1.1068245536442792e-42
  - 0.0
  - 0.0
  - 0.0
  - -1.1443739047399544e-40
  - 9.99639038386519e-07
  - 1.4186598537288737e-65
  - 0.0
  - 0.0
  - 0.0
  - 1.106824553644279e-42
  - 1.4186598537161984e-65
  - 9.99639038386519e-07
  - 0.0
  - -1.135240481408276e-21
  - 4.354062367961647e-23
  - 0.0
  - 0.0
  - 0.0
  - 0.855072383901076
---
header:
  stamp:
    sec: 1722525241
    nanosec: 228803366
  frame_id: odom
child_frame_id: base_link
pose:
  pose:
    position:
      x: -0.2968043036290099
      y: 0.030202577988916915
      z: 0.0
    orientation:
      x: 0.0
      y: 0.0
      z: -0.1463084335897996
      w: 0.9892390218043864
  covariance:
  - 0.00014560560361885064
  - 1.8027133232182115e-05
  - 0.0
  - 0.0
  - 0.0
  - 1.334844480490239e-21
  - 1.8027133232182104e-05
  - 0.00019976448238151001
  - 0.0
  - 0.0
  - 0.0
  - -4.148500940074243e-22
  - 0.0
  - 0.0
  - 9.124201967924816e-07
  - -3.361993391494671e-30
  - 3.1321106459416556e-32
  - 0.0
  - 0.0
  - 0.0
  - -3.3619933914946695e-30
  - 9.996497112089151e-07
  - 1.2023476033486775e-54
  - 0.0
  - 0.0
  - 0.0
  - 3.1321106459416545e-32
  - 1.2023476033803801e-54
  - 9.996497112089151e-07
  - 0.0
  - 1.3348444804902385e-21
  - -4.1485009400742427e-22
  - 0.0
  - 0.0
  - 0.0
  - 0.011325970207373064
twist:
  twist:
    linear:
      x: -1.0699296009142045e-19
      y: -1.1528276429584621e-17
      z: 0.0
    angular:
      x: 0.0
      y: 0.0
      z: -1.0078163140500912e-34
  covariance:
  - 0.009793634521748024
  - -5.425012704457725e-19
  - 0.0
  - 0.0
  - 0.0
  - -7.720034103633999e-22
  - 1.2177741919004421e-18
  - 0.055655832929465174
  - 0.0
  - 0.0
  - 0.0
  - 4.299416045377706e-23
  - 0.0
  - 0.0
  - 9.989506029725093e-07
  - -1.1156714040122594e-40
  - 1.039385486748448e-42
  - 0.0
  - 0.0
  - 0.0
  - -1.1156714040122594e-40
  - 9.996497111978238e-07
  - 1.3321949726398984e-65
  - 0.0
  - 0.0
  - 0.0
  - 1.0393854867484482e-42
  - 1.3321949726750499e-65
  - 9.996497111978238e-07
  - 0.0
  - -7.7200341036340065e-22
  - 4.299416045377148e-23
  - 0.0
  - 0.0
  - 0.0
  - 0.855037456982406
---
header:
  stamp:
    sec: 1722525241
    nanosec: 275317852
  frame_id: odom
child_frame_id: base_link
pose:
  pose:
    position:
      x: -0.2968043036290099
      y: 0.030202577988916915
      z: 0.0
    orientation:
      x: 0.0
      y: 0.0
      z: -0.1463084335897996
      w: 0.9892390218043864
  covariance:
  - 0.00014460171459789193
  - 1.7717684551032592e-05
  - 0.0
  - 0.0
  - 0.0
  - 1.3048419575817737e-21
  - 1.77176845510326e-05
  - 0.0001978309173333214
  - 0.0
  - 0.0
  - 0.0
  - -4.0509285903333574e-22
  - 0.0
  - 0.0
  - 9.123758473104417e-07
  - -3.3635385151461844e-30
  - 3.0186765324148376e-32
  - 0.0
  - 0.0
  - 0.0
  - -3.363538515146183e-30
  - 9.996498737200143e-07
  - 1.1587485779246665e-54
  - 0.0
  - 0.0
  - 0.0
  - 3.0186765324148376e-32
  - 1.1587485779052243e-54
  - 9.996498737200143e-07
  - 0.0
  - 1.3048419575817731e-21
  - -4.050928590333358e-22
  - 0.0
  - 0.0
  - 0.0
  - 0.011196402359003862
twist:
  twist:
    linear:
      x: -1.0307014459397408e-19
      y: -1.1528276429584621e-17
      z: 0.0
    angular:
      x: 0.0
      y: 0.0
      z: -9.663235722616788e-35
  covariance:
  - 0.009749424364014199
  - -5.789714322345167e-19
  - 0.0
  - 0.0
  - 0.0
  - -4.833064120194299e-22
  - 1.7024156340273565e-18
  - 0.0553893220960815
  - 0.0
  - 0.0
  - 0.0
  - 4.171367460799361e-23
  - 0.0
  - 0.0
  - 9.989510889956647e-07
  - -1.1159193925224285e-40
  - 1.0015049714640469e-42
  - 0.0
  - 0.0
  - 0.0
  - -1.1159193925224283e-40
  - 9.996498737089233e-07
  - 1.2836373542997028e-65
  - 0.0
  - 0.0
  - 0.0
  - 1.001504971464047e-42
  - 1.283637354278101e-65
  - 9.996498737089233e-07
  - 0.0
  - -4.833064120194309e-22
  - 4.171367460798738e-23
  - 0.0
  - 0.0
  - 0.0
  - 0.8546197312055145
---
header:
  stamp:
    sec: 1722525241
    nanosec: 332059472
  frame_id: odom
child_frame_id: base_link
pose:
  pose:
    position:
      x: -0.2968043036290099
      y: 0.030202577988916915
      z: 0.0
    orientation:
      x: 0.0
      y: 0.0
      z: -0.1463084335897996
      w: 0.9892390218043864
  covariance:
  - 0.00014565816929297423
  - 1.7966123830555165e-05
  - 0.0
  - 0.0
  - 0.0
  - 1.3224110368938786e-21
  - 1.796612383055516e-05
  - 0.0001996337576375988
  - 0.0
  - 0.0
  - 0.0
  - -4.1004109741319193e-22
  - 0.0
  - 0.0
  - 9.086494285858474e-07
  - -3.506604317071166e-30
  - 3.006299910894866e-32
  - 0.0
  - 0.0
  - 0.0
  - -3.506604317071166e-30
  - 9.996315070884639e-07
  - 1.1540054475321925e-54
  - 0.0
  - 0.0
  - 0.0
  - 3.006299910894867e-32
  - 1.1540054475333758e-54
  - 9.996315070884639e-07
  - 0.0
  - 1.3224110368938786e-21
  - -4.100410974131919e-22
  - 0.0
  - 0.0
  - 0.0
  - 0.011190473785855911
twist:
  twist:
    linear:
      x: -9.847869938085108e-20
      y: -1.1528276429584621e-17
      z: 0.0
    angular:
      x: 0.0
      y: 0.0
      z: -9.180098576554916e-35
  covariance:
  - 0.009741670319484108
  - -1.7044430453913555e-18
  - 0.0
  - 0.0
  - 0.0
  - -2.5578865109520286e-22
  - 1.7563021759551736e-18
  - 0.05549197335712087
  - 0.0
  - 0.0
  - 0.0
  - 4.1870516531411154e-23
  - 0.0
  - 0.0
  - 9.988961471568148e-07
  - -1.1634624411826208e-40
  - 9.974658102511312e-43
  - 0.0
  - 0.0
  - 0.0
  - -1.1634624411826206e-40
  - 9.996315070773733e-07
  - 1.2785150638501921e-65
  - 0.0
  - 0.0
  - 0.0
  - 9.974658102511315e-43
  - 1.2785150638515099e-65
  - 9.996315070773733e-07
  - 0.0
  - -2.5578865109520225e-22
  - 4.187051653140446e-23
  - 0.0
  - 0.0
  - 0.0
  - 0.854343236402173
---
header:
  stamp:
    sec: 1722525241
    nanosec: 377149784
  frame_id: odom
child_frame_id: base_link
pose:
  pose:
    position:
      x: -0.2968043036290099
      y: 0.030202577988916915
      z: 0.0
    orientation:
      x: 0.0
      y: 0.0
      z: -0.1463084335897996
      w: 0.9892390218043864
  covariance:
  - 0.00014280741885327374
  - 1.7362212198266927e-05
  - 0.0
  - 0.0
  - 0.0
  - 1.2844851536417428e-21
  - 1.7362212198266927e-05
  - 0.00019496867674084767
  - 0.0
  - 0.0
  - 0.0
  - -3.9797922725587835e-22
  - 0.0
  - 0.0
  - 9.080348760178986e-07
  - -3.5301085830718996e-30
  - 2.918763660570374e-32
  - 0.0
  - 0.0
  - 0.0
  - -3.5301085830718996e-30
  - 9.996286758059083e-07
  - 1.1203762586029911e-54
  - 0.0
  - 0.0
  - 0.0
  - 2.918763660570374e-32
  - 1.1203762585984756e-54
  - 9.996286758059083e-07
  - 0.0
  - 1.2844851536417424e-21
  - -3.9797922725587835e-22
  - 0.0
  - 0.0
  - 0.0
  - 0.011067002496227732
twist:
  twist:
    linear:
      x: -9.497713467885652e-20
      y: -1.1528276429584621e-17
      z: 0.0
    angular:
      x: 0.0
      y: 0.0
      z: -8.813544503000693e-35
  covariance:
  - 0.009666335890822508
  - -1.4797347367386085e-18
  - 0.0
  - 0.0
  - 0.0
  - 4.7343018055532133e-23
  - 1.1673135317089537e-18
  - 0.05515466749447642
  - 0.0
  - 0.0
  - 0.0
  - 3.784818593795575e-23
  - 0.0
  - 0.0
  - 9.988876783028002e-07
  - -1.1711222247117495e-40
  - 9.683072893908127e-43
  - 0.0
  - 0.0
  - 0.0
  - -1.17112222471175e-40
  - 9.99628675794818e-07
  - 1.2411460214401825e-65
  - 0.0
  - 0.0
  - 0.0
  - 9.683072893908127e-43
  - 1.2411460214351794e-65
  - 9.99628675794818e-07
  - 0.0
  - 4.7343018055531663e-23
  - 3.784818593795278e-23
  - 0.0
  - 0.0
  - 0.0
  - 0.853990630476236
---
header:
  stamp:
    sec: 1722525241
    nanosec: 431460917
  frame_id: odom
child_frame_id: base_link
pose:
  pose:
    position:
      x: -0.2968043036290099
      y: 0.030202577988916915
      z: 0.0
    orientation:
      x: 0.0
      y: 0.0
      z: -0.1463084335897996
      w: 0.9892390218043864
  covariance:
  - 0.00014210569810514656
  - 1.744634342127052e-05
  - 0.0
  - 0.0
  - 0.0
  - 1.2873872580897273e-21
  - 1.7446343421270522e-05
  - 0.00019451971125048224
  - 0.0
  - 0.0
  - 0.0
  - -3.984559187722873e-22
  - 0.0
  - 0.0
  - 9.047074086548703e-07
  - -3.6577210148920505e-30
  - 2.8947859898278207e-32
  - 0.0
  - 0.0
  - 0.0
  - -3.657721014892051e-30
  - 9.996122690450379e-07
  - 1.1111379196515704e-54
  - 0.0
  - 0.0
  - 0.0
  - 2.89478598982782e-32
  - 1.1111379196623354e-54
  - 9.996122690450379e-07
  - 0.0
  - 1.2873872580897273e-21
  - -3.9845591877228716e-22
  - 0.0
  - 0.0
  - 0.0
  - 0.011002944445076344
twist:
  twist:
    linear:
      x: -9.092437485203555e-20
      y: -1.1528276429584621e-17
      z: 0.0
    angular:
      x: 0.0
      y: 0.0
      z: -8.391406229341851e-35
  covariance:
  - 0.009639306628295076
  - 4.124248563615343e-19
  - 0.0
  - 0.0
  - 0.0
  - 2.231119503773651e-22
  - 4.439571047181947e-22
  - 0.05509100179197644
  - 0.0
  - 0.0
  - 0.0
  - 3.719091978521116e-23
  - 0.0
  - 0.0
  - 9.988386070078548e-07
  - -1.2133040843176875e-40
  - 9.602308580151034e-43
  - 0.0
  - 0.0
  - 0.0
  - -1.213304084317688e-40
  - 9.996122690339485e-07
  - 1.230836263828684e-65
  - 0.0
  - 0.0
  - 0.0
  - 9.602308580151032e-43
  - 1.2308362638406103e-65
  - 9.996122690339485e-07
  - 0.0
  - 2.2311195037736257e-22
  - 3.7190919785206964e-23
  - 0.0
  - 0.0
  - 0.0
  - 0.8536790153772918
---
header:
  stamp:
    sec: 1722525241
    nanosec: 482833266
  frame_id: odom
child_frame_id: base_link
pose:
  pose:
    position:
      x: -0.2968043036290099
      y: 0.030202577988916915
      z: 0.0
    orientation:
      x: 0.0
      y: 0.0
      z: -0.1463084335897996
      w: 0.9892390218043864
  covariance:
  - 0.00013820141174360182
  - 1.6756258692045944e-05
  - 0.0
  - 0.0
  - 0.0
  - 1.2381866536995883e-21
  - 1.6756258692045955e-05
  - 0.0001885422047765285
  - 0.0
  - 0.0
  - 0.0
  - -3.8290758787296146e-22
  - 0.0
  - 0.0
  - 9.016581972688051e-07
  - -3.7745550667250836e-30
  - 2.866199447289527e-32
  - 0.0
  - 0.0
  - 0.0
  - -3.774555066725085e-30
  - 9.995972939191736e-07
  - 1.1001048566690427e-54
  - 0.0
  - 0.0
  - 0.0
  - 2.8661994472895265e-32
  - 1.1001048566851673e-54
  - 9.995972939191736e-07
  - 0.0
  - 1.2381866536995876e-21
  - -3.8290758787296146e-22
  - 0.0
  - 0.0
  - 0.0
  - 0.010791316721566732
twist:
  twist:
    linear:
      x: -8.725094257642822e-20
      y: -1.1528276429584621e-17
      z: 0.0
    angular:
      x: 0.0
      y: 0.0
      z: -8.010821695198394e-35
  covariance:
  - 0.00955566294865704
  - 2.339228075116073e-18
  - 0.0
  - 0.0
  - 0.0
  - 4.637875971706799e-22
  - 1.9720293953475186e-19
  - 0.05458092529968202
  - 0.0
  - 0.0
  - 0.0
  - 3.3532918834709693e-23
  - 0.0
  - 0.0
  - 9.987938231145832e-07
  - -1.2517456623714141e-40
  - 9.50510363597995e-43
  - 0.0
  - 0.0
  - 0.0
  - -1.2517456623714146e-40
  - 9.995972939080851e-07
  - 1.2184110800602214e-65
  - 0.0
  - 0.0
  - 0.0
  - 9.505103635979951e-43
  - 1.2184110800781042e-65
  - 9.995972939080851e-07
  - 0.0
  - 4.637875971706773e-22
  - 3.3532918834711045e-23
  - 0.0
  - 0.0
  - 0.0
  - 0.8532010082110372
---
header:
  stamp:
    sec: 1722525241
    nanosec: 525499129
  frame_id: odom
child_frame_id: base_link
pose:
  pose:
    position:
      x: -0.2968043036290099
      y: 0.030202577988916915
      z: 0.0
    orientation:
      x: 0.0
      y: 0.0
      z: -0.1463084335897996
      w: 0.9892390218043864
  covariance:
  - 0.00015039672206460097
  - 1.9794182361577377e-05
  - 0.0
  - 0.0
  - 0.0
  - 1.4565579950414876e-21
  - 1.9794182361577388e-05
  - 0.000209864342840424
  - 0.0
  - 0.0
  - 0.0
  - -4.500215077126797e-22
  - 0.0
  - 0.0
  - 9.162781638837575e-07
  - -3.214201950742207e-30
  - 2.3600841140203636e-32
  - 0.0
  - 0.0
  - 0.0
  - -3.2142019507422054e-30
  - 9.99667597924171e-07
  - 9.060703985773637e-55
  - 0.0
  - 0.0
  - 0.0
  - 2.3600841140203642e-32
  - 9.06070398601117e-55
  - 9.99667597924171e-07
  - 0.0
  - 1.4565579950414876e-21
  - -4.500215077126797e-22
  - 0.0
  - 0.0
  - 0.0
  - 0.011774491237245194
twist:
  twist:
    linear:
      x: -8.431071347005856e-20
      y: -1.1528276429584621e-17
      z: 0.0
    angular:
      x: 0.0
      y: 0.0
      z: -7.707610557055136e-35
  covariance:
  - 0.009788506243831806
  - 2.4175910036456516e-18
  - 0.0
  - 0.0
  - 0.0
  - 1.6375150978788629e-22
  - -3.568156790403047e-19
  - 0.05632574228485039
  - 0.0
  - 0.0
  - 0.0
  - 4.118819918780782e-23
  - 0.0
  - 0.0
  - 9.9900411716673e-07
  - -1.0671101424214022e-40
  - 7.835444988942726e-43
  - 0.0
  - 0.0
  - 0.0
  - -1.0671101424214012e-40
  - 9.996675979130778e-07
  - 1.0042460892041027e-65
  - 0.0
  - 0.0
  - 0.0
  - 7.835444988942725e-43
  - 1.0042460892304854e-65
  - 9.996675979130778e-07
  - 0.0
  - 1.6375150978788159e-22
  - 4.1188199187810676e-23
  - 0.0
  - 0.0
  - 0.0
  - 0.8543724213274433
---
header:
  stamp:
    sec: 1722525241
    nanosec: 581715187
  frame_id: odom
child_frame_id: base_link
pose:
  pose:
    position:
      x: -0.2968043036290099
      y: 0.030202577988916915
      z: 0.0
    orientation:
      x: 0.0
      y: 0.0
      z: -0.1463084335897996
      w: 0.9892390218043864
  covariance:
  - 0.00014467766140748646
  - 1.7393281136615494e-05
  - 0.0
  - 0.0
  - 0.0
  - 1.2803135680904415e-21
  - 1.7393281136615494e-05
  - 0.00019693225964172747
  - 0.0
  - 0.0
  - 0.0
  - -3.9518354492968593e-22
  - 0.0
  - 0.0
  - 9.082472015696721e-07
  - -3.5219237789172295e-30
  - 2.470891261268914e-32
  - 0.0
  - 0.0
  - 0.0
  - -3.521923778917229e-30
  - 9.99629818692714e-07
  - 9.484497622556713e-55
  - 0.0
  - 0.0
  - 0.0
  - 2.470891261268914e-32
  - 9.484497622547648e-55
  - 9.99629818692714e-07
  - 0.0
  - 1.2803135680904415e-21
  - -3.951835449296859e-22
  - 0.0
  - 0.0
  - 0.0
  - 0.011048809952924975
twist:
  twist:
    linear:
      x: -8.058917326477938e-20
      y: -1.1528276429584621e-17
      z: 0.0
    angular:
      x: 0.0
      y: 0.0
      z: -7.32575497211267e-35
  covariance:
  - 0.009641831687875939
  - 3.886470741781172e-19
  - 0.0
  - 0.0
  - 0.0
  - 3.9941284535911013e-22
  - -1.952894794872092e-18
  - 0.055111129661614654
  - 0.0
  - 0.0
  - 0.0
  - 3.391320444357419e-23
  - 0.0
  - 0.0
  - 9.988910967819823e-07
  - -1.1683462448787537e-40
  - 8.19681929279005e-43
  - 0.0
  - 0.0
  - 0.0
  - -1.1683462448787533e-40
  - 9.996298186816238e-07
  - 1.0506390123807898e-65
  - 0.0
  - 0.0
  - 0.0
  - 8.196819292790049e-43
  - 1.050639012379785e-65
  - 9.996298186816238e-07
  - 0.0
  - 3.9941284535910054e-22
  - 3.3913204443579405e-23
  - 0.0
  - 0.0
  - 0.0
  - 0.8533153550573916
---
header:
  stamp:
    sec: 1722525241
    nanosec: 629627608
  frame_id: odom
child_frame_id: base_link
pose:
  pose:
    position:
      x: -0.2968043036290099
      y: 0.030202577988916915
      z: 0.0
    orientation:
      x: 0.0
      y: 0.0
      z: -0.1463084335897996
      w: 0.9892390218043864
  covariance:
  - 0.00016461100731423085
  - 2.302982224871394e-05
  - 0.0
  - 0.0
  - 0.0
  - 1.6672075692126179e-21
  - 2.302982224871395e-05
  - 0.00023379945425304108
  - 0.0
  - 0.0
  - 0.0
  - -5.142683523443964e-22
  - 0.0
  - 0.0
  - 9.471400522206477e-07
  - -2.0298004792643293e-30
  - 1.3746627831846812e-32
  - 0.0
  - 0.0
  - 0.0
  - -2.0298004792643293e-30
  - 9.998040664954527e-07
  - 5.278649476698791e-55
  - 0.0
  - 0.0
  - 0.0
  - 1.374662783184681e-32
  - 5.278649476748474e-55
  - 9.998040664954527e-07
  - 0.0
  - 1.6672075692126183e-21
  - -5.142683523443964e-22
  - 0.0
  - 0.0
  - 0.0
  - 0.013373847751139135
twist:
  twist:
    linear:
      x: -7.754342628910315e-20
      y: -1.1528276429584621e-17
      z: 0.0
    angular:
      x: 0.0
      y: 0.0
      z: -7.014829601009736e-35
  covariance:
  - 0.010026173147863575
  - -9.082736203094588e-19
  - 0.0
  - 0.0
  - 0.0
  - 1.6256517582795903e-22
  - -3.3478073372504913e-18
  - 0.05866124131734255
  - 0.0
  - 0.0
  - 0.0
  - 4.0820567282229363e-23
  - 0.0
  - 0.0
  - 9.994126595408517e-07
  - -6.744909791353226e-41
  - 4.567925918120936e-43
  - 0.0
  - 0.0
  - 0.0
  - -6.744909791353226e-41
  - 9.998040664843543e-07
  - 5.852480156974065e-66
  - 0.0
  - 0.0
  - 0.0
  - 4.567925918120937e-43
  - 5.852480157029234e-66
  - 9.998040664843543e-07
  - 0.0
  - 1.625651758279516e-22
  - 4.082056728223702e-23
  - 0.0
  - 0.0
  - 0.0
  - 0.8563241317981668
---
header:
  stamp:
    sec: 1722525241
    nanosec: 677661645
  frame_id: odom
child_frame_id: base_link
pose:
  pose:
    position:
      x: -0.2968043036290099
      y: 0.030202577988916915
      z: 0.0
    orientation:
      x: 0.0
      y: 0.0
      z: -0.1463084335897996
      w: 0.9892390218043864
  covariance:
  - 0.00016327876347229883
  - 1.9903385904918138e-05
  - 0.0
  - 0.0
  - 0.0
  - 1.4343787544725842e-21
  - 1.990338590491813e-05
  - 0.00022307446422556858
  - 0.0
  - 0.0
  - 0.0
  - -4.417537361172955e-22
  - 0.0
  - 0.0
  - 9.068107955991161e-07
  - -3.577243080977822e-30
  - 2.3231692606502946e-32
  - 0.0
  - 0.0
  - 0.0
  - -3.577243080977822e-30
  - 9.996221499967133e-07
  - 8.917923808855941e-55
  - 0.0
  - 0.0
  - 0.0
  - 2.3231692606502944e-32
  - 8.917923808941544e-55
  - 9.996221499967133e-07
  - 0.0
  - 1.4343787544725834e-21
  - -4.4175373611729565e-22
  - 0.0
  - 0.0
  - 0.0
  - 0.011479570266101432
twist:
  twist:
    linear:
      x: -7.460526447563565e-20
      y: -1.1528276429584621e-17
      z: 0.0
    angular:
      x: 0.0
      y: 0.0
      z: -6.716335291692811e-35
  covariance:
  - 0.009934579295223036
  - -1.5148086655891086e-18
  - 0.0
  - 0.0
  - 0.0
  - -1.2594947596326543e-22
  - -1.9857383660393418e-18
  - 0.0570225493462783
  - 0.0
  - 0.0
  - 0.0
  - 4.199417461501677e-23
  - 0.0
  - 0.0
  - 9.988681595638507e-07
  - -1.1870224039172236e-40
  - 7.708882449195777e-43
  - 0.0
  - 0.0
  - 0.0
  - -1.1870224039172223e-40
  - 9.996221499856227e-07
  - 9.881190503975162e-66
  - 0.0
  - 0.0
  - 0.0
  - 7.708882449195773e-43
  - 9.881190504070141e-66
  - 9.996221499856227e-07
  - 0.0
  - -1.2594947596326802e-22
  - 4.1994174615017886e-23
  - 0.0
  - 0.0
  - 0.0
  - 0.8538986989545123
---
header:
  stamp:
    sec: 1722525241
    nanosec: 728635747
  frame_id: odom
child_frame_id: base_link
pose:
  pose:
    position:
      x: -0.2968043036290099
      y: 0.030202577988916915
      z: 0.0
    orientation:
      x: 0.0
      y: 0.0
      z: -0.1463084335897996
      w: 0.9892390218043864
  covariance:
  - 0.00015820078823309077
  - 1.9604274205373797e-05
  - 0.0
  - 0.0
  - 0.0
  - 1.4692754661683781e-21
  - 1.960427420537379e-05
  - 0.00021709786833140268
  - 0.0
  - 0.0
  - 0.0
  - -4.525327598375524e-22
  - 0.0
  - 0.0
  - 9.270837931595931e-07
  - -2.799522272925964e-30
  - 1.7472436002402586e-32
  - 0.0
  - 0.0
  - 0.0
  - -2.7995222729259646e-30
  - 9.997176719167632e-07
  - 6.708313623554738e-55
  - 0.0
  - 0.0
  - 0.0
  - 1.7472436002402597e-32
  - 6.708313623477435e-55
  - 9.997176719167632e-07
  - 0.0
  - 1.4692754661683785e-21
  - -4.525327598375526e-22
  - 0.0
  - 0.0
  - 0.0
  - 0.0121261997284893
twist:
  twist:
    linear:
      x: -7.161195395645332e-20
      y: -1.1528276429584621e-17
      z: 0.0
    angular:
      x: 0.0
      y: 0.0
      z: -6.413793745254439e-35
  covariance:
  - 0.009844505464490878
  - -2.0317616726301117e-18
  - 0.0
  - 0.0
  - 0.0
  - 6.357148572018855e-22
  - -8.33870577032357e-19
  - 0.05754847383797661
  - 0.0
  - 0.0
  - 0.0
  - 3.1156189487511565e-23
  - 0.0
  - 0.0
  - 9.991539705886608e-07
  - -9.296354818498825e-41
  - 5.802061342542888e-43
  - 0.0
  - 0.0
  - 0.0
  - -9.296354818498831e-41
  - 9.997176719056681e-07
  - 7.435455227719707e-66
  - 0.0
  - 0.0
  - 0.0
  - 5.80206134254289e-43
  - 7.435455227633942e-66
  - 9.997176719056681e-07
  - 0.0
  - 6.35714857201881e-22
  - 3.1156189487505546e-23
  - 0.0
  - 0.0
  - 0.0
  - 0.8547555512903886
---
header:
  stamp:
    sec: 1722525241
    nanosec: 781075042
  frame_id: odom
child_frame_id: base_link
pose:
  pose:
    position:
      x: -0.2968043036290099
      y: 0.030202577988916915
      z: 0.0
    orientation:
      x: 0.0
      y: 0.0
      z: -0.1463084335897996
      w: 0.9892390218043864
  covariance:
  - 0.00014271717160331323
  - 1.6758934670294867e-05
  - 0.0
  - 0.0
  - 0.0
  - 1.2434576382743175e-21
  - 1.6758934670294867e-05
  - 0.00019306600407211077
  - 0.0
  - 0.0
  - 0.0
  - -3.8270415995160286e-22
  - 0.0
  - 0.0
  - 9.04141288900591e-07
  - -3.679407997141563e-30
  - 2.198846343871532e-32
  - 0.0
  - 0.0
  - 0.0
  - -3.6794079971415624e-30
  - 9.996095241391755e-07
  - 8.439977961975025e-55
  - 0.0
  - 0.0
  - 0.0
  - 2.1988463438715317e-32
  - 8.439977962057593e-55
  - 9.996095241391755e-07
  - 0.0
  - 1.243457638274318e-21
  - -3.8270415995160286e-22
  - 0.0
  - 0.0
  - 0.0
  - 0.010886640918708489
twist:
  twist:
    linear:
      x: -6.865967243953847e-20
      y: -1.1528276429584621e-17
      z: 0.0
    angular:
      x: 0.0
      y: 0.0
      z: -6.116973469016861e-35
  covariance:
  - 0.009575237768542185
  - -1.702019727620256e-18
  - 0.0
  - 0.0
  - 0.0
  - 1.158965047821954e-21
  - -1.7950485201536222e-18
  - 0.055468655245531566
  - 0.0
  - 0.0
  - 0.0
  - 2.4467234790450706e-23
  - 0.0
  - 0.0
  - 9.9883039781801e-07
  - -1.2204316996953007e-40
  - 7.293408332176184e-43
  - 0.0
  - 0.0
  - 0.0
  - -1.220431699695301e-40
  - 9.996095241280864e-07
  - 9.348832090229102e-66
  - 0.0
  - 0.0
  - 0.0
  - 7.293408332176185e-43
  - 9.34883209032066e-66
  - 9.996095241280864e-07
  - 0.0
  - 1.1589650478219562e-21
  - 2.4467234790450036e-23
  - 0.0
  - 0.0
  - 0.0
  - 0.853025862143526
---
header:
  stamp:
    sec: 1722525241
    nanosec: 830789932
  frame_id: odom
child_frame_id: base_link
pose:
  pose:
    position:
      x: -0.2968043036290099
      y: 0.030202577988916915
      z: 0.0
    orientation:
      x: 0.0
      y: 0.0
      z: -0.1463084335897996
      w: 0.9892390218043864
  covariance:
  - 0.00014950549762049567
  - 1.942841448563086e-05
  - 0.0
  - 0.0
  - 0.0
  - 1.432269232359758e-21
  - 1.9428414485630853e-05
  - 0.00020787424272964862
  - 0.0
  - 0.0
  - 0.0
  - -4.405129751853299e-22
  - 0.0
  - 0.0
  - 9.176852712510725e-07
  - -3.160258944657419e-30
  - 1.815882998479174e-32
  - 0.0
  - 0.0
  - 0.0
  - -3.160258944657419e-30
  - 9.996741438292324e-07
  - 6.97160900762645e-55
  - 0.0
  - 0.0
  - 0.0
  - 1.8158829984791743e-32
  - 6.971609007570221e-55
  - 9.996741438292324e-07
  - 0.0
  - 1.4322692323597581e-21
  - -4.4051297518532985e-22
  - 0.0
  - 0.0
  - 0.0
  - 0.011775423800960201
twist:
  twist:
    linear:
      x: -6.59719389217804e-20
      y: -1.1528276429584621e-17
      z: 0.0
    angular:
      x: 0.0
      y: 0.0
      z: -5.848122192240263e-35
  covariance:
  - 0.009750348579696196
  - -1.8913477118583706e-18
  - 0.0
  - 0.0
  - 0.0
  - 1.0147647047140945e-21
  - -1.931176180260861e-18
  - 0.05663774616181811
  - 0.0
  - 0.0
  - 0.0
  - 2.895789964121119e-23
  - 0.0
  - 0.0
  - 9.990237033410843e-07
  - -1.0493201085475556e-40
  - 6.029388712058552e-43
  - 0.0
  - 0.0
  - 0.0
  - -1.0493201085475558e-40
  - 9.99674143818139e-07
  - 7.727586731398601e-66
  - 0.0
  - 0.0
  - 0.0
  - 6.029388712058553e-43
  - 7.727586731336397e-66
  - 9.99674143818139e-07
  - 0.0
  - 1.014764704714099e-21
  - 2.895789964121323e-23
  - 0.0
  - 0.0
  - 0.0
  - 0.8540877303556426
---
header:
  stamp:
    sec: 1722525241
    nanosec: 881977937
  frame_id: odom
child_frame_id: base_link
pose:
  pose:
    position:
      x: -0.2968043036290099
      y: 0.030202577988916915
      z: 0.0
    orientation:
      x: 0.0
      y: 0.0
      z: -0.1463084335897996
      w: 0.9892390218043864
  covariance:
  - 0.00015174149755093903
  - 1.9257969809933378e-05
  - 0.0
  - 0.0
  - 0.0
  - 1.4004328250036225e-21
  - 1.925796980993338e-05
  - 0.0002095981760764624
  - 0.0
  - 0.0
  - 0.0
  - -4.303467378298271e-22
  - 0.0
  - 0.0
  - 9.222364750706846e-07
  - -2.9853692510676665e-30
  - 1.6467818855587564e-32
  - 0.0
  - 0.0
  - 0.0
  - -2.9853692510676676e-30
  - 9.996959148467434e-07
  - 6.322054681918094e-55
  - 0.0
  - 0.0
  - 0.0
  - 1.6467818855587572e-32
  - 6.322054681855731e-55
  - 9.996959148467434e-07
  - 0.0
  - 1.4004328250036225e-21
  - -4.303467378298271e-22
  - 0.0
  - 0.0
  - 0.0
  - 0.011704339873318769
twist:
  twist:
    linear:
      x: -6.331399932347477e-20
      y: -1.1528276429584621e-17
      z: 0.0
    angular:
      x: 0.0
      y: 0.0
      z: -5.583594737641065e-35
  covariance:
  - 0.009796443573452648
  - -1.1284191398972638e-18
  - 0.0
  - 0.0
  - 0.0
  - 8.190853569386115e-22
  - -2.8385725354323986e-18
  - 0.05633498928636575
  - 0.0
  - 0.0
  - 0.0
  - 2.9619232441454047e-23
  - 0.0
  - 0.0
  - 9.990888520019125e-07
  - -9.909483071818207e-41
  - 5.4662454358497645e-43
  - 0.0
  - 0.0
  - 0.0
  - -9.909483071818213e-41
  - 9.996959148356502e-07
  - 7.005434195098726e-66
  - 0.0
  - 0.0
  - 0.0
  - 5.466245435849766e-43
  - 7.005434195029816e-66
  - 9.996959148356502e-07
  - 0.0
  - 8.190853569386128e-22
  - 2.9619232441461323e-23
  - 0.0
  - 0.0
  - 0.0
  - 0.8539497360493099
---
header:
  stamp:
    sec: 1722525241
    nanosec: 928899763
  frame_id: odom
child_frame_id: base_link
pose:
  pose:
    position:
      x: -0.2968043036290099
      y: 0.030202577988916915
      z: 0.0
    orientation:
      x: 0.0
      y: 0.0
      z: -0.1463084335897996
      w: 0.9892390218043864
  covariance:
  - 0.00015994215476688366
  - 2.041685043134226e-05
  - 0.0
  - 0.0
  - 0.0
  - 1.4921821921264187e-21
  - 2.041685043134226e-05
  - 0.00022128045592574014
  - 0.0
  - 0.0
  - 0.0
  - -4.581951595552398e-22
  - 0.0
  - 0.0
  - 9.182116976552519e-07
  - -3.1400095463318183e-30
  - 1.6675209961178309e-32
  - 0.0
  - 0.0
  - 0.0
  - -3.1400095463318183e-30
  - 9.996767393707613e-07
  - 6.401933069991475e-55
  - 0.0
  - 0.0
  - 0.0
  - 1.667520996117831e-32
  - 6.4019330700415556e-55
  - 9.996767393707613e-07
  - 0.0
  - 1.4921821921264196e-21
  - -4.5819515955524e-22
  - 0.0
  - 0.0
  - 0.0
  - 0.01190936555413097
twist:
  twist:
    linear:
      x: -6.097040260773284e-20
      y: -1.1528276429584621e-17
      z: 0.0
    angular:
      x: 0.0
      y: 0.0
      z: -5.351487519877876e-35
  covariance:
  - 0.009937855897999462
  - -1.5556361321522605e-18
  - 0.0
  - 0.0
  - 0.0
  - 4.972923034215935e-22
  - -3.523724855832814e-18
  - 0.05713993703828128
  - 0.0
  - 0.0
  - 0.0
  - 3.27255977158881e-23
  - 0.0
  - 0.0
  - 9.99031469752576e-07
  - -1.0425268988170376e-40
  - 5.536403159339094e-43
  - 0.0
  - 0.0
  - 0.0
  - -1.0425268988170371e-40
  - 9.99676739359668e-07
  - 7.095698468182763e-66
  - 0.0
  - 0.0
  - 0.0
  - 5.536403159339093e-43
  - 7.095698468238184e-66
  - 9.99676739359668e-07
  - 0.0
  - 4.97292303421598e-22
  - 3.2725597715894024e-23
  - 0.0
  - 0.0
  - 0.0
  - 0.8542102669837481
---
header:
  stamp:
    sec: 1722525241
    nanosec: 973125703
  frame_id: odom
child_frame_id: base_link
pose:
  pose:
    position:
      x: -0.2968043036290099
      y: 0.030202577988916915
      z: 0.0
    orientation:
      x: 0.0
      y: 0.0
      z: -0.1463084335897996
      w: 0.9892390218043864
  covariance:
  - 0.00018329530347889532
  - 2.6263565801153958e-05
  - 0.0
  - 0.0
  - 0.0
  - 1.8707140142676565e-21
  - 2.626356580115396e-05
  - 0.0002621988794263201
  - 0.0
  - 0.0
  - 0.0
  - -5.741385410269002e-22
  - 0.0
  - 0.0
  - 9.53988421287029e-07
  - -1.767059187621572e-30
  - 9.090561647185548e-33
  - 0.0
  - 0.0
  - 0.0
  - -1.7670591876215724e-30
  - 9.998317387642292e-07
  - 3.491199744630286e-55
  - 0.0
  - 0.0
  - 0.0
  - 9.090561647185548e-33
  - 3.4911997446445265e-55
  - 9.998317387642292e-07
  - 0.0
  - 1.870714014267657e-21
  - -5.741385410269001e-22
  - 0.0
  - 0.0
  - 0.0
  - 0.014279313810760391
twist:
  twist:
    linear:
      x: -5.883782269607056e-20
      y: -1.1528276429584621e-17
      z: 0.0
    angular:
      x: 0.0
      y: 0.0
      z: -5.141211718203163e-35
  covariance:
  - 0.010362394631216755
  - -1.9053720580591685e-18
  - 0.0
  - 0.0
  - 0.0
  - 1.1111385147800404e-22
  - -2.7749308626273626e-18
  - 0.06070918355532206
  - 0.0
  - 0.0
  - 0.0
  - 3.7855939458742394e-23
  - 0.0
  - 0.0
  - 9.994955556838866e-07
  - -5.87571774057583e-41
  - 3.022738748007082e-43
  - 0.0
  - 0.0
  - 0.0
  - -5.87571774057583e-41
  - 9.998317387531284e-07
  - 3.8723784514464255e-66
  - 0.0
  - 0.0
  - 0.0
  - 3.0227387480070825e-43
  - 3.872378451462316e-66
  - 9.998317387531284e-07
  - 0.0
  - 1.111138514780133e-22
  - 3.785593945875303e-23
  - 0.0
  - 0.0
  - 0.0
  - 0.8573869811705112
---
header:
  stamp:
    sec: 1722525242
    nanosec: 27553668
  frame_id: odom
child_frame_id: base_link
pose:
  pose:
    position:
      x: -0.2968043036290099
      y: 0.030202577988916915
      z: 0.0
    orientation:
      x: 0.0
      y: 0.0
      z: -0.1463084335897996
      w: 0.9892390218043864
  covariance:
  - 0.0001626350822501992
  - 1.8773021680202045e-05
  - 0.0
  - 0.0
  - 0.0
  - 1.39257655347057e-21
  - 1.877302168020205e-05
  - 0.0002190348321212312
  - 0.0
  - 0.0
  - 0.0
  - -4.270970468505234e-22
  - 0.0
  - 0.0
  - 9.160341449039293e-07
  - -3.2234619803912236e-30
  - 1.5810724183663067e-32
  - 0.0
  - 0.0
  - 0.0
  - -3.223461980391225e-30
  - 9.996666921273633e-07
  - 6.06976180732741e-55
  - 0.0
  - 0.0
  - 0.0
  - 1.581072418366307e-32
  - 6.0697618072946115e-55
  - 9.996666921273633e-07
  - 0.0
  - 1.3925765534705696e-21
  - -4.270970468505233e-22
  - 0.0
  - 0.0
  - 0.0
  - 0.011627540573621208
twist:
  twist:
    linear:
      x: -5.631976046920668e-20
      y: -1.1528276429584621e-17
      z: 0.0
    angular:
      x: 0.0
      y: 0.0
      z: -4.894215638589776e-35
  covariance:
  - 0.009917324697555536
  - -1.3890123730380871e-18
  - 0.0
  - 0.0
  - 0.0
  - 6.221612964353758e-22
  - -2.2029453819730466e-18
  - 0.057324526375572296
  - 0.0
  - 0.0
  - 0.0
  - 2.650842429659622e-23
  - 0.0
  - 0.0
  - 9.990014069025105e-07
  - -1.0700041044511688e-40
  - 5.248252902057037e-43
  - 0.0
  - 0.0
  - 0.0
  - -1.0700041044511694e-40
  - 9.996666921162708e-07
  - 6.726527486238231e-66
  - 0.0
  - 0.0
  - 0.0
  - 5.248252902057038e-43
  - 6.726527486201765e-66
  - 9.996666921162708e-07
  - 0.0
  - 6.221612964353792e-22
  - 2.650842429660609e-23
  - 0.0
  - 0.0
  - 0.0
  - 0.854067151959572
---
header:
  stamp:
    sec: 1722525242
    nanosec: 75254098
  frame_id: odom
child_frame_id: base_link
pose:
  pose:
    position:
      x: -0.2968043036290099
      y: 0.030202577988916915
      z: 0.0
    orientation:
      x: 0.0
      y: 0.0
      z: -0.1463084335897996
      w: 0.9892390218043864
  covariance:
  - 0.0001510179224541308
  - 1.7721239066155976e-05
  - 0.0
  - 0.0
  - 0.0
  - 1.3326371619483885e-21
  - 1.7721239066155973e-05
  - 0.00020425780401193028
  - 0.0
  - 0.0
  - 0.0
  - -4.0864878347688047e-22
  - 0.0
  - 0.0
  - 9.157247355485413e-07
  - -3.235172943977085e-30
  - 1.5271650305815838e-32
  - 0.0
  - 0.0
  - 0.0
  - -3.2351729439770856e-30
  - 9.99665597639148e-07
  - 5.862507405078834e-55
  - 0.0
  - 0.0
  - 0.0
  - 1.527165030581584e-32
  - 5.862507405014982e-55
  - 9.99665597639148e-07
  - 0.0
  - 1.3326371619483879e-21
  - -4.0864878347688047e-22
  - 0.0
  - 0.0
  - 0.0
  - 0.011413916109206676
twist:
  twist:
    linear:
      x: -5.420306513535104e-20
      y: -1.1528276429584621e-17
      z: 0.0
    angular:
      x: 0.0
      y: 0.0
      z: -4.687674608164148e-35
  covariance:
  - 0.009730527557368472
  - -5.893329850738591e-19
  - 0.0
  - 0.0
  - 0.0
  - 1.3052570617976317e-21
  - -6.066043408235457e-19
  - 0.056772155356911866
  - 0.0
  - 0.0
  - 0.0
  - 2.0235361824390398e-23
  - 0.0
  - 0.0
  - 9.989981320418749e-07
  - -1.0736123446996162e-40
  - 5.067993761526837e-43
  - 0.0
  - 0.0
  - 0.0
  - -1.0736123446996156e-40
  - 9.996655976280563e-07
  - 6.495483530309027e-66
  - 0.0
  - 0.0
  - 0.0
  - 5.067993761526837e-43
  - 6.495483530238308e-66
  - 9.996655976280563e-07
  - 0.0
  - 1.3052570617976309e-21
  - 2.0235361824390633e-23
  - 0.0
  - 0.0
  - 0.0
  - 0.8537539990650511
---
header:
  stamp:
    sec: 1722525242
    nanosec: 131484612
  frame_id: odom
child_frame_id: base_link
pose:
  pose:
    position:
      x: -0.2968043036290099
      y: 0.030202577988916915
      z: 0.0
    orientation:
      x: 0.0
      y: 0.0
      z: -0.1463084335897996
      w: 0.9892390218043864
  covariance:
  - 0.00014609740377727389
  - 1.7897361934473648e-05
  - 0.0
  - 0.0
  - 0.0
  - 1.3178510881382503e-21
  - 1.7897361934473645e-05
  - 0.00019986641090094634
  - 0.0
  - 0.0
  - 0.0
  - -4.038378784433972e-22
  - 0.0
  - 0.0
  - 9.050796378045339e-07
  - -3.643569226662076e-30
  - 1.6431255045805195e-32
  - 0.0
  - 0.0
  - 0.0
  - -3.643569226662076e-30
  - 9.996137755326323e-07
  - 6.307226634335261e-55
  - 0.0
  - 0.0
  - 0.0
  - 1.6431255045805195e-32
  - 6.3072266344562984e-55
  - 9.996137755326323e-07
  - 0.0
  - 1.31785108813825e-21
  - -4.038378784433971e-22
  - 0.0
  - 0.0
  - 0.0
  - 0.011136184298391423
twist:
  twist:
    linear:
      x: -5.180997596355853e-20
      y: -1.1528276429584621e-17
      z: 0.0
    angular:
      x: 0.0
      y: 0.0
      z: -4.455384948929128e-35
  covariance:
  - 0.009689995347784234
  - -4.792248541774568e-19
  - 0.0
  - 0.0
  - 0.0
  - 1.3744447872134579e-21
  - 4.655704038272704e-19
  - 0.05605048487728763
  - 0.0
  - 0.0
  - 0.0
  - 2.0888590600851578e-23
  - 0.0
  - 0.0
  - 9.98843112655522e-07
  - -1.208835157274683e-40
  - 5.4514358301267965e-43
  - 0.0
  - 0.0
  - 0.0
  - -1.208835157274683e-40
  - 9.996137755215426e-07
  - 6.987721632391098e-66
  - 0.0
  - 0.0
  - 0.0
  - 5.451435830126795e-43
  - 6.987721632525374e-66
  - 9.996137755215426e-07
  - 0.0
  - 1.3744447872134486e-21
  - 2.088859060084783e-23
  - 0.0
  - 0.0
  - 0.0
  - 0.8532684282530034
---
header:
  stamp:
    sec: 1722525242
    nanosec: 179637180
  frame_id: odom
child_frame_id: base_link
pose:
  pose:
    position:
      x: -0.2968043036290099
      y: 0.030202577988916915
      z: 0.0
    orientation:
      x: 0.0
      y: 0.0
      z: -0.1463084335897996
      w: 0.9892390218043864
  covariance:
  - 0.0001463423916114258
  - 1.8208714518536198e-05
  - 0.0
  - 0.0
  - 0.0
  - 1.333980893118979e-21
  - 1.82087145185362e-05
  - 0.00020104679465387826
  - 0.0
  - 0.0
  - 0.0
  - -4.0857695815854574e-22
  - 0.0
  - 0.0
