header:
  stamp:
    sec: 1722533203
    nanosec: 399972901
  frame_id: map
child_frame_id: base_link
pose:
  pose:
    position:
      x: 0.0458528866989158
      y: 0.0911631332340259
      z: -2.1033982995404564e-07
    orientation:
      x: -1.5813639812495528e-12
      y: 3.1224615633593507e-10
      z: -0.0008634227496080833
      w: 0.9999996272505083
  covariance:
  - -1.1657707093127252e-05
  - 7.291923545751153e-05
  - 4.638434730982989e-06
  - 3.004089392770884e-21
  - 3.543924750630917e-19
  - -6.562586639825573e-10
  - 7.291923545751155e-05
  - -0.00013259927757741912
  - -9.81300331905927e-06
  - -6.3526955372135594e-21
  - -6.004448233195773e-19
  - 1.0970579238614484e-09
  - 4.638434730982989e-06
  - -9.813003319059268e-06
  - 4.976094056537994e-07
  - 3.033346172208597e-22
  - -4.046384253062213e-20
  - 8.259910963149773e-11
  - 3.004089392770883e-21
  - -6.352695537213557e-21
  - 3.0333461722085954e-22
  - 1.3558991872758919e-08
  - -1.965761299832414e-17
  - -1.7554844986199868e-13
  - 3.543924750630925e-19
  - -6.004448233195783e-19
  - -4.046384253062222e-20
  - -1.9657612997950605e-17
  - 1.3558953295923911e-08
  - -7.552416495171375e-09
  - -6.56258663982557e-10
  - 1.0970579238614476e-09
  - 8.259910963149769e-11
  - -1.755484498619966e-13
  - -7.55241649517136e-09
  - 14.70678335316566
twist:
  twist:
    linear:
      x: -4.2849949463096154e-07
      y: -2.463604466101576e-07
      z: -1.2356147995514368e-16
    angular:
      x: 1.233639133826597e-17
      y: -2.2874979295936568e-07
      z: -0.0057440979474853715
  covariance:
  - 0.006218505867880216
  - 1.3230560222099868e-11
  - 7.644438507864216e-19
  - 6.300467043503956e-29
  - -1.753376708267451e-21
  - 5.489118261841467e-21
  - 1.3230560222099815e-11
  - 0.006218505845741742
  - -1.6103698844583814e-18
  - -4.963749912991794e-28
  - -1.0844619785127097e-20
  - 3.3960958625132905e-20
  - 7.644438507864217e-19
  - -1.6103698844583816e-18
  - 4.997647725209614e-07
  - 1.0387505812966399e-32
  - -4.076532067438125e-30
  - 1.2844396392087915e-29
  - 6.300467043503958e-29
  - -4.963749912991828e-28
  - 1.0387505812966398e-32
  - 4.999215170476655e-07
  - 2.4067857671083476e-23
  - -7.535561093118789e-23
  - -1.7533767082674525e-21
  - -1.0844619785127094e-20
  - -4.0765320674381276e-30
  - 2.406785767108348e-23
  - 4.998854535436506e-07
  - -9.241480102635772e-07
  - 5.489118261841468e-21
  - 3.39609586251329e-20
  - 1.2844396392087915e-29
  - -7.535561093118787e-23
  - -9.24148010263577e-07
  - 2.893463981324628e-06
---
header:
  stamp:
    sec: 1722533203
    nanosec: 498267768
  frame_id: map
child_frame_id: base_link
pose:
  pose:
    position:
      x: 0.045852684672069564
      y: 0.09116310550729567
      z: -2.1033982983995467e-07
    orientation:
      x: -1.4550351765099161e-11
      y: -1.0930212119946416e-08
      z: -0.0011457302781132117
      w: 0.9999993436508494
  covariance:
  - 0.04920963155677272
  - 7.292712339160046e-05
  - 4.638685556238212e-06
  - 1.161163949732884e-19
  - -2.4336412904546994e-16
  - 4.067689927594868e-07
  - 7.292712339160047e-05
  - 0.049088676902682316
  - -9.813534132945644e-06
  - -8.315156400178816e-19
  - 1.7750082403609555e-15
  - -2.967447058008875e-06
  - 4.638685556238211e-06
  - -9.813534132945641e-06
  - 0.07863639604974058
  - -3.822266783113251e-16
  - 2.738395414829693e-15
  - 8.25975843658046e-11
  - 1.161163949732886e-19
  - -8.315156400178829e-19
  - -3.82226678311325e-16
  - 1.838949694683627e-08
  - -4.2774790977008006e-18
  - 4.0885457235127805e-12
  - -2.4336412904547034e-16
  - 1.7750082403609586e-15
  - 2.7383954148296925e-15
  - -4.277479096121192e-18
  - 1.838911033484786e-08
  - -1.7722183762077813e-08
  - 4.067689927594868e-07
  - -2.967447058008875e-06
  - 8.259758436580455e-11
  - 4.088545723512774e-12
  - -1.7722183762077793e-08
  - 14.755930822389638
twist:
  twist:
    linear:
      x: -3.6811487794047274e-06
      y: -3.2489131389332287e-07
      z: -1.2358295636869454e-16
    angular:
      x: 1.233639133826597e-17
      y: -2.2874979295936568e-07
      z: -0.0057440979474853715
  covariance:
  - 0.060122441139044726
  - 3.874725895525157e-10
  - 2.245452980183043e-18
  - 6.866910073253746e-28
  - -5.180356437917304e-21
  - 1.6213532531316863e-20
  - 3.874725895525113e-10
  - 0.060122440477653194
  - -4.729836891019713e-18
  - -4.758352575238498e-27
  - -3.1828917591023654e-20
  - 9.97156593337736e-20
  - 2.2454529801830425e-18
  - -4.729836891019713e-18
  - 0.009829991294954822
  - 1.0389310151911873e-32
  - -4.077240622356217e-30
  - 1.2846628908282723e-29
  - 6.866910073253748e-28
  - -4.7583525752385296e-27
  - 1.0389310151911872e-32
  - 0.02948896002151705
  - 2.4067857671083476e-23
  - -7.535561093118789e-23
  - -5.180356437917307e-21
  - -3.182891759102366e-20
  - -4.07724062235622e-30
  - 2.406785767108348e-23
  - 0.029488959985453547
  - -9.241480102635772e-07
  - 1.6213532531316863e-20
  - 9.971565933377364e-20
  - 1.2846628908282723e-29
  - -7.535561093118787e-23
  - -9.24148010263577e-07
  - 0.09731481179398134
---
header:
  stamp:
    sec: 1722533203
    nanosec: 527937938
  frame_id: map
child_frame_id: base_link
pose:
  pose:
    position:
      x: 0.044875822761013304
      y: 0.09138489853145447
      z: 6.201678230260601e-12
    orientation:
      x: -1.6038457229183063e-11
      y: -1.2727407937551488e-08
      z: -0.0011864226804860697
      w: 0.9999992962003639
  covariance:
  - 0.013505362981130203
  - 7.449570586365305e-05
  - 2.178594234896414e-10
  - -4.520428708040732e-20
  - 7.91950666040688e-17
  - -7.347258561576949e-08
  - 7.449570586365303e-05
  - 0.013385795888345719
  - -4.533773375429847e-10
  - -1.3862726706466603e-19
  - 5.72457748052166e-16
  - -5.090499172280371e-07
  - 2.178594234896415e-10
  - -4.5337733754298477e-10
  - 9.99953766808559e-07
  - 4.0028877695546194e-21
  - 3.067996888031723e-20
  - 2.9472259388600016e-14
  - -4.520428708040737e-20
  - -1.3862726706466634e-19
  - 4.002887769554619e-21
  - 1.9268828886405643e-08
  - 4.582172087495798e-17
  - 5.188194157230627e-12
  - 7.919506660406885e-17
  - 5.724577480521664e-16
  - 3.0679968880317226e-20
  - 4.5821720875853265e-17
  - 1.9268431976250744e-08
  - -1.711671526630532e-08
  - -7.347258561576952e-08
  - -5.090499172280371e-07
  - 2.9472259388600016e-14
  - 5.18819415723062e-12
  - -1.711671526630531e-08
  - 14.770765920061928
twist:
  twist:
    linear:
      x: -1.3390994471839466e-07
      y: 1.6424384747271477e-08
      z: -3.035062881948945e-17
    angular:
      x: 3.130138945241608e-18
      y: -1.2377035028357446e-11
      z: -0.001449425793509008
  covariance:
  - 0.0009382858635151915
  - 9.223118233669413e-13
  - -8.57583384900945e-20
  - 4.914932712923916e-29
  - -6.487909365362529e-26
  - 5.208958715350329e-22
  - 9.223118233669403e-13
  - 0.0009382858620163951
  - 1.7765509936041486e-19
  - -3.874365560010478e-28
  - 5.661458954687366e-25
  - -4.544617916178568e-21
  - -8.57583384900945e-20
  - 1.776550993604148e-19
  - 9.99630313558306e-07
  - 3.2285809944396456e-32
  - 2.4720987970163485e-31
  - -1.9842251807692506e-27
  - 4.9149327129239156e-29
  - -3.87436556001048e-28
  - 3.2285809944396456e-32
  - 9.998767257314675e-07
  - -1.1477015846500916e-25
  - 1.5216627915188103e-21
  - -6.487909365362526e-26
  - 5.661458954687372e-25
  - 2.4720987970163477e-31
  - -1.1477015846500666e-25
  - 9.99876725730673e-07
  - -6.094457880368273e-11
  - 5.208958715350327e-22
  - -4.544617916178572e-21
  - -1.9842251807692506e-27
  - 1.5216627915187896e-21
  - -6.094457880368276e-11
  - 0.014145864645192806
---
header:
  stamp:
    sec: 1722533203
    nanosec: 590983404
  frame_id: map
child_frame_id: base_link
pose:
  pose:
    position:
      x: 0.044875799601055005
      y: 0.09138490119518661
      z: -1.2900915447535884e-20
    orientation:
      x: -1.468927496821644e-11
      y: -1.1788443075457928e-08
      z: -0.001199059195870094
      w: 0.9999992811282639
  covariance:
  - 0.04502909397756051
  - 7.449758478679264e-05
  - 4.397586234812262e-19
  - -6.270024263654926e-20
  - 1.2923759837183585e-16
  - -1.2731935394218523e-07
  - 7.449758478679256e-05
  - 0.04490952386489183
  - -5.401143429076847e-22
  - -3.110708239978243e-19
  - 1.0228054524904662e-15
  - -9.814405753529283e-07
  - 4.397586234812263e-19
  - -5.401143429076843e-22
  - 9.999126012076474e-07
  - 1.3462463172006087e-21
  - 1.216274415312297e-20
  - -1.062586766672363e-20
  - -6.270024263654926e-20
  - -3.110708239978248e-19
  - 1.3462463172006085e-21
  - 1.829662366750597e-08
  - 5.548716877022313e-17
  - 4.905809788127695e-12
  - 1.292375983718359e-16
  - 1.0228054524904672e-15
  - 1.2162744153122967e-20
  - 5.5487168770912303e-17
  - 1.829629155360005e-08
  - -1.5785446175501275e-08
  - -1.2731935394218523e-07
  - -9.814405753529283e-07
  - -1.062586766672363e-20
  - 4.9058097881276935e-12
  - -1.5785446175501268e-08
  - 14.80230648591159
twist:
  twist:
    linear:
      x: -1.0644090203247374e-07
      y: 1.1781455478064589e-08
      z: 1.2879828088974273e-25
    angular:
      x: 3.6939348905827914e-18
      y: 7.856662929606532e-14
      z: -6.133824464679002e-05
  covariance:
  - 0.0008903263951745186
  - 4.873089742652174e-13
  - -3.0323960481205025e-23
  - 7.679150848288377e-29
  - -9.610290440008751e-26
  - 9.799612425703603e-23
  - 4.873089742652167e-13
  - 0.0008903263943806642
  - 1.4534839422331867e-27
  - -6.2358401774346025e-28
  - 8.54516449924295e-25
  - -8.71299242810818e-22
  - -3.032396048120503e-23
  - 1.4534839422331874e-27
  - 9.993016637983628e-07
  - 4.421423752434934e-32
  - 3.994561897535671e-31
  - 3.3929713917693786e-27
  - 7.679150848288377e-29
  - -6.235840177434607e-28
  - 4.4214237524349345e-32
  - 9.997670044034254e-07
  - 6.1615890171676145e-28
  - 1.4992505509845496e-17
  - -9.610290440008747e-26
  - 8.545164499242961e-25
  - 3.994561897535673e-31
  - 6.161589017244152e-28
  - 9.997670044034256e-07
  - 1.6837433383411764e-15
  - 9.799612425703606e-23
  - -8.712992428108188e-22
  - 3.3929713917693786e-27
  - 1.49925055098455e-17
  - 1.6837433383411768e-15
  - 0.014414751717101573
---
header:
  stamp:
    sec: 1722533203
    nanosec: 600330643
  frame_id: map
child_frame_id: base_link
pose:
  pose:
    position:
      x: 0.04590149830727821
      y: 0.09204944538704758
      z: 3.438728451481087e-08
    orientation:
      x: -1.4903260056802735e-11
      y: -1.1454620138059078e-08
      z: -0.0011425406859967872
      w: 0.9999993473001773
  covariance:
  - -1.2071207148739632e-05
  - 7.295738932181292e-05
  - 4.6655938868138215e-06
  - 3.947131288021742e-21
  - 1.5404399904933225e-18
  - -1.4903595579853337e-09
  - 7.295738932181292e-05
  - -0.00013057918230105711
  - -9.773844384699127e-06
  - -8.470898767104281e-21
  - -2.635613851304574e-18
  - 2.531261024089473e-09
  - 4.6655938868138215e-06
  - -9.77384438469913e-06
  - 4.976071086095572e-07
  - 5.260663108443375e-22
  - -1.8887231984309984e-19
  - 1.9157376603603566e-10
  - 3.947131288021742e-21
  - -8.470898767104276e-21
  - 5.260663108443377e-22
  - 1.773203265661509e-08
  - 5.1750627108724616e-17
  - 4.7327334903809765e-12
  - 1.5404399904933234e-18
  - -2.635613851304577e-18
  - -1.8887231984309999e-19
  - 5.175062710936647e-17
  - 1.7731723671137977e-08
  - -1.5223510082280854e-08
  - -1.4903595579853341e-09
  - 2.5312610240894744e-09
  - 1.915737660360357e-10
  - 4.732733490380976e-12
  - -1.522351008228085e-08
  - 14.806980444171064
twist:
  twist:
    linear:
      x: -3.918971774691855e-07
      y: 2.521278277679982e-07
      z: 2.2935600719925105e-17
    angular:
      x: 1.2101828166242558e-17
      y: 3.2278513910591516e-07
      z: 0.008171094616295529
  covariance:
  - 0.005611117625374073
  - 1.5283560353684275e-11
  - 8.356811278918866e-19
  - 4.050822890688162e-28
  - -2.070719389531642e-21
  - 6.403278900587378e-21
  - 1.5283560353684253e-11
  - 0.005611117600257391
  - -1.740171356156878e-18
  - -4.0421328710836784e-27
  - -1.88836439757506e-20
  - 5.84066148807446e-20
  - 8.356811278918864e-19
  - -1.7401713561568783e-18
  - 4.997329696847483e-07
  - 1.5541306759470598e-32
  - -8.678104182585644e-30
  - 2.7011796209620156e-29
  - 4.050822890688163e-28
  - -4.042132871083681e-27
  - 1.5541306759470595e-32
  - 4.999108947651348e-07
  - -9.672374177371753e-22
  - 2.9912551945030565e-21
  - -2.0707193895316405e-21
  - -1.8883643975750607e-20
  - -8.678104182585647e-30
  - -9.672374177371753e-22
  - 4.998745125719384e-07
  - -9.279052755867959e-07
  - 6.403278900587379e-21
  - 5.840661488074461e-20
  - 2.701179620962015e-29
  - 2.9912551945030576e-21
  - -9.279052755867959e-07
  - 2.8696168752841376e-06
---
header:
  stamp:
    sec: 1722533203
    nanosec: 701634935
  frame_id: map
child_frame_id: base_link
pose:
  pose:
    position:
      x: 0.04590118450546655
      y: 0.09204952694709623
      z: 3.438727732362298e-08
    orientation:
      x: -7.730752485132269e-12
      y: 4.8951387880067535e-09
      z: -0.0007286573926119512
      w: 0.9999997345291669
  covariance:
  - 0.05071259438077199
  - 7.296595613362363e-05
  - 4.665869022192478e-06
  - 6.469754790061854e-19
  - 1.3490881121514899e-15
  - -1.209533067162613e-06
  - 7.296595613362361e-05
  - 0.050594072493913976
  - -9.77441717735471e-06
  - 2.4584984224114932e-18
  - 5.180718373460238e-15
  - -4.6409241152433e-06
  - 4.665869022192479e-06
  - -9.774417177354715e-06
  - 0.08104393634881074
  - 1.4381288690221276e-15
  - 5.566212076284792e-15
  - 1.9156897736885686e-10
  - 6.469754790061856e-19
  - 2.4584984224114936e-18
  - 1.438128869022128e-15
  - 2.286273571685817e-08
  - 4.51444248675926e-17
  - -7.869319450737326e-12
  - 1.34908811215149e-15
  - 5.18071837346024e-15
  - 5.5662120762847915e-15
  - 4.5144424873418365e-17
  - 2.286205720448508e-08
  - -2.6043941359929468e-08
  - -1.209533067162613e-06
  - -4.6409241152433e-06
  - 1.9156897736885688e-10
  - -7.869319450737324e-12
  - -2.6043941359929468e-08
  - 14.857632627645526
twist:
  twist:
    linear:
      x: -5.806998395770332e-06
      y: 1.3439106402184945e-06
      z: 2.2939218059131873e-17
    angular:
      x: 1.2101828166242558e-17
      y: 3.2278513910591516e-07
      z: 0.008171094616295529
  covariance:
  - 0.0612021716904583
  - 1.5799705175405763e-09
  - 2.783253828677121e-18
  - 4.485769831781941e-27
  - -7.217992294450912e-21
  - 2.2315425977624547e-20
  - 1.579970517540574e-09
  - 0.0612021691019671
  - -5.7956677589365136e-18
  - -3.8981722187263236e-26
  - -6.299716941715015e-20
  - 1.9489174956851307e-19
  - 2.783253828677121e-18
  - -5.795667758936514e-18
  - 0.010130934063335206
  - 1.554375610223535e-32
  - -8.679472879829784e-30
  - 2.7016056448376057e-29
  - 4.485769831781943e-27
  - -3.8981722187263277e-26
  - 1.5543756102235346e-32
  - 0.030391787510894764
  - -9.672374177371753e-22
  - 2.9912551945030565e-21
  - -7.217992294450907e-21
  - -6.299716941715018e-20
  - -8.679472879829787e-30
  - -9.672374177371753e-22
  - 0.03039178747451257
  - -9.279052755867959e-07
  - 2.2315425977624553e-20
  - 1.9489174956851307e-19
  - 2.701605644837605e-29
  - 2.9912551945030576e-21
  - -9.279052755867959e-07
  - 0.1002941186968753
---
header:
  stamp:
    sec: 1722533203
    nanosec: 728300626
  frame_id: map
child_frame_id: base_link
pose:
  pose:
    position:
      x: 0.04749512026994459
      y: 0.09066272159846796
      z: -1.930661535603583e-11
    orientation:
      x: -5.526061661475199e-12
      y: 7.417214538150829e-09
      z: -0.0007613672802613302
      w: 0.9999997101598903
  covariance:
  - 0.013330022080003197
  - 7.178581102267817e-05
  - 2.162609753586305e-10
  - -6.082575876884697e-19
  - -1.458594977345566e-14
  - 8.89443903317689e-06
  - 7.178581102267815e-05
  - 0.013211124628272267
  - -4.5755962300489837e-10
  - -9.25023327011183e-18
  - -1.3659971692333428e-14
  - 8.330515043575261e-06
  - 2.1626097535863042e-10
  - -4.5755962300489853e-10
  - 9.999531265765306e-07
  - -5.997182741463956e-19
  - -5.623109440460609e-19
  - 3.683897677010624e-14
  - -6.082575876884721e-19
  - -9.25023327011183e-18
  - -5.997182741463955e-19
  - 2.1735572945816884e-08
  - 7.002904195930612e-17
  - -5.7663808186094946e-12
  - -1.4585949773455665e-14
  - -1.3659971692333421e-14
  - -5.623109440460609e-19
  - 7.002904196451875e-17
  - 2.1734928333390586e-08
  - -2.5013085988081014e-08
  - 8.894439033176892e-06
  - 8.330515043575265e-06
  - 3.6838976770106254e-14
  - -5.766380818609495e-12
  - -2.501308598808102e-08
  - 14.87096547278882
twist:
  twist:
    linear:
      x: 2.731521120133087e-07
      y: -2.966213048874229e-07
      z: 9.649832557452769e-17
    angular:
      x: 3.7243170958971116e-17
      y: -1.7469896852553276e-11
      z: -0.0013060982351466406
  covariance:
  - 0.0009872104977477875
  - 7.57008415955814e-12
  - -2.489884563861028e-19
  - -9.189016670132785e-28
  - 4.2871200663479e-25
  - -3.403414715485188e-21
  - 7.570084159558136e-12
  - 0.0009872104854345644
  - 5.238902227333331e-19
  - 3.1306065706510393e-27
  - 2.261397965846601e-24
  - -1.7958170788994427e-20
  - -2.4898845638610256e-19
  - 5.23890222733333e-19
  - 9.996251971599954e-07
  - -4.981666401281683e-30
  - -4.657185744152086e-30
  - 3.694522750748606e-26
  - -9.189016670132772e-28
  - 3.1306065706510382e-27
  - -4.981666401281685e-30
  - 9.99875018858371e-07
  - 1.0713557951436328e-25
  - -1.3974824014289963e-21
  - 4.287120066347901e-25
  - 2.2613979658466023e-24
  - -4.657185744152089e-30
  - 1.071355795143778e-25
  - 9.998750188579935e-07
  - -6.205090742181956e-11
  - -3.403414715485188e-21
  - -1.7958170788994436e-20
  - 3.6945227507486053e-26
  - -1.3974824014291114e-21
  - -6.205090742181955e-11
  - 0.01404308995320584
---
header:
  stamp:
    sec: 1722533203
    nanosec: 794087279
  frame_id: map
child_frame_id: base_link
pose:
  pose:
    position:
      x: 0.04749515794397063
      y: 0.09066261485765335
      z: -1.9307167905494947e-11
    orientation:
      x: -5.845134644138352e-12
      y: 7.416639741859419e-09
      z: -0.0008043291827830334
      w: 0.9999996765272305
  covariance:
  - 0.046233082714235145
  - 7.179918296238405e-05
  - 2.161620576407605e-10
  - 2.591235785241823e-19
  - -1.7255974207491392e-14
  - 1.0481760202124573e-05
  - 7.179918296238402e-05
  - 0.04611416315044479
  - -4.5760214834180207e-10
  - -8.213495999271098e-18
  - -1.4603056103699743e-14
  - 8.892180981517664e-06
  - 2.1616205764076042e-10
  - -4.576021483418023e-10
  - 0.05263032668407028
  - -2.319363607846179e-15
  - -8.231397255617881e-16
  - 3.781850386993859e-14
  - 2.5912357852418033e-19
  - -8.2134959992711e-18
  - -2.3193636078461786e-15
  - 2.6063130406929032e-08
  - 1.1276335549220073e-16
  - -2.6422311290595177e-12
  - -1.7255974207491395e-14
  - -1.4603056103699733e-14
  - -8.231397255617882e-16
  - 1.1276335549724565e-16
  - 2.6062485797718713e-08
  - -2.5865959755638458e-08
  - 1.0481760202124574e-05
  - 8.892180981517669e-06
  - 3.781850386993861e-14
  - -2.642231129059518e-12
  - -2.5865959755638464e-08
  - 14.903919581450527
twist:
  twist:
    linear:
      x: 8.771274208636982e-07
      y: -2.9466907791705494e-06
      z: 9.652652935568099e-17
    angular:
      x: 3.7243170958971116e-17
      y: -1.7469896852553276e-11
      z: -0.0013060982351466406
  covariance:
  - 0.03567866656413142
  - 1.3252285896671586e-09
  - -2.8254004598727594e-18
  - -1.03461071729878e-26
  - 3.9150407398577925e-24
  - -3.1070782281764225e-20
  - 1.3252285896671573e-09
  - 0.03567866440302138
  - 5.9428744646824734e-18
  - 3.589229452889051e-26
  - 3.486677868425923e-23
  - -2.769524558067305e-19
  - -2.8254004598727594e-18
  - 5.942874464682474e-18
  - 0.006579669252540052
  - -4.9831224414543586e-30
  - -4.6585469393811e-30
  - 3.695602580276953e-26
  - -1.0346107172987797e-26
  - 3.5892294528890515e-26
  - -4.98312244145436e-30
  - 0.01973699577501886
  - 1.0713557951436328e-25
  - -1.3974824014289963e-21
  - 3.915040739857798e-24
  - 3.4866778684259255e-23
  - -4.658546939381103e-30
  - 1.071355795143778e-25
  - 0.01973699577501886
  - -6.205090742181956e-11
  - -3.107078228176424e-20
  - -2.769524558067306e-19
  - 3.6956025802769527e-26
  - -1.3974824014291114e-21
  - -6.205090742181955e-11
  - 0.07917187642320585
---
header:
  stamp:
    sec: 1722533203
    nanosec: 799933820
  frame_id: map
child_frame_id: base_link
pose:
  pose:
    position:
      x: 0.047563664536893355
      y: 0.09021016670396613
      z: -9.695963312800757e-08
    orientation:
      x: -4.683383584812187e-12
      y: 5.882757733486456e-09
      z: -0.0007070738190333209
      w: 0.999999750023276
  covariance:
  - -1.247766563550872e-05
  - 7.408962871845737e-05
  - 4.69816348093564e-06
  - -2.071783689067726e-19
  - -1.5326014428419297e-17
  - 1.0804243806428228e-08
  - 7.408962871845734e-05
  - -0.00013230368754410987
  - -9.827089289559253e-06
  - 4.304239663701834e-19
  - 1.1344434128820969e-17
  - -7.979208789294306e-09
  - 4.69816348093564e-06
  - -9.827089289559253e-06
  - 4.975829117065377e-07
  - -1.938835084230707e-20
  - 1.0742097201286749e-18
  - -7.684658794340685e-10
  - -2.071783689067724e-19
  - 4.304239663701832e-19
  - -1.9388350842307055e-20
  - 6.985625830436562e-08
  - 8.777237343562338e-17
  - -2.230540702765199e-12
  - -1.532601442841928e-17
  - 1.1344434128820927e-17
  - 1.074209720128672e-18
  - 8.777237343934334e-17
  - 6.985578068364851e-08
  - -2.2205962060198795e-08
  - 1.080424380642823e-08
  - -7.979208789294313e-09
  - -7.684658794340693e-10
  - -2.230540702765199e-12
  - -2.220596206019881e-08
  - 14.906833721207647
twist:
  twist:
    linear:
      x: 1.4577759063238263e-06
      y: -6.6113110518467976e-06
      z: -4.5490040055843925e-15
    angular:
      x: 9.501273988380308e-14
      y: 1.363609398185071e-07
      z: 0.011082469058635698
  covariance:
  - 0.03892453044633628
  - 6.885439054248193e-09
  - 1.6772064150301547e-15
  - -1.1021047545237955e-23
  - 7.731543309761583e-19
  - -3.076006312894382e-18
  - 6.885439054248188e-09
  - 0.03892451929554573
  - -3.4944023928344996e-15
  - -2.0378699864655318e-22
  - -6.974548274768166e-21
  - -4.657607797554769e-19
  - 1.6772064150301546e-15
  - -3.494402392834501e-15
  - 4.999651074467734e-07
  - -6.031029649475007e-25
  - -2.083559963390925e-25
  - 3.8992124660229325e-25
  - -1.1021047545238026e-23
  - -2.0378699864655314e-22
  - -6.031029649475001e-25
  - 4.999759527510687e-07
  - 1.1111894811251794e-18
  - -3.3888881230301946e-18
  - 7.731543309761577e-19
  - -6.974548274767588e-21
  - -2.083559963390925e-25
  - 1.1111894811252865e-18
  - 4.999656494914823e-07
  - -9.355328750408569e-07
  - -3.0760063128943817e-18
  - -4.657607797554778e-19
  - 3.8992124660229306e-25
  - -3.388888123030395e-18
  - -9.35532875040857e-07
  - 2.855720176465841e-06
---
header:
  stamp:
    sec: 1722533203
    nanosec: 832167839
  frame_id: map
child_frame_id: base_link
pose:
  pose:
    position:
      x: 0.04756367670605545
      y: 0.09021011183978803
      z: -3.760268748262071e-12
    orientation:
      x: -6.546294584417135e-13
      y: 1.0430522471873675e-08
      z: -0.0005284697348975222
      w: 0.9999998603598599
  covariance:
  - 0.016116783568997112
  - 7.410175238611812e-05
  - 1.8219178223448513e-10
  - 3.784312887541078e-19
  - -5.0967811188217445e-15
  - 3.585054252145243e-06
  - 7.410175238611813e-05
  - 0.015996937950288167
  - -3.810882552275993e-10
  - -6.0588282890193354e-18
  - -1.0985583879402068e-15
  - 7.712126761870684e-07
  - 1.8219178223448508e-10
  - -3.8108825522759917e-10
  - 9.999612233464973e-07
  - -6.073410337911471e-19
  - -1.330583347721397e-19
  - -2.9796728835747123e-14
  - 3.7843128875410733e-19
  - -6.058828289019332e-18
  - -6.073410337911471e-19
  - 6.587862967490116e-08
  - -8.950108638026041e-17
  - -9.539486275335448e-12
  - -5.096781118821742e-15
  - -1.0985583879402066e-15
  - -1.330583347721398e-19
  - -8.950108637890765e-17
  - 6.587819118956831e-08
  - -2.223735818360986e-08
  - 3.5850542521452435e-06
  - 7.712126761870683e-07
  - -2.9796728835747155e-14
  - -9.53948627533545e-12
  - -2.2237358183609874e-08
  - 14.922950736135487
twist:
  twist:
    linear:
      x: 3.098396996969049e-08
      y: -1.4164496549796305e-07
      z: 1.739041117751295e-17
    angular:
      x: 3.510359440166583e-17
      y: 3.1373309742305246e-11
      z: 0.005369887648213441
  covariance:
  - 0.0009828604181555682
  - 2.5209867282773848e-12
  - -1.2115981947729008e-19
  - -6.266233739094908e-28
  - -2.26087534972493e-24
  - 4.890769132731618e-21
  - 2.520986728277383e-12
  - 0.0009828604140759564
  - 2.5252917840917e-19
  - -3.6955299685469495e-27
  - -2.3476324011776863e-24
  - 1.619613133548018e-20
  - -1.2115981947729006e-19
  - 2.5252917840917007e-19
  - 9.996899130948028e-07
  - 5.239143316029056e-30
  - 1.1424817148678708e-30
  - -1.0019608034855337e-26
  - -6.26623373909491e-28
  - -3.6955299685469516e-27
  - 5.239143316029056e-30
  - 9.998966056178403e-07
  - 1.078369511335135e-25
  - -1.5437726643941524e-21
  - -2.260875349724933e-24
  - -2.3476324011776826e-24
  - 1.1424817148678698e-30
  - 1.078369511334535e-25
  - 9.998966056175794e-07
  - -4.6839153822150694e-11
  - 4.890769132731642e-21
  - 1.6196131335480152e-20
  - -1.0019608034855331e-26
  - -1.5437726643938652e-21
  - -4.683915382215071e-11
  - 0.015463832938636152
---
header:
  stamp:
    sec: 1722533203
    nanosec: 909662916
  frame_id: map
child_frame_id: base_link
pose:
  pose:
    position:
      x: 0.048582265796996926
      y: 0.08966538886567318
      z: -2.6342781864799397e-11
    orientation:
      x: 5.374739753920844e-13
      y: 8.422228781975479e-09
      z: -0.00042553176826202506
      w: 0.999999909461353
  covariance:
  - 0.004792323861295621
  - 7.429212381051285e-05
  - 6.123413247908783e-10
  - 6.092988234359223e-19
  - -9.831012889001515e-16
  - 7.679389502407814e-07
  - 7.429212381051283e-05
  - 0.004672799855022422
  - -1.27724111029374e-09
  - -3.2198979885298418e-18
  - -7.980290354640958e-16
  - 6.206613384865534e-07
  - 6.123413247908782e-10
  - -1.2772411102937397e-09
  - 9.998699412896155e-07
  - -3.8810395871629053e-19
  - -3.1190144835264526e-19
  - 3.592782961640568e-14
  - 6.092988234359219e-19
  - -3.219897988529841e-18
  - -3.881039587162906e-19
  - 5.822421062818971e-08
  - -1.7411587812256803e-16
  - -1.3114664822005194e-11
  - -9.831012889001511e-16
  - -7.980290354640959e-16
  - -3.1190144835264526e-19
  - -1.7411587812399106e-16
  - 5.822390981177266e-08
  - -1.925624407374734e-08
  - 7.679389502407812e-07
  - 6.206613384865534e-07
  - 3.5927829616405723e-14
  - -1.3114664822005192e-11
  - -1.9256244073747343e-08
  - 14.961756216188407
twist:
  twist:
    linear:
      x: 1.0293512237100428e-07
      y: -1.2995789241441061e-07
      z: 1.314855981598591e-16
    angular:
      x: 1.0158996722329093e-17
      y: -7.073832342272621e-11
      z: -0.0030823950299244357
  covariance:
  - 0.0009768578242740182
  - 1.2271574406496054e-12
  - -2.560460362090953e-19
  - -1.2694777214374306e-27
  - -1.5185065340736134e-24
  - 6.244513178390374e-21
  - 1.2271574406496052e-12
  - 0.000976857822293571
  - 5.327493506651618e-19
  - 2.548117667849113e-29
  - -2.1683513236450904e-25
  - 8.909047854841384e-22
  - -2.5604603620909525e-19
  - 5.327493506651611e-19
  - 9.989609495857953e-07
  - -3.212420506918222e-30
  - -2.5795607621902808e-30
  - 1.0621916701774431e-26
  - -1.2694777214374299e-27
  - 2.5481176678491693e-29
  - -3.212420506918223e-30
  - 9.99653289604902e-07
  - 1.8462655310148815e-25
  - -1.2281442590750305e-21
  - -1.5185065340736125e-24
  - -2.1683513236450817e-25
  - -2.579560762190282e-30
  - 1.8462655310148427e-25
  - 9.996532896009241e-07
  - -2.475815757791028e-10
  - 6.244513178390373e-21
  - 8.90904785484135e-22
  - 1.0621916701774439e-26
  - -1.2281442590750145e-21
  - -2.475815757791028e-10
  - 0.007224377792964199
---
header:
  stamp:
    sec: 1722533203
    nanosec: 977856915
  frame_id: map
child_frame_id: base_link
pose:
  pose:
    position:
      x: 0.048582311825677495
      y: 0.08966530872502113
      z: -5.756482712910956e-20
    orientation:
      x: -1.6389295273334493e-13
      y: 7.388207298161341e-09
      z: -0.0005061047941304178
      w: 0.9999998719289604
  covariance:
  - 0.03889411437590203
  - 7.429692563541404e-05
  - 8.890548035208042e-19
  - -8.65895247106957e-20
  - -2.4581922527152433e-15
  - 2.146446898685701e-06
  - 7.4296925635414e-05
  - 0.03877458264842876
  - -2.6077967526802687e-18
  - -3.1916850661663788e-18
  - -1.6176750455025482e-15
  - 1.4111760964268655e-06
  - 8.890548035208044e-19
  - -2.6077967526802675e-18
  - 9.999117426616174e-07
  - -3.169637724488059e-20
  - -1.7679637340041825e-20
  - 5.786809126255359e-21
  - -8.658952471069645e-20
  - -3.191685066166379e-18
  - -3.16963772448806e-20
  - 5.4659863779278405e-08
  - -9.942862331458405e-17
  - -8.15831937221322e-12
  - -2.458192252715244e-15
  - -1.6176750455025486e-15
  - -1.7679637340041828e-20
  - -9.942862331495507e-17
  - 5.4659624608037645e-08
  - -1.7456834114129992e-08
  - 2.146446898685702e-06
  - 1.4111760964268653e-06
  - 5.7868091262553605e-21
  - -8.158319372213218e-12
  - -1.745683411412999e-08
  - 14.995877648476862
twist:
  twist:
    linear:
      x: 5.0551971046697604e-08
      y: -9.079678686935929e-08
      z: 2.2028522144796885e-23
    angular:
      x: 2.6018368029173534e-17
      y: -4.9252831531403754e-14
      z: -0.0004770840826910516
  covariance:
  - 0.0008906745453377557
  - 5.025498046098273e-13
  - 2.1823768932306653e-23
  - -1.1715103774272163e-27
  - -1.5655643008330198e-24
  - 1.5005872336195566e-21
  - 5.025498046098267e-13
  - 0.0008906745445225208
  - 4.837520117272482e-26
  - 4.435183871867283e-28
  - -1.207572186010919e-25
  - 1.1548863122287146e-22
  - 2.1823768932306662e-23
  - 4.83752011727248e-26
  - 9.992948126210566e-07
  - -1.0527605207406794e-30
  - -5.872530007053018e-31
  - -2.8967404784652066e-27
  - -1.1715103774272158e-27
  - 4.4351838718672915e-28
  - -1.0527605207406806e-30
  - 9.997647162984284e-07
  - -1.1046296465127869e-27
  - -1.012616102459016e-17
  - -1.5655643008330185e-24
  - -1.2075721860109077e-25
  - -5.8725300070530185e-31
  - -1.1046296465168974e-27
  - 9.997647162984284e-07
  - 2.9762711190904406e-15
  - 1.5005872336195566e-21
  - 1.154886312228705e-22
  - -2.8967404784652073e-27
  - -1.0126161024590156e-17
  - 2.9762711190904413e-15
  - 0.01595902308683297
---
header:
  stamp:
    sec: 1722533204
    nanosec: 41067129
  frame_id: map
child_frame_id: base_link
pose:
  pose:
    position:
      x: 0.04908442112912238
      y: 0.08831270914059315
      z: -2.4665485804148723e-19
    orientation:
      x: 4.366358855216668e-13
      y: 6.302446173596382e-09
      z: -0.00047246961156511793
      w: 0.9999998883862269
  covariance:
  - 0.02027960469394583
  - 7.079248348432428e-05
  - 3.396206407364249e-18
  - 4.210364532243213e-20
  - -4.941367029921924e-16
  - 5.556998889396897e-07
  - 7.079248348432431e-05
  - 0.020161274080059563
  - -7.683682412004884e-18
  - -7.307177378469984e-19
  - -2.422652910013695e-16
  - 2.7207256688247266e-07
  - 3.396206407364246e-18
  - -7.683682412004887e-18
  - 9.999064841994286e-07
  - -2.9031664730061435e-20
  - -1.475169983296934e-20
  - 4.784518224735569e-21
  - 4.210364532243225e-20
  - -7.307177378469986e-19
  - -2.903166473006145e-20
  - 4.171306454171887e-08
  - -6.687112680188267e-17
  - -6.572776902712683e-12
  - -4.941367029921922e-16
  - -2.4226529100136943e-16
  - -1.475169983296935e-20
  - -6.687112680250773e-17
  - 4.171292108813818e-08
  - -1.3540110769549228e-08
  - 5.556998889396897e-07
  - 2.720725668824726e-07
  - 4.784518224735569e-21
  - -6.572776902712687e-12
  - -1.3540110769549231e-08
  - 15.027492709108976
twist:
  twist:
    linear:
      x: 5.8622701879240934e-08
      y: -1.1530972829696532e-07
      z: 9.924518924974107e-23
    angular:
      x: 1.693645424279244e-17
      y: -4.2004463352344896e-14
      z: 0.00037360184360531054
  covariance:
  - 0.0008845512527662252
  - 4.1114085010836115e-13
  - 1.769629125405815e-23
  - -9.12575674844724e-28
  - -1.2525431043231829e-24
  - 2.1461493405412044e-21
  - 4.111408501083605e-13
  - 0.0008845512520963419
  - 7.588278324869952e-26
  - 1.7600697377018585e-28
  - -1.7859240968636341e-25
  - -9.206532020065943e-24
  - 1.7696291254058148e-23
  - 7.588278324869948e-26
  - 9.992528514802337e-07
  - -9.60466428707801e-31
  - -4.880330692373304e-31
  - -8.0047915868045e-27
  - -9.125756748447225e-28
  - 1.760069737701867e-28
  - -9.604664287078013e-31
  - 9.99750702215472e-07
  - -7.426341353036169e-28
  - -5.276762088549448e-18
  - -1.2525431043231818e-24
  - -1.7859240968636268e-25
  - -4.880330692373306e-31
  - -7.426341353105663e-28
  - 9.997507022154719e-07
  - 7.519988481712378e-15
  - 2.1461493405412006e-21
  - -9.206532020068388e-24
  - -8.004791586804498e-27
  - -5.2767620885494475e-18
  - 7.519988481712374e-15
  - 0.014009361711077617
---
header:
  stamp:
    sec: 1722533204
    nanosec: 81851156
  frame_id: map
child_frame_id: base_link
pose:
  pose:
    position:
      x: 0.04908443016808453
      y: 0.08831269132914331
      z: -2.3741439458125532e-21
    orientation:
      x: 4.070412592638628e-13
      y: 5.603893998642188e-09
      z: -0.00046981908200747504
      w: 0.999999889635009
  covariance:
  - 0.04067229092545145
  - 7.079295869809304e-05
  - -1.5367566578924165e-19
  - -1.0447885273640768e-19
  - -7.206314133774681e-16
  - 9.080623053108881e-07
  - 7.079295869809309e-05
  - 0.040553959517107004
  - 1.809101498249942e-23
  - -7.206618649936856e-19
  - -3.581881701613961e-16
  - 4.5102149082636177e-07
  - -1.536756657892416e-19
  - 1.8091014982499427e-23
  - 9.998772239173437e-07
  - -2.0547567434943258e-20
  - -1.0452910905016317e-20
  - 3.3878494115426306e-21
  - -1.0447885273640752e-19
  - -7.206618649936858e-19
  - -2.0547567434943255e-20
  - 3.75677183722616e-08
  - -5.407992781424264e-17
  - -5.781836202529419e-12
  - -7.206314133774683e-16
  - -3.5818817016139595e-16
  - -1.0452910905016324e-20
  - -5.4079927814747985e-17
  - 3.7567605215349325e-08
  - -1.2049081039413446e-08
  - 9.080623053108884e-07
  - 4.510214908263618e-07
  - 3.38784941154263e-21
  - -5.781836202529422e-12
  - -1.2049081039413444e-08
  - 15.047899588674277
twist:
  twist:
    linear:
      x: 5.4992241349328214e-08
      y: -1.0809904952765887e-07
      z: 2.3720637782908044e-26
    angular:
      x: 1.4835542143395446e-17
      y: -3.735218762717737e-14
      z: 5.188665320854681e-05
  covariance:
  - 0.0008581915288578539
  - 3.6280946282195707e-13
  - 1.9320911065946364e-23
  - -7.708231036547149e-28
  - -1.0438966064964217e-24
  - 5.753075996979844e-22
  - 3.6280946282195677e-13
  - 0.0008581915282667469
  - 7.681895333090916e-27
  - 1.4653161930610407e-28
  - -1.4827198365957072e-25
  - 4.090709522743358e-23
  - 1.932091106594636e-23
  - 7.68189533309092e-27
  - 9.990194762737613e-07
  - -6.781570413973569e-31
  - -3.449904527374068e-31
  - -7.693996894814547e-28
  - -7.708231036547147e-28
  - 1.4653161930610468e-28
  - -6.781570413973568e-31
  - 9.9967273101658e-07
  - -6.006586430131403e-28
  - -7.20271675349185e-18
  - -1.0438966064964206e-24
  - -1.482719836595702e-25
  - -3.449904527374069e-31
  - -6.006586430187513e-28
  - 9.996727310165798e-07
  - 9.275968456398375e-16
  - 5.753075996979837e-22
  - 4.0907095227433074e-23
  - -7.693996894814545e-28
  - -7.202716753491847e-18
  - 9.275968456398373e-16
  - 0.013770449297060044
---
header:
  stamp:
    sec: 1722533204
    nanosec: 132341339
  frame_id: map
child_frame_id: base_link
pose:
  pose:
    position:
      x: 0.049710975463219745
      y: 0.08750385267682408
      z: -4.508519880281698e-19
    orientation:
      x: -8.003768488166116e-13
      y: 3.530010492290663e-09
      z: -0.0005933809136480586
      w: 0.9999998239495301
  covariance:
  - 0.01613895775455896
  - 6.95309488918928e-05
  - 9.390075640644305e-18
  - 1.2432354895437723e-19
  - -2.5659875825833164e-16
  - 3.786479861004852e-07
  - 6.95309488918928e-05
  - 0.01602202745150796
  - -2.026988977431481e-17
  - -4.72674951392624e-19
  - -1.3951655535814389e-16
  - 2.054759128180294e-07
  - 9.39007564064431e-18
  - -2.026988977431481e-17
  - 9.998983072392587e-07
  - -2.0937057211333094e-20
  - -1.1050032810543574e-20
  - 3.547916182653157e-21
  - 1.243235489543773e-19
  - -4.726749513926231e-19
  - -2.0937057211333088e-20
  - 3.2208727559812065e-08
  - -2.5801569672683173e-17
  - -3.0545006593599597e-12
  - -2.5659875825833164e-16
  - -1.3951655535814389e-16
  - -1.1050032810543568e-20
  - -2.5801569673499934e-17
  - 3.2208646267043065e-08
  - -1.0276372209613288e-08
  - 3.786479861004851e-07
  - 2.054759128180294e-07
  - 3.547916182653154e-21
  - -3.054500659359964e-12
  - -1.027637220961328e-08
  - 15.073153064557307
twist:
  twist:
    linear:
      x: 6.012459137947543e-08
      y: -1.140319419399905e-07
      z: 1.8300430767399013e-22
    angular:
      x: 1.9295555468993354e-17
      y: -2.3549019302804843e-14
      z: -0.0020393118330632263
  covariance:
  - 0.0008767873340668439
  - 3.35628186739974e-13
  - 1.0697163763832302e-23
  - -4.9793508288760675e-28
  - -8.851761532173907e-25
  - 1.8911626284295538e-22
  - 3.356281867399736e-13
  - 0.0008767873335204765
  - 8.870500463129199e-26
  - 1.368872538996992e-28
  - -1.3424143507496755e-25
  - -2.979217853649297e-22
  - 1.0697163763832303e-23
  - 8.870500463129198e-26
  - 9.991876141592603e-07
  - -6.9100660148453865e-31
  - -3.6470052740571974e-31
  - -4.308332670785975e-27
  - -4.979350828876057e-28
  - 1.3688725389969968e-28
  - -6.910066014845387e-31
  - 9.997289111682746e-07
  - -2.8654575125676714e-28
  - -3.0394464129244122e-18
  - -8.851761532173895e-25
  - -1.3424143507496704e-25
  - -3.6470052740571983e-31
  - -2.865457512658882e-28
  - 9.997289111682748e-07
  - 4.1616299620914814e-15
  - 1.8911626284295336e-22
  - -2.9792178536493063e-22
  - -4.308332670785977e-27
  - -3.0394464129244126e-18
  - 4.161629962091481e-15
  - 0.013281808437072226
---
header:
  stamp:
    sec: 1722533204
    nanosec: 183118607
  frame_id: map
child_frame_id: base_link
pose:
  pose:
    position:
      x: 0.04971098950685053
      y: 0.0875038259347844
      z: -2.6000907324396666e-21
    orientation:
      x: -7.987573299511899e-13
      y: 3.1883024864181263e-09
      z: -0.0006119379247440338
      w: 0.9999998127659706
  covariance:
  - 0.04152858571850563
  - 6.953125669983211e-05
  - -1.6542865185618492e-19
  - 5.340372582673227e-20
  - -5.494194516022831e-16
  - 8.871386037683414e-07
  - 6.953125669983211e-05
  - 0.041411654897547855
  - 2.934615992383012e-23
  - -4.61546945289169e-19
  - -2.9288955938929637e-16
  - 4.726868573482116e-07
  - -1.6542865185618496e-19
  - 2.934615992383015e-23
  - 9.999364691108802e-07
  - -2.742766962577877e-20
  - -1.4445502155410737e-20
  - 4.5761410614143454e-21
  - 5.340372582673249e-20
  - -4.615469452891678e-19
  - -2.742766962577877e-20
  - 3.0149458903936086e-08
  - -1.757401226060468e-17
  - -2.0987592695610385e-12
  - -5.494194516022835e-16
  - -2.928895593892967e-16
  - -1.4445502155410734e-20
  - -1.7574012261327877e-17
  - 3.0149391480198585e-08
  - -9.377545938534133e-09
  - 8.871386037683416e-07
  - 4.7268685734821176e-07
  - 4.576141061414342e-21
  - -2.098759269561043e-12
  - -9.377545938534122e-09
  - 15.098562094538277
twist:
  twist:
    linear:
      x: 6.016245184374109e-08
      y: -1.1423309747521809e-07
      z: 2.597220943453371e-26
    angular:
      x: 1.8327472106589282e-17
      y: -2.125064410504947e-14
      z: -0.00024206695118822718
  covariance:
  - 0.0009160457260666889
  - 3.3848847041753874e-13
  - 6.835514411648495e-24
  - -4.077138098170554e-28
  - -8.085844806496763e-25
  - 1.3440798894766044e-22
  - 3.384884704175384e-13
  - 0.0009160457255156677
  - 5.850924882633988e-27
  - 1.3246957387844744e-28
  - -1.2236382392265496e-25
  - -1.7276651010879076e-23
  - 6.8355144116485e-24
  - 5.850924882633991e-27
  - 9.99492204455858e-07
  - -9.07879873654595e-31
  - -4.781588353488564e-31
  - -6.50769213802962e-28
  - -4.077138098170544e-28
  - 1.3246957387844776e-28
  - -9.07879873654594e-31
  - 9.99830620144807e-07
  - -1.951830199231608e-28
  - -4.914161522783259e-18
  - -8.085844806496754e-25
  - -1.223638239226545e-25
  - -4.781588353488561e-31
  - -1.9518301993118313e-28
  - 9.99830620144807e-07
  - 4.509527452407791e-16
  - 1.344079889476602e-22
  - -1.727665101087927e-23
  - -6.5076921380296185e-28
  - -4.9141615227832604e-18
  - 4.509527452407793e-16
  - 0.016025205194772647
---
header:
  stamp:
    sec: 1722533204
    nanosec: 237459203
  frame_id: map
child_frame_id: base_link
pose:
  pose:
    position:
      x: 0.0489377916945083
      y: 0.08839874929049421
      z: 1.4048503001970384e-15
    orientation:
      x: -8.485288445847542e-13
      y: 2.6812431734343877e-09
      z: -0.0006258726913229329
      w: 0.999999804141668
  covariance:
  - 0.017816181453863655
  - 7.062709347920819e-05
  - 2.6897755642634415e-14
  - 1.7083028297125316e-20
  - -2.712219231364461e-16
  - 4.786855200713645e-07
  - 7.062709347920817e-05
  - 0.017700517424261236
  - -5.6637655728341634e-14
  - -1.6831313922506337e-19
  - -1.20703789297273e-16
  - 2.1295987606996407e-07
  - 2.6897755642634437e-14
  - -5.663765572834162e-14
  - 9.999500096394089e-07
  - -2.6573630225011335e-20
  - -1.2883213074013592e-20
  - -6.432953016063722e-20
  - 1.7083028297125518e-20
  - -1.683131392250634e-19
  - -2.6573630225011326e-20
  - 2.7824302287016868e-08
  - -1.489726931037293e-17
  - -1.6126227229997804e-12
  - -2.7122192313644657e-16
  - -1.2070378929727312e-16
  - -1.2883213074013588e-20
  - -1.4897269311015894e-17
  - 2.782424309691204e-08
  - -8.757105724015795e-09
  - 4.786855200713645e-07
  - 2.1295987606996412e-07
  - -6.432953016063713e-20
  - -1.612622722999784e-12
  - -8.757105724015789e-09
  - 15.125742714660406
twist:
  twist:
    linear:
      x: 4.909292010178332e-08
      y: -1.0034220790696627e-07
      z: -7.006503273211412e-20
    angular:
      x: 1.683709858706606e-17
      y: -1.9184083171533352e-14
      z: -0.00022796768657750555
  covariance:
  - 0.0009320847625358072
  - 3.276446498422183e-13
  - -1.1501051638812473e-23
  - -3.3905036434598256e-28
  - -7.268573887804076e-25
  - -1.47531047184848e-22
  - 3.2764464984221794e-13
  - 0.0009320847620026692
  - 3.4968062539817436e-23
  - 1.063281511326388e-28
  - -1.1940327821581094e-25
  - -6.49473549589757e-22
  - -1.1501051638812477e-23
  - 3.4968062539817424e-23
  - 9.996003567514708e-07
  - -8.822232765415672e-31
  - -4.276868005929087e-31
  - -1.6133813526667013e-26
  - -3.3905036434598184e-28
  - 1.0632815113263915e-28
  - -8.82223276541567e-31
  - 9.998667145619838e-07
  - -1.350591950186757e-28
  - -1.8240271793009744e-18
  - -7.268573887804067e-25
  - -1.1940327821581046e-25
  - -4.276868005929088e-31
  - -1.3505919502581184e-28
  - 9.998667145619838e-07
  - -2.75985998858524e-15
  - -1.4753104718484923e-22
  - -6.494735495897579e-22
  - -1.613381352666702e-26
  - -1.8240271793009736e-18
  - -2.75985998858524e-15
  - 0.015612671024633547
---
header:
  stamp:
    sec: 1722533204
    nanosec: 284274257
  frame_id: map
child_frame_id: base_link
pose:
  pose:
    position:
      x: 0.048937809167189934
      y: 0.08839871379895099
      z: -9.772628836741547e-22
    orientation:
      x: -8.134712364167966e-13
      y: 2.52819266818217e-09
      z: -0.0006291474072056922
      w: 0.9999998020867504
  covariance:
  - 0.041225462507760824
  - 7.062763544612893e-05
  - -8.823188712995625e-20
  - -4.1680591380555444e-20
  - -6.058874879247225e-16
  - 1.117344392653542e-06
  - 7.062763544612889e-05
  - 0.04110979759046963
  - -2.0560027366540706e-22
  - -1.876479680347058e-19
  - -2.862078692403385e-16
  - 5.276500288544497e-07
  - -8.823188712995628e-20
  - -2.0560027366540697e-22
  - 9.998919725410843e-07
  - -1.4022713545983158e-20
  - -6.931229662139388e-21
  - 2.1228636295963693e-21
  - -4.168059138055508e-20
  - -1.876479680347057e-19
  - -1.402271354598316e-20
  - 2.7596248345012594e-08
  - -1.3291413734531925e-17
  - -1.3182626417857358e-12
  - -6.058874879247232e-16
  - -2.8620786924033864e-16
  - -6.931229662139391e-21
  - -1.3291413735168128e-17
  - 2.759619534049496e-08
  - -8.367604315898021e-09
  - 1.1173443926535424e-06
  - 5.276500288544498e-07
  - 2.122863629596368e-21
  - -1.318262641785739e-12
  - -8.367604315898013e-09
  - 15.149175679976706
twist:
  twist:
    linear:
      x: 4.535185140746002e-08
      y: -9.174719698387875e-08
      z: -7.796000374731036e-27
    angular:
      x: 1.6025779459360062e-17
      y: -1.6853017820183005e-14
      z: -4.228204068307098e-05
  covariance:
  - 0.0008718595004367438
  - 2.641157641536391e-13
  - 8.224458284758473e-24
  - -2.833900902123251e-28
  - -6.172132360084916e-25
  - 2.4436119855536805e-22
  - 2.641157641536388e-13
  - 0.000871859500007002
  - 7.822093495669287e-27
  - 9.27468090313704e-29
  - -1.0045275285382673e-25
  - -5.2305359715784116e-23
  - 8.224458284758476e-24
  - 7.822093495669295e-27
  - 9.991370852666179e-07
  - -4.625881677335816e-31
  - -2.28650394553993e-31
  - -1.5075969467573134e-27
  - -2.833900902123245e-28
  - 9.274680903137073e-29
  - -4.625881677335817e-31
  - 9.997120304499214e-07
  - -1.4765462607106458e-28
  - -3.888029555309386e-18
  - -6.17213236008491e-25
  - -1.0045275285382636e-25
  - -2.28650394553993e-31
  - -1.476546260781335e-28
  - 9.997120304499214e-07
  - 1.994324260589895e-15
  - 2.443611985553675e-22
  - -5.2305359715784445e-23
  - -1.5075969467573136e-27
  - -3.888029555309385e-18
  - 1.9943242605898945e-15
  - 0.015068124692494925
---
header:
  stamp:
    sec: 1722533204
    nanosec: 311800894
  frame_id: map
child_frame_id: base_link
pose:
  pose:
    position:
      x: 0.04914139467085791
      y: 0.08892683135180204
      z: 8.803973486043002e-12
    orientation:
      x: 2.394814844886132e-13
      y: 3.81792577572829e-09
      z: -0.0005610270465221729
      w: 0.9999998426243142
  covariance:
  - 0.005959894505278655
  - 7.111259282294567e-05
  - 4.854585736691687e-10
  - 4.8049239089072166e-20
  - -8.958218508975809e-17
  - 1.7235746727790273e-07
  - 7.111259282294567e-05
  - 0.005847332092868601
  - -1.004409870637372e-09
  - -1.5255821382513436e-19
  - -6.737532700031991e-17
  - 1.29277028129211e-07
  - 4.854585736691686e-10
  - -1.004409870637372e-09
  - 9.99895347371588e-07
  - -3.04561371769589e-20
  - -2.2909719877994484e-20
  - 2.300391027405339e-16
  - 4.804923908907217e-20
  - -1.525582138251342e-19
  - -3.045613717695888e-20
  - 2.576097172128145e-08
  - -1.533501749022928e-17
  - -1.6574439451254369e-12
  - -8.958218508975819e-17
  - -6.737532700032e-17
  - -2.290971987799448e-20
  - -1.533501749081945e-17
  - 2.576092047597086e-08
  - -8.012148154338906e-09
  - 1.7235746727790273e-07
  - 1.2927702812921103e-07
  - 2.3003910274053473e-16
  - -1.657443945125439e-12
  - -8.012148154338896e-09
  - 15.162942742144105
twist:
  twist:
    linear:
      x: 5.51215089158657e-08
      y: -7.724495565565877e-08
      z: -4.3925527674985456e-17
    angular:
      x: 6.343668061585813e-18
      y: 7.338772412431516e-11
      z: 0.003604719144018766
  covariance:
  - 0.0009373856925019288
  - 4.290370773283383e-13
  - -8.882422043184686e-20
  - -1.6456888978951072e-28
  - 5.81462794966679e-25
  - -5.689223249993836e-21
  - 4.29037077328338e-13
  - 0.000937385691808746
  - 1.8323348072613736e-19
  - 3.850381416177749e-29
  - 3.8752980863878047e-25
  - -3.2851561736513462e-21
  - -8.882422043184691e-20
  - 1.832334807261373e-19
  - 9.99163698081306e-07
  - -2.508591053778034e-31
  - -1.8865790890580068e-31
  - 8.912502800368218e-28
  - -1.6456888978951036e-28
  - 3.850381416177765e-29
  - -2.508591053778032e-31
  - 9.997209993789142e-07
  - 5.327257593489201e-26
  - -4.223680079802681e-22
  - 5.8146279496667955e-25
  - 3.8752980863878047e-25
  - -1.8865790890580068e-31
  - 5.327257593489037e-26
  - 9.997209993751894e-07
  - -1.8384070253063607e-10
  - -5.689223249993834e-21
  - -3.285156173651344e-21
  - 8.91250280036822e-28
  - -4.223680079802604e-22
  - -1.8384070253063601e-10
  - 0.00848218759935105
---
header:
  stamp:
    sec: 1722533204
    nanosec: 382488308
  frame_id: map
child_frame_id: base_link
pose:
  pose:
    position:
      x: 0.04914142683150286
      y: 0.08892677662052209
      z: 6.964615779161048e-21
    orientation:
      x: 6.379700198756268e-13
      y: 3.817011511454818e-09
      z: -0.00048359628744339345
      w: 0.9999998830673086
  covariance:
  - 0.04130710782689728
  - 7.111418281205961e-05
  - 2.2021268001954096e-19
  - -1.5729094769684054e-19
  - -5.762065788789757e-16
  - 1.140975124621266e-06
  - 7.111418281205962e-05
  - 0.04119454289862741
  - -1.2613450711535686e-18
  - -2.662670951102862e-19
  - -3.5230004134967876e-16
  - 6.983875147435659e-07
  - 2.202126800195407e-19
  - -1.261345071153568e-18
  - 9.999621757584863e-07
  - -2.699018945767775e-20
  - -1.5727888817800503e-20
  - 4.877256177125921e-21
  - -1.572909476968405e-19
  - -2.662670951102861e-19
  - -2.699018945767775e-20
  - 2.681175370924037e-08
  - -2.4611499657181384e-17
  - -2.775323945704725e-12
  - -5.762065788789763e-16
  - -3.5230004134967925e-16
  - -1.5727888817800506e-20
  - -2.461149965742304e-17
  - 2.6811706898542097e-08
  - -7.90365867796151e-09
  - 1.140975124621266e-06
  - 6.983875147435659e-07
  - 4.877256177125916e-21
  - -2.7753239457047243e-12
  - -7.9036586779615e-09
  - 15.198318763224293
twist:
  twist:
    linear:
      x: 4.889780612850692e-08
      y: -8.394262387428441e-08
      z: -4.480919116027838e-24
    angular:
      x: 8.051669739622825e-18
      y: -2.544374639312919e-14
      z: 0.0005298497914765369
  covariance:
  - 0.0009472372894514551
  - 2.816222116839333e-13
  - 6.180091650458965e-24
  - -3.9438825521569665e-28
  - -5.74511454026542e-25
  - 1.3185481956664778e-22
  - 2.8162221168393294e-13
  - 0.0009472372889941926
  - 1.0423836572373226e-26
  - 5.464773141949587e-29
  - -1.0326466326395318e-25
  - -1.2345939304566281e-22
  - 6.180091650458965e-24
  - 1.0423836572373226e-26
  - 9.99697566281957e-07
  - -8.96075162894054e-31
  - -5.221691497674767e-31
  - -6.534773182932683e-27
  - -3.9438825521569584e-28
  - 5.464773141949619e-29
  - -8.960751628940538e-31
  - 9.998991480557092e-07
  - -2.7340361364797173e-28
  - -6.096475992067758e-18
  - -5.745114540265415e-25
  - -1.0326466326395282e-25
  - -5.221691497674767e-31
  - -2.734036136506982e-28
  - 9.998991480557092e-07
  - 3.562175589671584e-15
  - 1.3185481956664726e-22
  - -1.23459393045663e-22
  - -6.534773182932679e-27
  - -6.0964759920677556e-18
  - 3.562175589671584e-15
  - 0.018865954053330837
---
header:
  stamp:
    sec: 1722533204
    nanosec: 405151694
  frame_id: map
child_frame_id: base_link
pose:
  pose:
    position:
      x: 0.04887847447115734
      y: 0.08879925587072628
      z: -6.681159798404524e-14
    orientation:
      x: 5.468014034854387e-13
      y: 3.464013665623998e-09
      z: -0.00048758433114254963
      w: 0.999999881130753
  covariance:
  - 0.002245608632627623
  - 7.1103580770707e-05
  - 1.2798079090973732e-09
  - 7.264870123931919e-20
  - -3.602253014180748e-17
  - 7.430664562496242e-08
  - 7.110358077070697e-05
  - 0.0021315827186505934
  - -2.665675397732844e-09
  - -1.8236176535613808e-19
  - -1.3607034247800903e-17
  - 2.7959376576956376e-08
  - 1.2798079090973726e-09
  - -2.6656753977328435e-09
  - 9.997232127613453e-07
  - -3.356759566219834e-20
  - -1.286271343716495e-20
  - -8.71170500628322e-15
  - 7.264870123931909e-20
  - -1.82361765356138e-19
  - -3.356759566219831e-20
  - 2.5107325364382164e-08
  - -2.19648538105874e-17
  - -2.5820589580255715e-12
  - -3.60225301418075e-17
  - -1.3607034247800912e-17
  - -1.2862713437164946e-20
  - -2.196485381079034e-17
  - 2.5107284568922926e-08
  - -7.397562116171802e-09
  - 7.43066456249624e-08
  - 2.7959376576956383e-08
  - -8.711705006283207e-15
  - -2.5820589580255703e-12
  - -7.397562116171796e-09
  - 15.209656287631692
twist:
  twist:
    linear:
      x: 3.417370493122107e-08
      y: -8.686473121079583e-08
      z: 3.326797277834884e-19
    angular:
      x: 3.81150689025268e-18
      y: -2.6235634378134506e-11
      z: -0.0003621490313178811
  covariance:
  - 0.0009260005759598606
  - 4.91669846107345e-13
  - -3.113271746112689e-19
  - -1.978382440288949e-28
  - 3.067257895368764e-24
  - -1.1419759540628524e-20
  - 4.916698461073448e-13
  - 0.000926000575168953
  - 6.468399582111008e-19
  - 1.6297505976505252e-29
  - 1.890286183099168e-24
  - -6.885066223801763e-21
  - -3.1132717461126904e-19
  - 6.46839958211101e-19
  - 9.977921195438965e-07
  - -2.711007759988944e-31
  - -1.0573196580320972e-31
  - 2.3737419635241984e-28
  - -1.9783824402889465e-28
  - 1.629750597650541e-29
  - -2.7110077599889432e-31
  - 9.992624115207146e-07
  - 1.6594266903408579e-25
  - -5.954563776175693e-22
  - 3.067257895368767e-24
  - 1.890286183099169e-24
  - -1.057319658032097e-31
  - 1.6594266903408526e-25
  - 9.992624114936222e-07
  - -6.044532718993083e-10
  - -1.1419759540628533e-20
  - -6.885066223801757e-21
  - 2.3737419635241975e-28
  - -5.954563776175677e-22
  - -6.044532718993085e-10
  - 0.0038918185553733485
---
header:
  stamp:
    sec: 1722533204
    nanosec: 480821416
  frame_id: map
child_frame_id: base_link
pose:
  pose:
    position:
      x: 0.04887849735510519
      y: 0.0887992093351921
      z: -1.1292132564004617e-21
    orientation:
      x: 4.752278853914982e-13
      y: 3.1937245526677905e-09
      z: -0.0004955230940270667
      w: 0.9999998772284241
  covariance:
  - 0.040083225728670485
  - 7.110533260178902e-05
  - -1.2364959448063272e-19
  - -5.577478449348315e-20
  - -4.133720458051904e-16
  - 9.13465848233121e-07
  - 7.110533260178904e-05
  - 0.03996919700579582
  - -3.8174849231434196e-22
  - -2.2945115129365687e-19
  - -1.997831782654367e-16
  - 4.415486204800967e-07
  - -1.2364959448063272e-19
  - -3.8174849231434234e-22
  - 9.999037202358382e-07
  - -1.1247232442873789e-20
  - -5.62460711787332e-21
  - 1.58055831883839e-21
  - -5.577478449348332e-20
  - -2.2945115129365677e-19
  - -1.1247232442873783e-20
  - 2.5279822428316485e-08
  - -1.910767678247789e-17
  - -2.1250760117907966e-12
  - -4.133720458051907e-16
  - -1.9978317826543685e-16
  - -5.624607117873318e-21
  - -1.9107676782629602e-17
  - 2.527978730978717e-08
  - -6.991413804230854e-09
  - 9.13465848233121e-07
  - 4.4154862048009674e-07
  - 1.5805583188383891e-21
  - -2.125076011790795e-12
  - -6.991413804230853e-09
  - 15.247512533423517
twist:
  twist:
    linear:
      x: 3.741078904735938e-08
      y: -7.480284830158467e-08
      z: 1.1322614548286546e-26
    angular:
      x: 7.381049645361029e-18
      y: -2.1288758243993438e-14
      z: -3.155872623286229e-05
  covariance:
  - 0.0008824812602683331
  - 2.2130428622483641e-13
  - 9.429171077708357e-24
  - -3.0060955925504564e-28
  - -4.576180189640396e-25
  - -2.162333138399346e-22
  - 2.2130428622483619e-13
  - 0.0008824812599090477
  - 3.290709455989223e-27
  - 3.676838900654046e-29
  - -9.665247070933432e-26
  - -1.9237141927683533e-22
  - 9.429171077708357e-24
  - 3.290709455989221e-27
  - 9.99230798568512e-07
  - -3.708570853930915e-31
  - -1.8546089830251707e-31
  - -6.523090688811357e-28
  - -3.0060955925504524e-28
  - 3.676838900654073e-29
  - -3.708570853930913e-31
  - 9.997433363116973e-07
  - -2.1225298683070562e-28
  - -4.640058357761476e-18
  - -4.576180189640393e-25
  - -9.66524707093341e-26
  - -1.85460898302517e-31
  - -2.1225298683239135e-28
  - 9.997433363116973e-07
  - 9.753693799994888e-16
  - -2.162333138399348e-22
  - -1.9237141927683524e-22
  - -6.523090688811358e-28
  - -4.640058357761476e-18
  - 9.75369379999489e-16
  - 0.015122896902550354
---
header:
  stamp:
    sec: 1722533204
    nanosec: 531327090
  frame_id: map
child_frame_id: base_link
pose:
  pose:
    position:
      x: 0.048520465907413136
      y: 0.08733685970961991
      z: -1.6634111951243668e-15
    orientation:
      x: -1.1181718848788207e-13
      y: 1.9492439809846197e-09
      z: -0.0005234789884178952
      w: 0.999999862984865
  covariance:
  - 0.015721396106268788
  - 7.151614304341904e-05
  - 3.01154977222225e-14
  - 7.836481037088133e-20
  - -1.7802460498753076e-16
  - 4.17404278164981e-07
  - 7.1516143043419e-05
  - 0.01560277249575605
  - -6.381853140987179e-14
  - -2.707368625886018e-19
  - -4.2621852334182555e-17
  - 9.96139994939656e-08
  - 3.011549772222251e-14
  - -6.38185314098718e-14
  - 9.999017338250457e-07
  - -1.3081431133421432e-20
  - -3.9805329673167676e-21
  - -1.5403309456123892e-20
  - 7.836481037088124e-20
  - -2.707368625886019e-19
  - -1.3081431133421436e-20
  - 2.2922167088924644e-08
  - -1.7303268520429926e-17
  - -1.6131827827588283e-12
  - -1.7802460498753079e-16
  - -4.262185233418256e-17
  - -3.98053296731677e-21
  - -1.7303268520533603e-17
  - 2.2922118706628286e-08
  - -6.854927440307444e-09
  - 4.17404278164981e-07
  - 9.961399949396562e-08
  - -1.5403309456124172e-20
  - -1.6131827827588273e-12
  - -6.854927440307447e-09
  - 15.272770784711104
twist:
  twist:
    linear:
      x: 2.995331339387379e-08
      y: -9.609480812420534e-08
      z: 8.283904797476573e-20
    angular:
      x: 7.544987120425959e-18
      y: -1.7605366529895214e-14
      z: -0.00048257960747052437
  covariance:
  - 0.0008805509617398743
  - 2.0175856237251283e-13
  - -1.8957418528688898e-23
  - -2.501072638577927e-28
  - -4.113502046749542e-25
  - 5.687750105135246e-22
  - 2.0175856237251268e-13
  - 0.0008805509614111722
  - 5.286388904966968e-23
  - 3.7625111949544105e-29
  - -9.300061239350236e-26
  - -1.1777958951489467e-22
  - -1.8957418528688898e-23
  - 5.28638890496697e-23
  - 9.992149503773599e-07
  - -4.328953145614705e-31
  - -1.316904184757429e-31
  - -9.894313003444003e-27
  - -2.501072638577922e-28
  - 3.7625111949544324e-29
  - -4.328953145614706e-31
  - 9.99738042646452e-07
  - -1.6321444420216207e-28
  - -1.3050245849697415e-18
  - -4.113502046749536e-25
  - -9.300061239350215e-26
  - -1.316904184757429e-31
  - -1.6321444420331037e-28
  - 9.997380426464518e-07
  - 4.13318884494788e-15
  - 5.687750105135225e-22
  - -1.1777958951489575e-22
  - -9.894313003443997e-27
  - -1.3050245849697411e-18
  - 4.1331888449478735e-15
  - 0.013350882505697863
---
header:
  stamp:
    sec: 1722533204
    nanosec: 591483254
  frame_id: map
child_frame_id: base_link
pose:
  pose:
    position:
      x: 0.048520471752901986
      y: 0.08733684144128602
      z: -4.1270501403201434e-22
    orientation:
      x: -1.223534781127094e-13
      y: 1.7143318682910962e-09
      z: -0.0005271526913555638
      w: 0.9999998610550104
  covariance:
  - 0.045800348818448494
  - 7.151657270647492e-05
  - -4.9045797983081335e-20
  - 3.8634951614191127e-20
  - -3.1400512610061946e-16
  - 7.999690204732691e-07
  - 7.151657270647488e-05
  - 0.0456817244951341
  - 6.773054993255092e-24
  - -2.5262066260236723e-19
  - -8.764039067610474e-17
  - 2.2211920456781227e-07
  - -4.9045797983081347e-20
  - 6.773054993255087e-24
  - 9.998896806677989e-07
  - -1.0012955404873659e-20
  - -3.2211455292104315e-21
  - 9.562005689053777e-22
  - 3.863495161419096e-20
  - -2.5262066260236723e-19
  - -1.0012955404873657e-20
  - 2.1208811132268666e-08
  - -1.3634897203936364e-17
  - -1.300687656516834e-12
  - -3.140051261006197e-16
  - -8.764039067610475e-17
  - -3.2211455292104322e-21
  - -1.3634897204023626e-17
  - 2.120877171215248e-08
  - -6.213983443242961e-09
  - 7.999690204732687e-07
  - 2.221192045678123e-07
  - 9.562005689053773e-22
  - -1.3006876565168332e-12
  - -6.213983443242958e-09
  - 15.302867715495546
twist:
  twist:
    linear:
      x: 2.8560338832661942e-08
      y: -8.877992443819261e-08
      z: 4.118389778784418e-27
    angular:
      x: 6.837904996799212e-18
      y: -1.1424733362419055e-14
