header:
  stamp:
    sec: 1722451208
    nanosec: 901338748
  frame_id: odom
child_frame_id: ''
pose:
  pose:
    position:
      x: -0.07890735491966638
      y: 1.5236675400533655
      z: 0.0
    orientation:
      x: 0.0
      y: 0.0
      z: 0.0
      w: 1.0
  covariance:
  - 3.068059594148148e-05
  - -9.742401486947376e-07
  - 6.9502751783206025e-06
  - 0.0
  - 0.0
  - 0.0
  - -9.742401486947378e-07
  - 3.69832560093018e-05
  - -9.591407938114173e-06
  - 0.0
  - 0.0
  - 0.0
  - 6.9502751783206025e-06
  - -9.591407938114173e-06
  - 8.98371945368126e-05
  - 0.0
  - 0.0
  - 0.0
  - 0.0
  - 0.0
  - 0.0
  - 0.0
  - 0.0
  - 0.0
  - 0.0
  - 0.0
  - 0.0
  - 0.0
  - 0.0
  - 0.0
  - 0.0
  - 0.0
  - 0.0
  - 0.0
  - 0.0
  - 0.0
twist:
  twist:
    linear:
      x: 0.0
      y: 0.0
      z: 0.0
    angular:
      x: 0.0
      y: 0.0
      z: 0.0
  covariance:
  - 0.0
  - 0.0
  - 0.0
  - 0.0
  - 0.0
  - 0.0
  - 0.0
  - 0.0
  - 0.0
  - 0.0
  - 0.0
  - 0.0
  - 0.0
  - 0.0
  - 0.0
  - 0.0
  - 0.0
  - 0.0
  - 0.0
  - 0.0
  - 0.0
  - 0.0
  - 0.0
  - 0.0
  - 0.0
  - 0.0
  - 0.0
  - 0.0
  - 0.0
  - 0.0
  - 0.0
  - 0.0
  - 0.0
  - 0.0
  - 0.0
  - 0.0
---
header:
  stamp:
    sec: 1722451209
    nanosec: 1817614
  frame_id: odom
child_frame_id: ''
pose:
  pose:
    position:
      x: -0.08093553730143044
      y: 1.523490040215192
      z: 0.0
    orientation:
      x: 0.0
      y: 0.0
      z: 0.0
      w: 1.0
  covariance:
  - 3.05580286508864e-05
  - -1.0205307583988824e-06
  - 6.959548920800202e-06
  - 0.0
  - 0.0
  - 0.0
  - -1.0205307583988822e-06
  - 3.672605833020338e-05
  - -9.663982247853308e-06
  - 0.0
  - 0.0
  - 0.0
  - 6.959548920800202e-06
  - -9.663982247853308e-06
  - 8.892669575288892e-05
  - 0.0
  - 0.0
  - 0.0
  - 0.0
  - 0.0
  - 0.0
  - 0.0
  - 0.0
  - 0.0
  - 0.0
  - 0.0
  - 0.0
  - 0.0
  - 0.0
  - 0.0
  - 0.0
  - 0.0
  - 0.0
  - 0.0
  - 0.0
  - 0.0
twist:
  twist:
    linear:
      x: 0.0
      y: 0.0
      z: 0.0
    angular:
      x: 0.0
      y: 0.0
      z: 0.0
  covariance:
  - 0.0
  - 0.0
  - 0.0
  - 0.0
  - 0.0
  - 0.0
  - 0.0
  - 0.0
  - 0.0
  - 0.0
  - 0.0
  - 0.0
  - 0.0
  - 0.0
  - 0.0
  - 0.0
  - 0.0
  - 0.0
  - 0.0
  - 0.0
  - 0.0
  - 0.0
  - 0.0
  - 0.0
  - 0.0
  - 0.0
  - 0.0
  - 0.0
  - 0.0
  - 0.0
  - 0.0
  - 0.0
  - 0.0
  - 0.0
  - 0.0
  - 0.0
---
header:
  stamp:
    sec: 1722451209
    nanosec: 101675834
  frame_id: odom
child_frame_id: ''
pose:
  pose:
    position:
      x: -0.07971419412499103
      y: 1.5234262474127986
      z: 0.0
    orientation:
      x: 0.0
      y: 0.0
      z: 0.0
      w: 1.0
  covariance:
  - 3.0356901068650252e-05
  - -1.0784642017296968e-06
  - 7.107426566663847e-06
  - 0.0
  - 0.0
  - 0.0
  - -1.0784642017296968e-06
  - 3.6439567604041596e-05
  - -9.592577549247787e-06
  - 0.0
  - 0.0
  - 0.0
  - 7.107426566663847e-06
  - -9.592577549247787e-06
  - 8.786952093942091e-05
  - 0.0
  - 0.0
  - 0.0
  - 0.0
  - 0.0
  - 0.0
  - 0.0
  - 0.0
  - 0.0
  - 0.0
  - 0.0
  - 0.0
  - 0.0
  - 0.0
  - 0.0
  - 0.0
  - 0.0
  - 0.0
  - 0.0
  - 0.0
  - 0.0
twist:
  twist:
    linear:
      x: 0.0
      y: 0.0
      z: 0.0
    angular:
      x: 0.0
      y: 0.0
      z: 0.0
  covariance:
  - 0.0
  - 0.0
  - 0.0
  - 0.0
  - 0.0
  - 0.0
  - 0.0
  - 0.0
  - 0.0
  - 0.0
  - 0.0
  - 0.0
  - 0.0
  - 0.0
  - 0.0
  - 0.0
  - 0.0
  - 0.0
  - 0.0
  - 0.0
  - 0.0
  - 0.0
  - 0.0
  - 0.0
  - 0.0
  - 0.0
  - 0.0
  - 0.0
  - 0.0
  - 0.0
  - 0.0
  - 0.0
  - 0.0
  - 0.0
  - 0.0
  - 0.0
---
header:
  stamp:
    sec: 1722451209
    nanosec: 201619359
  frame_id: odom
child_frame_id: ''
pose:
  pose:
    position:
      x: -0.0793634540852699
      y: 1.5235521212466934
      z: 0.0
    orientation:
      x: 0.0
      y: 0.0
      z: 0.0
      w: 1.0
  covariance:
  - 3.044437449546187e-05
  - -9.61480802366438e-07
  - 7.165620034229446e-06
  - 0.0
  - 0.0
  - 0.0
  - -9.61480802366438e-07
  - 3.66963251889252e-05
  - -9.5782732186011e-06
  - 0.0
  - 0.0
  - 0.0
  - 7.165620034229446e-06
  - -9.5782732186011e-06
  - 8.834514301270247e-05
  - 0.0
  - 0.0
  - 0.0
  - 0.0
  - 0.0
  - 0.0
  - 0.0
  - 0.0
  - 0.0
  - 0.0
  - 0.0
  - 0.0
  - 0.0
  - 0.0
  - 0.0
  - 0.0
  - 0.0
  - 0.0
  - 0.0
  - 0.0
  - 0.0
twist:
  twist:
    linear:
      x: 0.0
      y: 0.0
      z: 0.0
    angular:
      x: 0.0
      y: 0.0
      z: 0.0
  covariance:
  - 0.0
  - 0.0
  - 0.0
  - 0.0
  - 0.0
  - 0.0
  - 0.0
  - 0.0
  - 0.0
  - 0.0
  - 0.0
  - 0.0
  - 0.0
  - 0.0
  - 0.0
  - 0.0
  - 0.0
  - 0.0
  - 0.0
  - 0.0
  - 0.0
  - 0.0
  - 0.0
  - 0.0
  - 0.0
  - 0.0
  - 0.0
  - 0.0
  - 0.0
  - 0.0
  - 0.0
  - 0.0
  - 0.0
  - 0.0
  - 0.0
  - 0.0
---
header:
  stamp:
    sec: 1722451209
    nanosec: 301960726
  frame_id: odom
child_frame_id: ''
pose:
  pose:
    position:
      x: -0.07934727328685853
      y: 1.5224861322217562
      z: 0.0
    orientation:
      x: 0.0
      y: 0.0
      z: 0.0
      w: 1.0
  covariance:
  - 3.0429862810922334e-05
  - -9.286283411614962e-07
  - 7.0756878648344264e-06
  - 0.0
  - 0.0
  - 0.0
  - -9.286283411614965e-07
  - 3.6777350039994796e-05
  - -9.569332057164254e-06
  - 0.0
  - 0.0
  - 0.0
  - 7.0756878648344264e-06
  - -9.569332057164254e-06
  - 8.842817624099553e-05
  - 0.0
  - 0.0
  - 0.0
  - 0.0
  - 0.0
  - 0.0
  - 0.0
  - 0.0
  - 0.0
  - 0.0
  - 0.0
  - 0.0
  - 0.0
  - 0.0
  - 0.0
  - 0.0
  - 0.0
  - 0.0
  - 0.0
  - 0.0
  - 0.0
twist:
  twist:
    linear:
      x: 0.0
      y: 0.0
      z: 0.0
    angular:
      x: 0.0
      y: 0.0
      z: 0.0
  covariance:
  - 0.0
  - 0.0
  - 0.0
  - 0.0
  - 0.0
  - 0.0
  - 0.0
  - 0.0
  - 0.0
  - 0.0
  - 0.0
  - 0.0
  - 0.0
  - 0.0
  - 0.0
  - 0.0
  - 0.0
  - 0.0
  - 0.0
  - 0.0
  - 0.0
  - 0.0
  - 0.0
  - 0.0
  - 0.0
  - 0.0
  - 0.0
  - 0.0
  - 0.0
  - 0.0
  - 0.0
  - 0.0
  - 0.0
  - 0.0
  - 0.0
  - 0.0
---
header:
  stamp:
    sec: 1722451209
    nanosec: 401661432
  frame_id: odom
child_frame_id: ''
pose:
  pose:
    position:
      x: -0.07829451300060186
      y: 1.5226769890882947
      z: 0.0
    orientation:
      x: 0.0
      y: 0.0
      z: 0.0
      w: 1.0
  covariance:
  - 3.0423309639064714e-05
  - -9.474713392550452e-07
  - 7.019218238523381e-06
  - 0.0
  - 0.0
  - 0.0
  - -9.474713392550454e-07
  - 3.681465504670876e-05
  - -9.699194819097344e-06
  - 0.0
  - 0.0
  - 0.0
  - 7.019218238523381e-06
  - -9.699194819097344e-06
  - 8.871354657458141e-05
  - 0.0
  - 0.0
  - 0.0
  - 0.0
  - 0.0
  - 0.0
  - 0.0
  - 0.0
  - 0.0
  - 0.0
  - 0.0
  - 0.0
  - 0.0
  - 0.0
  - 0.0
  - 0.0
  - 0.0
  - 0.0
  - 0.0
  - 0.0
  - 0.0
twist:
  twist:
    linear:
      x: 0.0
      y: 0.0
      z: 0.0
    angular:
      x: 0.0
      y: 0.0
      z: 0.0
  covariance:
  - 0.0
  - 0.0
  - 0.0
  - 0.0
  - 0.0
  - 0.0
  - 0.0
  - 0.0
  - 0.0
  - 0.0
  - 0.0
  - 0.0
  - 0.0
  - 0.0
  - 0.0
  - 0.0
  - 0.0
  - 0.0
  - 0.0
  - 0.0
  - 0.0
  - 0.0
  - 0.0
  - 0.0
  - 0.0
  - 0.0
  - 0.0
  - 0.0
  - 0.0
  - 0.0
  - 0.0
  - 0.0
  - 0.0
  - 0.0
  - 0.0
  - 0.0
---
header:
  stamp:
    sec: 1722451209
    nanosec: 501881012
  frame_id: odom
child_frame_id: ''
pose:
  pose:
    position:
      x: -0.07774203126175139
      y: 1.5219698479645827
      z: 0.0
    orientation:
      x: 0.0
      y: 0.0
      z: 0.0
      w: 1.0
  covariance:
  - 3.050942871159622e-05
  - -9.868947957361717e-07
  - 7.0062603608382614e-06
  - 0.0
  - 0.0
  - 0.0
  - -9.868947957361715e-07
  - 3.695114025940439e-05
  - -9.810461296248188e-06
  - 0.0
  - 0.0
  - 0.0
  - 7.0062603608382614e-06
  - -9.810461296248188e-06
  - 8.924213761929423e-05
  - 0.0
  - 0.0
  - 0.0
  - 0.0
  - 0.0
  - 0.0
  - 0.0
  - 0.0
  - 0.0
  - 0.0
  - 0.0
  - 0.0
  - 0.0
  - 0.0
  - 0.0
  - 0.0
  - 0.0
  - 0.0
  - 0.0
  - 0.0
  - 0.0
twist:
  twist:
    linear:
      x: 0.0
      y: 0.0
      z: 0.0
    angular:
      x: 0.0
      y: 0.0
      z: 0.0
  covariance:
  - 0.0
  - 0.0
  - 0.0
  - 0.0
  - 0.0
  - 0.0
  - 0.0
  - 0.0
  - 0.0
  - 0.0
  - 0.0
  - 0.0
  - 0.0
  - 0.0
  - 0.0
  - 0.0
  - 0.0
  - 0.0
  - 0.0
  - 0.0
  - 0.0
  - 0.0
  - 0.0
  - 0.0
  - 0.0
  - 0.0
  - 0.0
  - 0.0
  - 0.0
  - 0.0
  - 0.0
  - 0.0
  - 0.0
  - 0.0
  - 0.0
  - 0.0
---
header:
  stamp:
    sec: 1722451209
    nanosec: 601170549
  frame_id: odom
child_frame_id: ''
pose:
  pose:
    position:
      x: -0.07617742237491343
      y: 1.5221600277596095
      z: 0.0
    orientation:
      x: 0.0
      y: 0.0
      z: 0.0
      w: 1.0
  covariance:
  - 3.0611075786338e-05
  - -9.55835230647055e-07
  - 6.785628034611834e-06
  - 0.0
  - 0.0
  - 0.0
  - -9.558352306470547e-07
  - 3.6975851102569326e-05
  - -9.738428515117232e-06
  - 0.0
  - 0.0
  - 0.0
  - 6.785628034611834e-06
  - -9.738428515117232e-06
  - 8.963159780250862e-05
  - 0.0
  - 0.0
  - 0.0
  - 0.0
  - 0.0
  - 0.0
  - 0.0
  - 0.0
  - 0.0
  - 0.0
  - 0.0
  - 0.0
  - 0.0
  - 0.0
  - 0.0
  - 0.0
  - 0.0
  - 0.0
  - 0.0
  - 0.0
  - 0.0
twist:
  twist:
    linear:
      x: 0.0
      y: 0.0
      z: 0.0
    angular:
      x: 0.0
      y: 0.0
      z: 0.0
  covariance:
  - 0.0
  - 0.0
  - 0.0
  - 0.0
  - 0.0
  - 0.0
  - 0.0
  - 0.0
  - 0.0
  - 0.0
  - 0.0
  - 0.0
  - 0.0
  - 0.0
  - 0.0
  - 0.0
  - 0.0
  - 0.0
  - 0.0
  - 0.0
  - 0.0
  - 0.0
  - 0.0
  - 0.0
  - 0.0
  - 0.0
  - 0.0
  - 0.0
  - 0.0
  - 0.0
  - 0.0
  - 0.0
  - 0.0
  - 0.0
  - 0.0
  - 0.0
---
header:
  stamp:
    sec: 1722451209
    nanosec: 701714972
  frame_id: odom
child_frame_id: ''
pose:
  pose:
    position:
      x: -0.07410230506067905
      y: 1.5218480672934034
      z: 0.0
    orientation:
      x: 0.0
      y: 0.0
      z: 0.0
      w: 1.0
  covariance:
  - 3.074893714429522e-05
  - -8.723191793608512e-07
  - 6.745746449388231e-06
  - 0.0
  - 0.0
  - 0.0
  - -8.72319179360851e-07
  - 3.718550767015955e-05
  - -9.754849781886014e-06
  - 0.0
  - 0.0
  - 0.0
  - 6.745746449388231e-06
  - -9.754849781886014e-06
  - 9.013672388391569e-05
  - 0.0
  - 0.0
  - 0.0
  - 0.0
  - 0.0
  - 0.0
  - 0.0
  - 0.0
  - 0.0
  - 0.0
  - 0.0
  - 0.0
  - 0.0
  - 0.0
  - 0.0
  - 0.0
  - 0.0
  - 0.0
  - 0.0
  - 0.0
  - 0.0
twist:
  twist:
    linear:
      x: 0.0
      y: 0.0
      z: 0.0
    angular:
      x: 0.0
      y: 0.0
      z: 0.0
  covariance:
  - 0.0
  - 0.0
  - 0.0
  - 0.0
  - 0.0
  - 0.0
  - 0.0
  - 0.0
  - 0.0
  - 0.0
  - 0.0
  - 0.0
  - 0.0
  - 0.0
  - 0.0
  - 0.0
  - 0.0
  - 0.0
  - 0.0
  - 0.0
  - 0.0
  - 0.0
  - 0.0
  - 0.0
  - 0.0
  - 0.0
  - 0.0
  - 0.0
  - 0.0
  - 0.0
  - 0.0
  - 0.0
  - 0.0
  - 0.0
  - 0.0
  - 0.0
---
header:
  stamp:
    sec: 1722451209
    nanosec: 801635818
  frame_id: odom
child_frame_id: ''
pose:
  pose:
    position:
      x: -0.07263932837961051
      y: 1.5212861901395895
      z: 0.0
    orientation:
      x: 0.0
      y: 0.0
      z: 0.0
      w: 1.0
  covariance:
  - 3.08467248351122e-05
  - -9.600378712432193e-07
  - 6.897667530958732e-06
  - 0.0
  - 0.0
  - 0.0
  - -9.600378712432193e-07
  - 3.7157765623294306e-05
  - -9.741523389244642e-06
  - 0.0
  - 0.0
  - 0.0
  - 6.897667530958732e-06
  - -9.741523389244642e-06
  - 9.016710100695491e-05
  - 0.0
  - 0.0
  - 0.0
  - 0.0
  - 0.0
  - 0.0
  - 0.0
  - 0.0
  - 0.0
  - 0.0
  - 0.0
  - 0.0
  - 0.0
  - 0.0
  - 0.0
  - 0.0
  - 0.0
  - 0.0
  - 0.0
  - 0.0
  - 0.0
twist:
  twist:
    linear:
      x: 0.0
      y: 0.0
      z: 0.0
    angular:
      x: 0.0
      y: 0.0
      z: 0.0
  covariance:
  - 0.0
  - 0.0
  - 0.0
  - 0.0
  - 0.0
  - 0.0
  - 0.0
  - 0.0
  - 0.0
  - 0.0
  - 0.0
  - 0.0
  - 0.0
  - 0.0
  - 0.0
  - 0.0
  - 0.0
  - 0.0
  - 0.0
  - 0.0
  - 0.0
  - 0.0
  - 0.0
  - 0.0
  - 0.0
  - 0.0
  - 0.0
  - 0.0
  - 0.0
  - 0.0
  - 0.0
  - 0.0
  - 0.0
  - 0.0
  - 0.0
  - 0.0
---
header:
  stamp:
    sec: 1722451209
    nanosec: 901616858
  frame_id: odom
child_frame_id: ''
pose:
  pose:
    position:
      x: -0.07042218111311827
      y: 1.5205309676253178
      z: 0.0
    orientation:
      x: 0.0
      y: 0.0
      z: 0.0
      w: 1.0
  covariance:
  - 3.076892916601551e-05
  - -1.005811365438383e-06
  - 6.952942904249151e-06
  - 0.0
  - 0.0
  - 0.0
  - -1.0058113654383828e-06
  - 3.689506466594125e-05
  - -9.655706900511442e-06
  - 0.0
  - 0.0
  - 0.0
  - 6.952942904249151e-06
  - -9.655706900511442e-06
  - 8.9669854787644e-05
  - 0.0
  - 0.0
  - 0.0
  - 0.0
  - 0.0
  - 0.0
  - 0.0
  - 0.0
  - 0.0
  - 0.0
  - 0.0
  - 0.0
  - 0.0
  - 0.0
  - 0.0
  - 0.0
  - 0.0
  - 0.0
  - 0.0
  - 0.0
  - 0.0
twist:
  twist:
    linear:
      x: 0.0
      y: 0.0
      z: 0.0
    angular:
      x: 0.0
      y: 0.0
      z: 0.0
  covariance:
  - 0.0
  - 0.0
  - 0.0
  - 0.0
  - 0.0
  - 0.0
  - 0.0
  - 0.0
  - 0.0
  - 0.0
  - 0.0
  - 0.0
  - 0.0
  - 0.0
  - 0.0
  - 0.0
  - 0.0
  - 0.0
  - 0.0
  - 0.0
  - 0.0
  - 0.0
  - 0.0
  - 0.0
  - 0.0
  - 0.0
  - 0.0
  - 0.0
  - 0.0
  - 0.0
  - 0.0
  - 0.0
  - 0.0
  - 0.0
  - 0.0
  - 0.0
---
header:
  stamp:
    sec: 1722451210
    nanosec: 1303498
  frame_id: odom
child_frame_id: ''
pose:
  pose:
    position:
      x: -0.06858209096682999
      y: 1.5194713339456298
      z: 0.0
    orientation:
      x: 0.0
      y: 0.0
      z: 0.0
      w: 1.0
  covariance:
  - 3.063756763182982e-05
  - -9.676090518341525e-07
  - 6.9861616531570965e-06
  - 0.0
  - 0.0
  - 0.0
  - -9.67609051834152e-07
  - 3.67715530428809e-05
  - -9.616171153118798e-06
  - 0.0
  - 0.0
  - 0.0
  - 6.9861616531570965e-06
  - -9.616171153118798e-06
  - 8.918185631046072e-05
  - 0.0
  - 0.0
  - 0.0
  - 0.0
  - 0.0
  - 0.0
  - 0.0
  - 0.0
  - 0.0
  - 0.0
  - 0.0
  - 0.0
  - 0.0
  - 0.0
  - 0.0
  - 0.0
  - 0.0
  - 0.0
  - 0.0
  - 0.0
  - 0.0
twist:
  twist:
    linear:
      x: 0.0
      y: 0.0
      z: 0.0
    angular:
      x: 0.0
      y: 0.0
      z: 0.0
  covariance:
  - 0.0
  - 0.0
  - 0.0
  - 0.0
  - 0.0
  - 0.0
  - 0.0
  - 0.0
  - 0.0
  - 0.0
  - 0.0
  - 0.0
  - 0.0
  - 0.0
  - 0.0
  - 0.0
  - 0.0
  - 0.0
  - 0.0
  - 0.0
  - 0.0
  - 0.0
  - 0.0
  - 0.0
  - 0.0
  - 0.0
  - 0.0
  - 0.0
  - 0.0
  - 0.0
  - 0.0
  - 0.0
  - 0.0
  - 0.0
  - 0.0
  - 0.0
---
header:
  stamp:
    sec: 1722451210
    nanosec: 101172512
  frame_id: odom
child_frame_id: ''
pose:
  pose:
    position:
      x: -0.06821946597048822
      y: 1.5206518570207932
      z: 0.0
    orientation:
      x: 0.0
      y: 0.0
      z: 0.0
      w: 1.0
  covariance:
  - 3.0512220318051663e-05
  - -1.026343844322068e-06
  - 7.121728828567922e-06
  - 0.0
  - 0.0
  - 0.0
  - -1.0263438443220678e-06
  - 3.645466037691138e-05
  - -9.649801815745849e-06
  - 0.0
  - 0.0
  - 0.0
  - 7.121728828567922e-06
  - -9.649801815745849e-06
  - 8.82444583112374e-05
  - 0.0
  - 0.0
  - 0.0
  - 0.0
  - 0.0
  - 0.0
  - 0.0
  - 0.0
  - 0.0
  - 0.0
  - 0.0
  - 0.0
  - 0.0
  - 0.0
  - 0.0
  - 0.0
  - 0.0
  - 0.0
  - 0.0
  - 0.0
  - 0.0
twist:
  twist:
    linear:
      x: 0.0
      y: 0.0
      z: 0.0
    angular:
      x: 0.0
      y: 0.0
      z: 0.0
  covariance:
  - 0.0
  - 0.0
  - 0.0
  - 0.0
  - 0.0
  - 0.0
  - 0.0
  - 0.0
  - 0.0
  - 0.0
  - 0.0
  - 0.0
  - 0.0
  - 0.0
  - 0.0
  - 0.0
  - 0.0
  - 0.0
  - 0.0
  - 0.0
  - 0.0
  - 0.0
  - 0.0
  - 0.0
  - 0.0
  - 0.0
  - 0.0
  - 0.0
  - 0.0
  - 0.0
  - 0.0
  - 0.0
  - 0.0
  - 0.0
  - 0.0
  - 0.0
---
header:
  stamp:
    sec: 1722451210
    nanosec: 201244341
  frame_id: odom
child_frame_id: ''
pose:
  pose:
    position:
      x: -0.06784177822848592
      y: 1.5203134190537908
      z: 0.0
    orientation:
      x: 0.0
      y: 0.0
      z: 0.0
      w: 1.0
  covariance:
  - 3.047809760796273e-05
  - -9.689071013454033e-07
  - 7.051846923199057e-06
  - 0.0
  - 0.0
  - 0.0
  - -9.689071013454037e-07
  - 3.6438327958924746e-05
  - -9.531471946559362e-06
  - 0.0
  - 0.0
  - 0.0
  - 7.051846923199057e-06
  - -9.531471946559362e-06
  - 8.792252629064023e-05
  - 0.0
  - 0.0
  - 0.0
  - 0.0
  - 0.0
  - 0.0
  - 0.0
  - 0.0
  - 0.0
  - 0.0
  - 0.0
  - 0.0
  - 0.0
  - 0.0
  - 0.0
  - 0.0
  - 0.0
  - 0.0
  - 0.0
  - 0.0
  - 0.0
twist:
  twist:
    linear:
      x: 0.0
      y: 0.0
      z: 0.0
    angular:
      x: 0.0
      y: 0.0
      z: 0.0
  covariance:
  - 0.0
  - 0.0
  - 0.0
  - 0.0
  - 0.0
  - 0.0
  - 0.0
  - 0.0
  - 0.0
  - 0.0
  - 0.0
  - 0.0
  - 0.0
  - 0.0
  - 0.0
  - 0.0
  - 0.0
  - 0.0
  - 0.0
  - 0.0
  - 0.0
  - 0.0
  - 0.0
  - 0.0
  - 0.0
  - 0.0
  - 0.0
  - 0.0
  - 0.0
  - 0.0
  - 0.0
  - 0.0
  - 0.0
  - 0.0
  - 0.0
  - 0.0
---
header:
  stamp:
    sec: 1722451210
    nanosec: 301601185
  frame_id: odom
child_frame_id: ''
pose:
  pose:
    position:
      x: -0.06747222849955592
      y: 1.520124557080207
      z: 0.0
    orientation:
      x: 0.0
      y: 0.0
      z: 0.0
      w: 1.0
  covariance:
  - 3.048154734759669e-05
  - -1.0100537900394122e-06
  - 7.20496937528592e-06
  - 0.0
  - 0.0
  - 0.0
  - -1.010053790039412e-06
  - 3.6425517699820144e-05
  - -9.520010523390517e-06
  - 0.0
  - 0.0
  - 0.0
  - 7.20496937528592e-06
  - -9.520010523390517e-06
  - 8.802265074336901e-05
  - 0.0
  - 0.0
  - 0.0
  - 0.0
  - 0.0
  - 0.0
  - 0.0
  - 0.0
  - 0.0
  - 0.0
  - 0.0
  - 0.0
  - 0.0
  - 0.0
  - 0.0
  - 0.0
  - 0.0
  - 0.0
  - 0.0
  - 0.0
  - 0.0
twist:
  twist:
    linear:
      x: 0.0
      y: 0.0
      z: 0.0
    angular:
      x: 0.0
      y: 0.0
      z: 0.0
  covariance:
  - 0.0
  - 0.0
  - 0.0
  - 0.0
  - 0.0
  - 0.0
  - 0.0
  - 0.0
  - 0.0
  - 0.0
  - 0.0
  - 0.0
  - 0.0
  - 0.0
  - 0.0
  - 0.0
  - 0.0
  - 0.0
  - 0.0
  - 0.0
  - 0.0
  - 0.0
  - 0.0
  - 0.0
  - 0.0
  - 0.0
  - 0.0
  - 0.0
  - 0.0
  - 0.0
  - 0.0
  - 0.0
  - 0.0
  - 0.0
  - 0.0
  - 0.0
---
header:
  stamp:
    sec: 1722451210
    nanosec: 401153157
  frame_id: odom
child_frame_id: ''
pose:
  pose:
    position:
      x: -0.06776242337511662
      y: 1.5197920050718763
      z: 0.0
    orientation:
      x: 0.0
      y: 0.0
      z: 0.0
      w: 1.0
  covariance:
  - 3.053834054382333e-05
  - -1.0328034809039155e-06
  - 7.199209159392251e-06
  - 0.0
  - 0.0
  - 0.0
  - -1.0328034809039157e-06
  - 3.6417615300782005e-05
  - -9.708559693771487e-06
  - 0.0
  - 0.0
  - 0.0
  - 7.199209159392251e-06
  - -9.708559693771487e-06
  - 8.839336078381166e-05
  - 0.0
  - 0.0
  - 0.0
  - 0.0
  - 0.0
  - 0.0
  - 0.0
  - 0.0
  - 0.0
  - 0.0
  - 0.0
  - 0.0
  - 0.0
  - 0.0
  - 0.0
  - 0.0
  - 0.0
  - 0.0
  - 0.0
  - 0.0
  - 0.0
twist:
  twist:
    linear:
      x: 0.0
      y: 0.0
      z: 0.0
    angular:
      x: 0.0
      y: 0.0
      z: 0.0
  covariance:
  - 0.0
  - 0.0
  - 0.0
  - 0.0
  - 0.0
  - 0.0
  - 0.0
  - 0.0
  - 0.0
  - 0.0
  - 0.0
  - 0.0
  - 0.0
  - 0.0
  - 0.0
  - 0.0
  - 0.0
  - 0.0
  - 0.0
  - 0.0
  - 0.0
  - 0.0
  - 0.0
  - 0.0
  - 0.0
  - 0.0
  - 0.0
  - 0.0
  - 0.0
  - 0.0
  - 0.0
  - 0.0
  - 0.0
  - 0.0
  - 0.0
  - 0.0
---
header:
  stamp:
    sec: 1722451210
    nanosec: 501212751
  frame_id: odom
child_frame_id: ''
pose:
  pose:
    position:
      x: -0.0686489627216551
      y: 1.5192270992570498
      z: 0.0
    orientation:
      x: 0.0
      y: 0.0
      z: 0.0
      w: 1.0
  covariance:
  - 3.0620699873332636e-05
  - -1.0312124743563117e-06
  - 7.091850991776942e-06
  - 0.0
  - 0.0
  - 0.0
  - -1.0312124743563115e-06
  - 3.656844313684967e-05
  - -9.65785156845099e-06
  - 0.0
  - 0.0
  - 0.0
  - 7.091850991776942e-06
  - -9.65785156845099e-06
  - 8.887039439287037e-05
  - 0.0
  - 0.0
  - 0.0
  - 0.0
  - 0.0
  - 0.0
  - 0.0
  - 0.0
  - 0.0
  - 0.0
  - 0.0
  - 0.0
  - 0.0
  - 0.0
  - 0.0
  - 0.0
  - 0.0
  - 0.0
  - 0.0
  - 0.0
  - 0.0
twist:
  twist:
    linear:
      x: 0.0
      y: 0.0
      z: 0.0
    angular:
      x: 0.0
      y: 0.0
      z: 0.0
  covariance:
  - 0.0
  - 0.0
  - 0.0
  - 0.0
  - 0.0
  - 0.0
  - 0.0
  - 0.0
  - 0.0
  - 0.0
  - 0.0
  - 0.0
  - 0.0
  - 0.0
  - 0.0
  - 0.0
  - 0.0
  - 0.0
  - 0.0
  - 0.0
  - 0.0
  - 0.0
  - 0.0
  - 0.0
  - 0.0
  - 0.0
  - 0.0
  - 0.0
  - 0.0
  - 0.0
  - 0.0
  - 0.0
  - 0.0
  - 0.0
  - 0.0
  - 0.0
---
header:
  stamp:
    sec: 1722451210
    nanosec: 601539744
  frame_id: odom
child_frame_id: ''
pose:
  pose:
    position:
      x: -0.06980223320280943
      y: 1.5205949504175165
      z: 0.0
    orientation:
      x: 0.0
      y: 0.0
      z: 0.0
      w: 1.0
  covariance:
  - 3.069708653752565e-05
  - -9.934521642210244e-07
  - 6.96493772580621e-06
  - 0.0
  - 0.0
  - 0.0
  - -9.93452164221024e-07
  - 3.667648380828217e-05
  - -9.559828797234851e-06
  - 0.0
  - 0.0
  - 0.0
  - 6.96493772580621e-06
  - -9.559828797234851e-06
  - 8.931760385166854e-05
  - 0.0
  - 0.0
  - 0.0
  - 0.0
  - 0.0
  - 0.0
  - 0.0
  - 0.0
  - 0.0
  - 0.0
  - 0.0
  - 0.0
  - 0.0
  - 0.0
  - 0.0
  - 0.0
  - 0.0
  - 0.0
  - 0.0
  - 0.0
  - 0.0
twist:
  twist:
    linear:
      x: 0.0
      y: 0.0
      z: 0.0
    angular:
      x: 0.0
      y: 0.0
      z: 0.0
  covariance:
  - 0.0
  - 0.0
  - 0.0
  - 0.0
  - 0.0
  - 0.0
  - 0.0
  - 0.0
  - 0.0
  - 0.0
  - 0.0
  - 0.0
  - 0.0
  - 0.0
  - 0.0
  - 0.0
  - 0.0
  - 0.0
  - 0.0
  - 0.0
  - 0.0
  - 0.0
  - 0.0
  - 0.0
  - 0.0
  - 0.0
  - 0.0
  - 0.0
  - 0.0
  - 0.0
  - 0.0
  - 0.0
  - 0.0
  - 0.0
  - 0.0
  - 0.0
---
header:
  stamp:
    sec: 1722451210
    nanosec: 701466859
  frame_id: odom
child_frame_id: ''
pose:
  pose:
    position:
      x: -0.0705759271033648
      y: 1.521552790539799
      z: 0.0
    orientation:
      x: 0.0
      y: 0.0
      z: 0.0
      w: 1.0
  covariance:
  - 3.0645855427679926e-05
  - -8.796966027416234e-07
  - 6.80840363982946e-06
  - 0.0
  - 0.0
  - 0.0
  - -8.796966027416233e-07
  - 3.6838520476634294e-05
  - -9.363648431926853e-06
  - 0.0
  - 0.0
  - 0.0
  - 6.80840363982946e-06
  - -9.363648431926853e-06
  - 8.955035445978865e-05
  - 0.0
  - 0.0
  - 0.0
  - 0.0
  - 0.0
  - 0.0
  - 0.0
  - 0.0
  - 0.0
  - 0.0
  - 0.0
  - 0.0
  - 0.0
  - 0.0
  - 0.0
  - 0.0
  - 0.0
  - 0.0
  - 0.0
  - 0.0
  - 0.0
twist:
  twist:
    linear:
      x: 0.0
      y: 0.0
      z: 0.0
    angular:
      x: 0.0
      y: 0.0
      z: 0.0
  covariance:
  - 0.0
  - 0.0
  - 0.0
  - 0.0
  - 0.0
  - 0.0
  - 0.0
  - 0.0
  - 0.0
  - 0.0
  - 0.0
  - 0.0
  - 0.0
  - 0.0
  - 0.0
  - 0.0
  - 0.0
  - 0.0
  - 0.0
  - 0.0
  - 0.0
  - 0.0
  - 0.0
  - 0.0
  - 0.0
  - 0.0
  - 0.0
  - 0.0
  - 0.0
  - 0.0
  - 0.0
  - 0.0
  - 0.0
  - 0.0
  - 0.0
  - 0.0
---
header:
  stamp:
    sec: 1722451210
    nanosec: 801600345
  frame_id: odom
child_frame_id: ''
pose:
  pose:
    position:
      x: -0.07280539646601114
      y: 1.5229764595874526
      z: 0.0
    orientation:
      x: 0.0
      y: 0.0
      z: 0.0
      w: 1.0
  covariance:
  - 3.0599781169685195e-05
  - -9.427604996593461e-07
  - 6.950701597448515e-06
  - 0.0
  - 0.0
  - 0.0
  - -9.42760499659346e-07
  - 3.692173849824943e-05
  - -9.252829444404418e-06
  - 0.0
  - 0.0
  - 0.0
  - 6.950701597448515e-06
  - -9.252829444404418e-06
  - 8.945535955717787e-05
  - 0.0
  - 0.0
  - 0.0
  - 0.0
  - 0.0
  - 0.0
  - 0.0
  - 0.0
  - 0.0
  - 0.0
  - 0.0
  - 0.0
  - 0.0
  - 0.0
  - 0.0
  - 0.0
  - 0.0
  - 0.0
  - 0.0
  - 0.0
  - 0.0
twist:
  twist:
    linear:
      x: 0.0
      y: 0.0
      z: 0.0
    angular:
      x: 0.0
      y: 0.0
      z: 0.0
  covariance:
  - 0.0
  - 0.0
  - 0.0
  - 0.0
  - 0.0
  - 0.0
  - 0.0
  - 0.0
  - 0.0
  - 0.0
  - 0.0
  - 0.0
  - 0.0
  - 0.0
  - 0.0
  - 0.0
  - 0.0
  - 0.0
  - 0.0
  - 0.0
  - 0.0
  - 0.0
  - 0.0
  - 0.0
  - 0.0
  - 0.0
  - 0.0
  - 0.0
  - 0.0
  - 0.0
  - 0.0
  - 0.0
  - 0.0
  - 0.0
  - 0.0
  - 0.0
---
header:
  stamp:
    sec: 1722451210
    nanosec: 901585537
  frame_id: odom
child_frame_id: ''
pose:
  pose:
    position:
      x: -0.07354273421080593
      y: 1.5245542317875602
      z: 0.0
    orientation:
      x: 0.0
      y: 0.0
      z: 0.0
      w: 1.0
  covariance:
  - 3.064016176259291e-05
  - -9.68896676166408e-07
  - 7.123970566120022e-06
  - 0.0
  - 0.0
  - 0.0
  - -9.688966761664085e-07
  - 3.679746611405018e-05
  - -9.529637940715081e-06
  - 0.0
  - 0.0
  - 0.0
  - 7.123970566120022e-06
  - -9.529637940715081e-06
  - 8.935854566516355e-05
  - 0.0
  - 0.0
  - 0.0
  - 0.0
  - 0.0
  - 0.0
  - 0.0
  - 0.0
  - 0.0
  - 0.0
  - 0.0
  - 0.0
  - 0.0
  - 0.0
  - 0.0
  - 0.0
  - 0.0
  - 0.0
  - 0.0
  - 0.0
  - 0.0
twist:
  twist:
    linear:
      x: 0.0
      y: 0.0
      z: 0.0
    angular:
      x: 0.0
      y: 0.0
      z: 0.0
  covariance:
  - 0.0
  - 0.0
  - 0.0
  - 0.0
  - 0.0
  - 0.0
  - 0.0
  - 0.0
  - 0.0
  - 0.0
  - 0.0
  - 0.0
  - 0.0
  - 0.0
  - 0.0
  - 0.0
  - 0.0
  - 0.0
  - 0.0
  - 0.0
  - 0.0
  - 0.0
  - 0.0
  - 0.0
  - 0.0
  - 0.0
  - 0.0
  - 0.0
  - 0.0
  - 0.0
  - 0.0
  - 0.0
  - 0.0
  - 0.0
  - 0.0
  - 0.0
---
header:
  stamp:
    sec: 1722451211
    nanosec: 1646487
  frame_id: odom
child_frame_id: ''
pose:
  pose:
    position:
      x: -0.07493496646495346
      y: 1.525334493840573
      z: 0.0
    orientation:
      x: 0.0
      y: 0.0
      z: 0.0
      w: 1.0
  covariance:
  - 3.058048105570924e-05
  - -9.505587663247428e-07
  - 7.187850458663564e-06
  - 0.0
  - 0.0
  - 0.0
  - -9.505587663247429e-07
  - 3.657341357781116e-05
  - -9.628652566251803e-06
  - 0.0
  - 0.0
  - 0.0
  - 7.187850458663564e-06
  - -9.628652566251803e-06
  - 8.899671956896782e-05
  - 0.0
  - 0.0
  - 0.0
  - 0.0
  - 0.0
  - 0.0
  - 0.0
  - 0.0
  - 0.0
  - 0.0
  - 0.0
  - 0.0
  - 0.0
  - 0.0
  - 0.0
  - 0.0
  - 0.0
  - 0.0
  - 0.0
  - 0.0
  - 0.0
twist:
  twist:
    linear:
      x: 0.0
      y: 0.0
      z: 0.0
    angular:
      x: 0.0
      y: 0.0
      z: 0.0
  covariance:
  - 0.0
  - 0.0
  - 0.0
  - 0.0
  - 0.0
  - 0.0
  - 0.0
  - 0.0
  - 0.0
  - 0.0
  - 0.0
  - 0.0
  - 0.0
  - 0.0
  - 0.0
  - 0.0
  - 0.0
  - 0.0
  - 0.0
  - 0.0
  - 0.0
  - 0.0
  - 0.0
  - 0.0
  - 0.0
  - 0.0
  - 0.0
  - 0.0
  - 0.0
  - 0.0
  - 0.0
  - 0.0
  - 0.0
  - 0.0
  - 0.0
  - 0.0
---
header:
  stamp:
    sec: 1722451211
    nanosec: 101561899
  frame_id: odom
child_frame_id: ''
pose:
  pose:
    position:
      x: -0.07485853538239184
      y: 1.524077313604293
      z: 0.0
    orientation:
      x: 0.0
      y: 0.0
      z: 0.0
      w: 1.0
  covariance:
  - 3.0465117356510676e-05
  - -1.053945654907071e-06
  - 7.348077094339221e-06
  - 0.0
  - 0.0
  - 0.0
  - -1.0539456549070713e-06
  - 3.619960373267175e-05
  - -9.623789803789465e-06
  - 0.0
  - 0.0
  - 0.0
  - 7.348077094339221e-06
  - -9.623789803789465e-06
  - 8.791144500719383e-05
  - 0.0
  - 0.0
  - 0.0
  - 0.0
  - 0.0
  - 0.0
  - 0.0
  - 0.0
  - 0.0
  - 0.0
  - 0.0
  - 0.0
  - 0.0
  - 0.0
  - 0.0
  - 0.0
  - 0.0
  - 0.0
  - 0.0
  - 0.0
  - 0.0
twist:
  twist:
    linear:
      x: 0.0
      y: 0.0
      z: 0.0
    angular:
      x: 0.0
      y: 0.0
      z: 0.0
  covariance:
  - 0.0
  - 0.0
  - 0.0
  - 0.0
  - 0.0
  - 0.0
  - 0.0
  - 0.0
  - 0.0
  - 0.0
  - 0.0
  - 0.0
  - 0.0
  - 0.0
  - 0.0
  - 0.0
  - 0.0
  - 0.0
  - 0.0
  - 0.0
  - 0.0
  - 0.0
  - 0.0
  - 0.0
  - 0.0
  - 0.0
  - 0.0
  - 0.0
  - 0.0
  - 0.0
  - 0.0
  - 0.0
  - 0.0
  - 0.0
  - 0.0
  - 0.0
---
header:
  stamp:
    sec: 1722451211
    nanosec: 201169021
  frame_id: odom
child_frame_id: ''
pose:
  pose:
    position:
      x: -0.07481820341056022
      y: 1.5239768397309759
      z: 0.0
    orientation:
      x: 0.0
      y: 0.0
      z: 0.0
      w: 1.0
  covariance:
  - 3.045809284070035e-05
  - -1.0026277151987527e-06
  - 7.287985640427479e-06
  - 0.0
  - 0.0
  - 0.0
  - -1.0026277151987529e-06
  - 3.62962607703312e-05
  - -9.587944903501153e-06
  - 0.0
  - 0.0
  - 0.0
  - 7.287985640427479e-06
  - -9.587944903501153e-06
  - 8.777366747381166e-05
  - 0.0
  - 0.0
  - 0.0
  - 0.0
  - 0.0
  - 0.0
  - 0.0
  - 0.0
  - 0.0
  - 0.0
  - 0.0
  - 0.0
  - 0.0
  - 0.0
  - 0.0
  - 0.0
  - 0.0
  - 0.0
  - 0.0
  - 0.0
  - 0.0
twist:
  twist:
    linear:
      x: 0.0
      y: 0.0
      z: 0.0
    angular:
      x: 0.0
      y: 0.0
      z: 0.0
  covariance:
  - 0.0
  - 0.0
  - 0.0
  - 0.0
  - 0.0
  - 0.0
  - 0.0
  - 0.0
  - 0.0
  - 0.0
  - 0.0
  - 0.0
  - 0.0
  - 0.0
  - 0.0
  - 0.0
  - 0.0
  - 0.0
  - 0.0
  - 0.0
  - 0.0
  - 0.0
  - 0.0
  - 0.0
  - 0.0
  - 0.0
  - 0.0
  - 0.0
  - 0.0
  - 0.0
  - 0.0
  - 0.0
  - 0.0
  - 0.0
  - 0.0
  - 0.0
---
header:
  stamp:
    sec: 1722451211
    nanosec: 301660653
  frame_id: odom
child_frame_id: ''
pose:
  pose:
    position:
      x: -0.07588366356069032
      y: 1.5238981168963888
      z: 0.0
    orientation:
      x: 0.0
      y: 0.0
      z: 0.0
      w: 1.0
  covariance:
  - 3.0438769983108403e-05
  - -9.368948068912867e-07
  - 7.177903121289373e-06
  - 0.0
  - 0.0
  - 0.0
  - -9.368948068912863e-07
  - 3.646287083790706e-05
  - -9.515422256947149e-06
  - 0.0
  - 0.0
  - 0.0
  - 7.177903121289373e-06
  - -9.515422256947149e-06
  - 8.77945203683339e-05
  - 0.0
  - 0.0
  - 0.0
  - 0.0
  - 0.0
  - 0.0
  - 0.0
  - 0.0
  - 0.0
  - 0.0
  - 0.0
  - 0.0
  - 0.0
  - 0.0
  - 0.0
  - 0.0
  - 0.0
  - 0.0
  - 0.0
  - 0.0
  - 0.0
twist:
  twist:
    linear:
      x: 0.0
      y: 0.0
      z: 0.0
    angular:
      x: 0.0
      y: 0.0
      z: 0.0
  covariance:
  - 0.0
  - 0.0
  - 0.0
  - 0.0
  - 0.0
  - 0.0
  - 0.0
  - 0.0
  - 0.0
  - 0.0
  - 0.0
  - 0.0
  - 0.0
  - 0.0
  - 0.0
  - 0.0
  - 0.0
  - 0.0
  - 0.0
  - 0.0
  - 0.0
  - 0.0
  - 0.0
  - 0.0
  - 0.0
  - 0.0
  - 0.0
  - 0.0
  - 0.0
  - 0.0
  - 0.0
  - 0.0
  - 0.0
  - 0.0
  - 0.0
  - 0.0
---
header:
  stamp:
    sec: 1722451211
    nanosec: 401525349
  frame_id: odom
child_frame_id: ''
pose:
  pose:
    position:
      x: -0.07551305666422281
      y: 1.5232432080679514
      z: 0.0
    orientation:
      x: 0.0
      y: 0.0
      z: 0.0
      w: 1.0
  covariance:
  - 3.047082085015035e-05
  - -9.302145808428147e-07
  - 7.138201965208473e-06
  - 0.0
  - 0.0
  - 0.0
  - -9.302145808428149e-07
  - 3.648848193495752e-05
  - -9.614625023561308e-06
  - 0.0
  - 0.0
  - 0.0
  - 7.138201965208473e-06
  - -9.614625023561308e-06
  - 8.811768930172548e-05
  - 0.0
  - 0.0
  - 0.0
  - 0.0
  - 0.0
  - 0.0
  - 0.0
  - 0.0
  - 0.0
  - 0.0
  - 0.0
  - 0.0
  - 0.0
  - 0.0
  - 0.0
  - 0.0
  - 0.0
  - 0.0
  - 0.0
  - 0.0
  - 0.0
twist:
  twist:
    linear:
      x: 0.0
      y: 0.0
      z: 0.0
    angular:
      x: 0.0
      y: 0.0
      z: 0.0
  covariance:
  - 0.0
  - 0.0
  - 0.0
  - 0.0
  - 0.0
  - 0.0
  - 0.0
  - 0.0
  - 0.0
  - 0.0
  - 0.0
  - 0.0
  - 0.0
  - 0.0
  - 0.0
  - 0.0
  - 0.0
  - 0.0
  - 0.0
  - 0.0
  - 0.0
  - 0.0
  - 0.0
  - 0.0
  - 0.0
  - 0.0
  - 0.0
  - 0.0
  - 0.0
  - 0.0
  - 0.0
  - 0.0
  - 0.0
  - 0.0
  - 0.0
  - 0.0
---
header:
  stamp:
    sec: 1722451211
    nanosec: 501166293
  frame_id: odom
child_frame_id: ''
pose:
  pose:
    position:
      x: -0.07441942109582755
      y: 1.5229652911671379
      z: 0.0
    orientation:
      x: 0.0
      y: 0.0
      z: 0.0
      w: 1.0
  covariance:
  - 3.0502988972850533e-05
  - -9.720290249959545e-07
  - 7.234010013325486e-06
  - 0.0
  - 0.0
  - 0.0
  - -9.720290249959547e-07
  - 3.655569247933065e-05
  - -9.536609744342592e-06
  - 0.0
  - 0.0
  - 0.0
  - 7.234010013325486e-06
  - -9.536609744342592e-06
  - 8.855341002345085e-05
  - 0.0
  - 0.0
  - 0.0
  - 0.0
  - 0.0
  - 0.0
  - 0.0
  - 0.0
  - 0.0
  - 0.0
  - 0.0
  - 0.0
  - 0.0
  - 0.0
  - 0.0
  - 0.0
  - 0.0
  - 0.0
  - 0.0
  - 0.0
  - 0.0
twist:
  twist:
    linear:
      x: 0.0
      y: 0.0
      z: 0.0
    angular:
      x: 0.0
      y: 0.0
      z: 0.0
  covariance:
  - 0.0
  - 0.0
  - 0.0
  - 0.0
  - 0.0
  - 0.0
  - 0.0
  - 0.0
  - 0.0
  - 0.0
  - 0.0
  - 0.0
  - 0.0
  - 0.0
  - 0.0
  - 0.0
  - 0.0
  - 0.0
  - 0.0
  - 0.0
  - 0.0
  - 0.0
  - 0.0
  - 0.0
  - 0.0
  - 0.0
  - 0.0
  - 0.0
  - 0.0
  - 0.0
  - 0.0
  - 0.0
  - 0.0
  - 0.0
  - 0.0
  - 0.0
---
header:
  stamp:
    sec: 1722451211
    nanosec: 601165751
  frame_id: odom
child_frame_id: ''
pose:
  pose:
    position:
      x: -0.07617244550349
      y: 1.521104576649604
      z: 0.0
    orientation:
      x: 0.0
      y: 0.0
      z: 0.0
      w: 1.0
  covariance:
  - 3.057428038384289e-05
  - -9.815105887918531e-07
  - 7.0848062561414885e-06
  - 0.0
  - 0.0
  - 0.0
  - -9.815105887918531e-07
  - 3.6598797311927294e-05
  - -9.537586171291488e-06
  - 0.0
  - 0.0
  - 0.0
  - 7.0848062561414885e-06
  - -9.537586171291488e-06
  - 8.903224079404026e-05
  - 0.0
  - 0.0
  - 0.0
  - 0.0
  - 0.0
  - 0.0
  - 0.0
  - 0.0
  - 0.0
  - 0.0
  - 0.0
  - 0.0
  - 0.0
  - 0.0
  - 0.0
  - 0.0
  - 0.0
  - 0.0
  - 0.0
  - 0.0
  - 0.0
twist:
  twist:
    linear:
      x: 0.0
      y: 0.0
      z: 0.0
    angular:
      x: 0.0
      y: 0.0
      z: 0.0
  covariance:
  - 0.0
  - 0.0
  - 0.0
  - 0.0
  - 0.0
  - 0.0
  - 0.0
  - 0.0
  - 0.0
  - 0.0
  - 0.0
  - 0.0
  - 0.0
  - 0.0
  - 0.0
  - 0.0
  - 0.0
  - 0.0
  - 0.0
  - 0.0
  - 0.0
  - 0.0
  - 0.0
  - 0.0
  - 0.0
  - 0.0
  - 0.0
  - 0.0
  - 0.0
  - 0.0
  - 0.0
  - 0.0
  - 0.0
  - 0.0
  - 0.0
  - 0.0
---
header:
  stamp:
    sec: 1722451211
    nanosec: 701665713
  frame_id: odom
child_frame_id: ''
pose:
  pose:
    position:
      x: -0.07724403911126587
      y: 1.5186653012656548
      z: 0.0
    orientation:
      x: 0.0
      y: 0.0
      z: 0.0
      w: 1.0
  covariance:
  - 3.067776467803674e-05
  - -8.485433471004118e-07
  - 6.802635367904738e-06
  - 0.0
  - 0.0
  - 0.0
  - -8.485433471004118e-07
  - 3.669841409857576e-05
  - -9.711475296315756e-06
  - 0.0
  - 0.0
  - 0.0
  - 6.802635367904738e-06
  - -9.711475296315756e-06
  - 8.94908735062927e-05
  - 0.0
  - 0.0
  - 0.0
  - 0.0
  - 0.0
  - 0.0
  - 0.0
  - 0.0
  - 0.0
  - 0.0
  - 0.0
  - 0.0
  - 0.0
  - 0.0
  - 0.0
  - 0.0
  - 0.0
  - 0.0
  - 0.0
  - 0.0
  - 0.0
twist:
  twist:
    linear:
      x: 0.0
      y: 0.0
      z: 0.0
    angular:
      x: 0.0
      y: 0.0
      z: 0.0
  covariance:
  - 0.0
  - 0.0
  - 0.0
  - 0.0
  - 0.0
  - 0.0
  - 0.0
  - 0.0
  - 0.0
  - 0.0
  - 0.0
  - 0.0
  - 0.0
  - 0.0
  - 0.0
  - 0.0
  - 0.0
  - 0.0
  - 0.0
  - 0.0
  - 0.0
  - 0.0
  - 0.0
  - 0.0
  - 0.0
  - 0.0
  - 0.0
  - 0.0
  - 0.0
  - 0.0
  - 0.0
  - 0.0
  - 0.0
  - 0.0
  - 0.0
  - 0.0
---
header:
  stamp:
    sec: 1722451211
    nanosec: 801232868
  frame_id: odom
child_frame_id: ''
pose:
  pose:
    position:
      x: -0.07758873696295354
      y: 1.5165868137278535
      z: 0.0
    orientation:
      x: 0.0
      y: 0.0
      z: 0.0
      w: 1.0
  covariance:
  - 3.0656303387159944e-05
  - -8.398484687930314e-07
  - 6.942485854786315e-06
  - 0.0
  - 0.0
  - 0.0
  - -8.398484687930315e-07
  - 3.676376760376012e-05
  - -9.55424351948128e-06
  - 0.0
  - 0.0
  - 0.0
  - 6.942485854786315e-06
  - -9.55424351948128e-06
  - 8.944990258896723e-05
  - 0.0
  - 0.0
  - 0.0
  - 0.0
  - 0.0
  - 0.0
  - 0.0
  - 0.0
  - 0.0
  - 0.0
  - 0.0
  - 0.0
  - 0.0
  - 0.0
  - 0.0
  - 0.0
  - 0.0
  - 0.0
  - 0.0
  - 0.0
  - 0.0
twist:
  twist:
    linear:
      x: 0.0
      y: 0.0
      z: 0.0
    angular:
      x: 0.0
      y: 0.0
      z: 0.0
  covariance:
  - 0.0
  - 0.0
  - 0.0
  - 0.0
  - 0.0
  - 0.0
  - 0.0
  - 0.0
  - 0.0
  - 0.0
  - 0.0
  - 0.0
  - 0.0
  - 0.0
  - 0.0
  - 0.0
  - 0.0
  - 0.0
  - 0.0
  - 0.0
  - 0.0
  - 0.0
  - 0.0
  - 0.0
  - 0.0
  - 0.0
  - 0.0
  - 0.0
  - 0.0
  - 0.0
  - 0.0
  - 0.0
  - 0.0
  - 0.0
  - 0.0
  - 0.0
---
header:
  stamp:
    sec: 1722451211
    nanosec: 903681413
  frame_id: odom
child_frame_id: ''
pose:
  pose:
    position:
      x: -0.07833855897044573
      y: 1.5151992278420308
      z: 0.0
    orientation:
      x: 0.0
      y: 0.0
      z: 0.0
      w: 1.0
  covariance:
  - 3.058374940277006e-05
  - -9.171708100635658e-07
  - 7.241105086859022e-06
  - 0.0
  - 0.0
  - 0.0
  - -9.171708100635657e-07
  - 3.6725370510491325e-05
  - -9.47093038221888e-06
  - 0.0
  - 0.0
  - 0.0
  - 7.241105086859022e-06
  - -9.47093038221888e-06
  - 8.930467447498813e-05
  - 0.0
  - 0.0
  - 0.0
  - 0.0
  - 0.0
  - 0.0
  - 0.0
  - 0.0
  - 0.0
  - 0.0
  - 0.0
  - 0.0
  - 0.0
  - 0.0
  - 0.0
  - 0.0
  - 0.0
  - 0.0
  - 0.0
  - 0.0
  - 0.0
twist:
  twist:
    linear:
      x: 0.0
      y: 0.0
      z: 0.0
    angular:
      x: 0.0
      y: 0.0
      z: 0.0
  covariance:
  - 0.0
  - 0.0
  - 0.0
  - 0.0
  - 0.0
  - 0.0
  - 0.0
  - 0.0
  - 0.0
  - 0.0
  - 0.0
  - 0.0
  - 0.0
  - 0.0
  - 0.0
  - 0.0
  - 0.0
  - 0.0
  - 0.0
  - 0.0
  - 0.0
  - 0.0
  - 0.0
  - 0.0
  - 0.0
  - 0.0
  - 0.0
  - 0.0
  - 0.0
  - 0.0
  - 0.0
  - 0.0
  - 0.0
  - 0.0
  - 0.0
  - 0.0
---
header:
  stamp:
    sec: 1722451212
    nanosec: 1593784
  frame_id: odom
child_frame_id: ''
pose:
  pose:
    position:
      x: -0.07932273945627544
      y: 1.5131622679778316
      z: 0.0
    orientation:
      x: 0.0
      y: 0.0
      z: 0.0
      w: 1.0
  covariance:
  - 3.0484723302291347e-05
  - -9.319059063773572e-07
  - 7.316350339408737e-06
  - 0.0
  - 0.0
  - 0.0
  - -9.319059063773569e-07
  - 3.652897454194016e-05
  - -9.561170509159713e-06
  - 0.0
  - 0.0
  - 0.0
  - 7.316350339408737e-06
  - -9.561170509159713e-06
  - 8.883763803169131e-05
  - 0.0
  - 0.0
  - 0.0
  - 0.0
  - 0.0
  - 0.0
  - 0.0
  - 0.0
  - 0.0
  - 0.0
  - 0.0
  - 0.0
  - 0.0
  - 0.0
  - 0.0
  - 0.0
  - 0.0
  - 0.0
  - 0.0
  - 0.0
  - 0.0
twist:
  twist:
    linear:
      x: 0.0
      y: 0.0
      z: 0.0
    angular:
      x: 0.0
      y: 0.0
      z: 0.0
  covariance:
  - 0.0
  - 0.0
  - 0.0
  - 0.0
  - 0.0
  - 0.0
  - 0.0
  - 0.0
  - 0.0
  - 0.0
  - 0.0
  - 0.0
  - 0.0
  - 0.0
  - 0.0
  - 0.0
  - 0.0
  - 0.0
  - 0.0
  - 0.0
  - 0.0
  - 0.0
  - 0.0
  - 0.0
  - 0.0
  - 0.0
  - 0.0
  - 0.0
  - 0.0
  - 0.0
  - 0.0
  - 0.0
  - 0.0
  - 0.0
  - 0.0
  - 0.0
---
header:
  stamp:
    sec: 1722451212
    nanosec: 101549571
  frame_id: odom
child_frame_id: ''
pose:
  pose:
    position:
      x: -0.07967147366000149
      y: 1.5123472517603018
      z: 0.0
    orientation:
      x: 0.0
      y: 0.0
      z: 0.0
      w: 1.0
  covariance:
  - 3.0348059727944258e-05
  - -1.019455944707789e-06
  - 7.4491195112213735e-06
  - 0.0
  - 0.0
  - 0.0
  - -1.019455944707789e-06
  - 3.618172327031493e-05
  - -9.656662716139157e-06
  - 0.0
  - 0.0
  - 0.0
  - 7.4491195112213735e-06
  - -9.656662716139157e-06
  - 8.78953214851208e-05
  - 0.0
  - 0.0
  - 0.0
  - 0.0
  - 0.0
  - 0.0
  - 0.0
  - 0.0
  - 0.0
  - 0.0
  - 0.0
  - 0.0
  - 0.0
  - 0.0
  - 0.0
  - 0.0
  - 0.0
  - 0.0
  - 0.0
  - 0.0
  - 0.0
twist:
  twist:
    linear:
      x: 0.0
      y: 0.0
      z: 0.0
    angular:
      x: 0.0
      y: 0.0
      z: 0.0
  covariance:
  - 0.0
  - 0.0
  - 0.0
  - 0.0
  - 0.0
  - 0.0
  - 0.0
  - 0.0
  - 0.0
  - 0.0
  - 0.0
  - 0.0
  - 0.0
  - 0.0
  - 0.0
  - 0.0
  - 0.0
  - 0.0
  - 0.0
  - 0.0
  - 0.0
  - 0.0
  - 0.0
  - 0.0
  - 0.0
  - 0.0
  - 0.0
  - 0.0
  - 0.0
  - 0.0
  - 0.0
  - 0.0
  - 0.0
  - 0.0
  - 0.0
  - 0.0
---
header:
  stamp:
    sec: 1722451212
    nanosec: 201214481
  frame_id: odom
child_frame_id: ''
pose:
  pose:
    position:
      x: -0.07926604682436023
      y: 1.5115985587486007
      z: 0.0
    orientation:
      x: 0.0
      y: 0.0
      z: 0.0
      w: 1.0
  covariance:
  - 3.0425180859641344e-05
  - -9.899966026759266e-07
  - 7.514971477229411e-06
  - 0.0
  - 0.0
  - 0.0
  - -9.899966026759266e-07
  - 3.622300925384165e-05
  - -9.699145901844251e-06
  - 0.0
  - 0.0
  - 0.0
  - 7.514971477229411e-06
  - -9.699145901844251e-06
  - 8.804323442745954e-05
  - 0.0
  - 0.0
  - 0.0
  - 0.0
  - 0.0
  - 0.0
  - 0.0
  - 0.0
  - 0.0
  - 0.0
  - 0.0
  - 0.0
  - 0.0
  - 0.0
  - 0.0
  - 0.0
  - 0.0
  - 0.0
  - 0.0
  - 0.0
  - 0.0
twist:
  twist:
    linear:
      x: 0.0
      y: 0.0
      z: 0.0
    angular:
      x: 0.0
      y: 0.0
      z: 0.0
  covariance:
  - 0.0
  - 0.0
  - 0.0
  - 0.0
  - 0.0
  - 0.0
  - 0.0
  - 0.0
  - 0.0
  - 0.0
  - 0.0
  - 0.0
  - 0.0
  - 0.0
  - 0.0
  - 0.0
  - 0.0
  - 0.0
  - 0.0
  - 0.0
  - 0.0
  - 0.0
  - 0.0
  - 0.0
  - 0.0
  - 0.0
  - 0.0
  - 0.0
  - 0.0
  - 0.0
  - 0.0
  - 0.0
  - 0.0
  - 0.0
  - 0.0
  - 0.0
---
header:
  stamp:
    sec: 1722451212
    nanosec: 301674569
  frame_id: odom
child_frame_id: ''
pose:
  pose:
    position:
      x: -0.07917927538366798
      y: 1.5112585067995765
      z: 0.0
    orientation:
      x: 0.0
      y: 0.0
      z: 0.0
      w: 1.0
  covariance:
  - 3.042963474597476e-05
  - -9.489363568609542e-07
  - 7.531615872660866e-06
  - 0.0
  - 0.0
  - 0.0
  - -9.489363568609545e-07
  - 3.6294407225636094e-05
  - -9.65525517855663e-06
  - 0.0
  - 0.0
  - 0.0
  - 7.531615872660866e-06
  - -9.65525517855663e-06
  - 8.819596405373886e-05
  - 0.0
  - 0.0
  - 0.0
  - 0.0
  - 0.0
  - 0.0
  - 0.0
  - 0.0
  - 0.0
  - 0.0
  - 0.0
  - 0.0
  - 0.0
  - 0.0
  - 0.0
  - 0.0
  - 0.0
  - 0.0
  - 0.0
  - 0.0
  - 0.0
twist:
  twist:
    linear:
      x: 0.0
      y: 0.0
      z: 0.0
    angular:
      x: 0.0
      y: 0.0
      z: 0.0
  covariance:
  - 0.0
  - 0.0
  - 0.0
  - 0.0
  - 0.0
  - 0.0
  - 0.0
  - 0.0
  - 0.0
  - 0.0
  - 0.0
  - 0.0
  - 0.0
  - 0.0
  - 0.0
  - 0.0
  - 0.0
  - 0.0
  - 0.0
  - 0.0
  - 0.0
  - 0.0
  - 0.0
  - 0.0
  - 0.0
  - 0.0
  - 0.0
  - 0.0
  - 0.0
  - 0.0
  - 0.0
  - 0.0
  - 0.0
  - 0.0
  - 0.0
  - 0.0
---
header:
  stamp:
    sec: 1722451212
    nanosec: 401708871
  frame_id: odom
child_frame_id: ''
pose:
  pose:
    position:
      x: -0.07808642899473939
      y: 1.5108353343107679
      z: 0.0
    orientation:
      x: 0.0
      y: 0.0
      z: 0.0
      w: 1.0
  covariance:
  - 3.0503792763744556e-05
  - -9.435209035134549e-07
  - 7.586343175908904e-06
  - 0.0
  - 0.0
  - 0.0
  - -9.435209035134551e-07
  - 3.642304469848882e-05
  - -9.587877979632207e-06
  - 0.0
  - 0.0
  - 0.0
  - 7.586343175908904e-06
  - -9.587877979632207e-06
  - 8.864069968694821e-05
  - 0.0
  - 0.0
  - 0.0
  - 0.0
  - 0.0
  - 0.0
  - 0.0
  - 0.0
  - 0.0
  - 0.0
  - 0.0
  - 0.0
  - 0.0
  - 0.0
  - 0.0
  - 0.0
  - 0.0
  - 0.0
  - 0.0
  - 0.0
  - 0.0
twist:
  twist:
    linear:
      x: 0.0
      y: 0.0
      z: 0.0
    angular:
      x: 0.0
      y: 0.0
      z: 0.0
  covariance:
  - 0.0
  - 0.0
  - 0.0
  - 0.0
  - 0.0
  - 0.0
  - 0.0
  - 0.0
  - 0.0
  - 0.0
  - 0.0
  - 0.0
  - 0.0
  - 0.0
  - 0.0
  - 0.0
  - 0.0
  - 0.0
  - 0.0
  - 0.0
  - 0.0
  - 0.0
  - 0.0
  - 0.0
  - 0.0
  - 0.0
  - 0.0
  - 0.0
  - 0.0
  - 0.0
  - 0.0
  - 0.0
  - 0.0
  - 0.0
  - 0.0
  - 0.0
---
header:
  stamp:
    sec: 1722451212
    nanosec: 501165660
  frame_id: odom
child_frame_id: ''
pose:
  pose:
    position:
      x: -0.07919640962356511
      y: 1.5107984064393618
      z: 0.0
    orientation:
      x: 0.0
      y: 0.0
      z: 0.0
      w: 1.0
  covariance:
  - 3.056936979122276e-05
  - -9.554628066887805e-07
  - 7.465449638671892e-06
  - 0.0
  - 0.0
  - 0.0
  - -9.5546280668878e-07
  - 3.6452789991714036e-05
  - -9.606722171012589e-06
  - 0.0
  - 0.0
  - 0.0
  - 7.465449638671892e-06
  - -9.606722171012589e-06
  - 8.892649930203333e-05
  - 0.0
  - 0.0
  - 0.0
  - 0.0
  - 0.0
  - 0.0
  - 0.0
  - 0.0
  - 0.0
  - 0.0
  - 0.0
  - 0.0
  - 0.0
  - 0.0
  - 0.0
  - 0.0
  - 0.0
  - 0.0
  - 0.0
  - 0.0
  - 0.0
twist:
  twist:
    linear:
      x: 0.0
      y: 0.0
      z: 0.0
    angular:
      x: 0.0
      y: 0.0
      z: 0.0
  covariance:
  - 0.0
  - 0.0
  - 0.0
  - 0.0
  - 0.0
  - 0.0
  - 0.0
  - 0.0
  - 0.0
  - 0.0
  - 0.0
  - 0.0
  - 0.0
  - 0.0
  - 0.0
  - 0.0
  - 0.0
  - 0.0
  - 0.0
  - 0.0
  - 0.0
  - 0.0
  - 0.0
  - 0.0
  - 0.0
  - 0.0
  - 0.0
  - 0.0
  - 0.0
  - 0.0
  - 0.0
  - 0.0
  - 0.0
  - 0.0
  - 0.0
  - 0.0
---
header:
  stamp:
    sec: 1722451212
    nanosec: 601197907
  frame_id: odom
child_frame_id: ''
pose:
  pose:
    position:
      x: -0.07731512102620486
      y: 1.5130178217091539
      z: 0.0
    orientation:
      x: 0.0
      y: 0.0
      z: 0.0
      w: 1.0
  covariance:
  - 3.053636781827704e-05
  - -1.0264372073598473e-06
  - 7.419209908632911e-06
  - 0.0
  - 0.0
  - 0.0
  - -1.0264372073598473e-06
  - 3.6480869779333765e-05
  - -9.51345353704473e-06
  - 0.0
  - 0.0
  - 0.0
  - 7.419209908632911e-06
  - -9.51345353704473e-06
  - 8.933303615776822e-05
  - 0.0
  - 0.0
  - 0.0
  - 0.0
  - 0.0
  - 0.0
  - 0.0
  - 0.0
  - 0.0
  - 0.0
  - 0.0
  - 0.0
  - 0.0
  - 0.0
  - 0.0
  - 0.0
  - 0.0
  - 0.0
  - 0.0
  - 0.0
  - 0.0
twist:
  twist:
    linear:
      x: 0.0
      y: 0.0
      z: 0.0
    angular:
      x: 0.0
      y: 0.0
      z: 0.0
  covariance:
  - 0.0
  - 0.0
  - 0.0
  - 0.0
  - 0.0
  - 0.0
  - 0.0
  - 0.0
  - 0.0
  - 0.0
  - 0.0
  - 0.0
  - 0.0
  - 0.0
  - 0.0
  - 0.0
  - 0.0
  - 0.0
  - 0.0
  - 0.0
  - 0.0
  - 0.0
  - 0.0
  - 0.0
  - 0.0
  - 0.0
  - 0.0
  - 0.0
  - 0.0
  - 0.0
  - 0.0
  - 0.0
  - 0.0
  - 0.0
  - 0.0
  - 0.0
---
header:
  stamp:
    sec: 1722451212
    nanosec: 701620088
  frame_id: odom
child_frame_id: ''
pose:
  pose:
    position:
      x: -0.07595328865429196
      y: 1.5154366089277842
      z: 0.0
    orientation:
      x: 0.0
      y: 0.0
      z: 0.0
      w: 1.0
  covariance:
  - 3.049501290939587e-05
  - -9.5390994035135e-07
  - 7.367530314628721e-06
  - 0.0
  - 0.0
  - 0.0
  - -9.5390994035135e-07
  - 3.6604148332971825e-05
  - -9.27684587652847e-06
  - 0.0
  - 0.0
  - 0.0
  - 7.367530314628721e-06
  - -9.27684587652847e-06
  - 8.944229921326041e-05
  - 0.0
  - 0.0
  - 0.0
  - 0.0
  - 0.0
  - 0.0
  - 0.0
  - 0.0
  - 0.0
  - 0.0
  - 0.0
  - 0.0
  - 0.0
  - 0.0
  - 0.0
  - 0.0
  - 0.0
  - 0.0
  - 0.0
  - 0.0
  - 0.0
twist:
  twist:
    linear:
      x: 0.0
      y: 0.0
      z: 0.0
    angular:
      x: 0.0
      y: 0.0
      z: 0.0
  covariance:
  - 0.0
  - 0.0
  - 0.0
  - 0.0
  - 0.0
  - 0.0
  - 0.0
  - 0.0
  - 0.0
  - 0.0
  - 0.0
  - 0.0
  - 0.0
  - 0.0
  - 0.0
  - 0.0
  - 0.0
  - 0.0
  - 0.0
  - 0.0
  - 0.0
  - 0.0
  - 0.0
  - 0.0
  - 0.0
  - 0.0
  - 0.0
  - 0.0
  - 0.0
  - 0.0
  - 0.0
  - 0.0
  - 0.0
  - 0.0
  - 0.0
  - 0.0
---
header:
  stamp:
    sec: 1722451212
    nanosec: 801738169
  frame_id: odom
child_frame_id: ''
pose:
  pose:
    position:
      x: -0.07465666201753351
      y: 1.518439723762212
      z: 0.0
    orientation:
      x: 0.0
      y: 0.0
      z: 0.0
      w: 1.0
  covariance:
  - 3.04801205867927e-05
  - -8.435381339862501e-07
  - 7.122984648434088e-06
  - 0.0
  - 0.0
  - 0.0
  - -8.435381339862498e-07
  - 3.654674674072048e-05
  - -9.254202383573463e-06
  - 0.0
  - 0.0
  - 0.0
  - 7.122984648434088e-06
  - -9.254202383573463e-06
  - 8.915372018236667e-05
  - 0.0
  - 0.0
  - 0.0
  - 0.0
  - 0.0
  - 0.0
  - 0.0
  - 0.0
  - 0.0
  - 0.0
  - 0.0
  - 0.0
  - 0.0
  - 0.0
  - 0.0
  - 0.0
  - 0.0
  - 0.0
  - 0.0
  - 0.0
  - 0.0
twist:
  twist:
    linear:
      x: 0.0
      y: 0.0
      z: 0.0
    angular:
      x: 0.0
      y: 0.0
      z: 0.0
  covariance:
  - 0.0
  - 0.0
  - 0.0
  - 0.0
  - 0.0
  - 0.0
  - 0.0
  - 0.0
  - 0.0
  - 0.0
  - 0.0
  - 0.0
  - 0.0
  - 0.0
  - 0.0
  - 0.0
  - 0.0
  - 0.0
  - 0.0
  - 0.0
  - 0.0
  - 0.0
  - 0.0
  - 0.0
  - 0.0
  - 0.0
  - 0.0
  - 0.0
  - 0.0
  - 0.0
  - 0.0
  - 0.0
  - 0.0
  - 0.0
  - 0.0
  - 0.0
---
header:
  stamp:
    sec: 1722451212
    nanosec: 901986128
  frame_id: odom
child_frame_id: ''
pose:
  pose:
    position:
      x: -0.07400457486366663
      y: 1.52121835819119
      z: 0.0
    orientation:
      x: 0.0
      y: 0.0
      z: 0.0
      w: 1.0
  covariance:
  - 3.051595957325195e-05
  - -8.574154346924301e-07
  - 7.1654541993285436e-06
  - 0.0
  - 0.0
  - 0.0
  - -8.574154346924299e-07
  - 3.6593471683288165e-05
  - -9.487364411481123e-06
  - 0.0
  - 0.0
  - 0.0
  - 7.1654541993285436e-06
  - -9.487364411481123e-06
  - 8.927158341975883e-05
  - 0.0
  - 0.0
  - 0.0
  - 0.0
  - 0.0
  - 0.0
  - 0.0
  - 0.0
  - 0.0
  - 0.0
  - 0.0
  - 0.0
  - 0.0
  - 0.0
  - 0.0
  - 0.0
  - 0.0
  - 0.0
  - 0.0
  - 0.0
  - 0.0
twist:
  twist:
    linear:
      x: 0.0
      y: 0.0
      z: 0.0
    angular:
      x: 0.0
      y: 0.0
      z: 0.0
  covariance:
  - 0.0
  - 0.0
  - 0.0
  - 0.0
  - 0.0
  - 0.0
  - 0.0
  - 0.0
  - 0.0
  - 0.0
  - 0.0
  - 0.0
  - 0.0
  - 0.0
  - 0.0
  - 0.0
  - 0.0
  - 0.0
  - 0.0
  - 0.0
  - 0.0
  - 0.0
  - 0.0
  - 0.0
  - 0.0
  - 0.0
  - 0.0
  - 0.0
  - 0.0
  - 0.0
  - 0.0
  - 0.0
  - 0.0
  - 0.0
  - 0.0
  - 0.0
---
header:
  stamp:
    sec: 1722451213
    nanosec: 1628400
  frame_id: odom
child_frame_id: ''
pose:
  pose:
    position:
      x: -0.0728528095162082
      y: 1.5244688509278872
      z: 0.0
    orientation:
      x: 0.0
      y: 0.0
      z: 0.0
      w: 1.0
  covariance:
  - 3.051765485115669e-05
  - -9.742090892642988e-07
  - 7.486761324865346e-06
  - 0.0
  - 0.0
  - 0.0
  - -9.742090892642986e-07
  - 3.642886771440186e-05
  - -9.513441404469394e-06
  - 0.0
  - 0.0
  - 0.0
  - 7.486761324865346e-06
  - -9.513441404469394e-06
  - 8.882904512574896e-05
  - 0.0
  - 0.0
  - 0.0
  - 0.0
  - 0.0
  - 0.0
  - 0.0
  - 0.0
  - 0.0
  - 0.0
  - 0.0
  - 0.0
  - 0.0
  - 0.0
  - 0.0
  - 0.0
  - 0.0
  - 0.0
  - 0.0
  - 0.0
  - 0.0
twist:
  twist:
    linear:
      x: 0.0
      y: 0.0
      z: 0.0
    angular:
      x: 0.0
      y: 0.0
      z: 0.0
  covariance:
  - 0.0
  - 0.0
  - 0.0
  - 0.0
  - 0.0
  - 0.0
  - 0.0
  - 0.0
  - 0.0
  - 0.0
  - 0.0
  - 0.0
  - 0.0
  - 0.0
  - 0.0
  - 0.0
  - 0.0
  - 0.0
  - 0.0
  - 0.0
  - 0.0
  - 0.0
  - 0.0
  - 0.0
  - 0.0
  - 0.0
  - 0.0
  - 0.0
  - 0.0
  - 0.0
  - 0.0
  - 0.0
  - 0.0
  - 0.0
  - 0.0
  - 0.0
---
header:
  stamp:
    sec: 1722451213
    nanosec: 101647608
  frame_id: odom
child_frame_id: ''
pose:
  pose:
    position:
      x: -0.07301965595545057
      y: 1.524093451561866
      z: 0.0
    orientation:
      x: 0.0
      y: 0.0
      z: 0.0
      w: 1.0
  covariance:
  - 3.0329429092325494e-05
  - -1.0317554283013115e-06
  - 7.64005308260912e-06
  - 0.0
  - 0.0
  - 0.0
  - -1.0317554283013115e-06
  - 3.611730066875718e-05
  - -9.38498518350504e-06
  - 0.0
  - 0.0
  - 0.0
  - 7.64005308260912e-06
  - -9.38498518350504e-06
  - 8.78613573149778e-05
  - 0.0
  - 0.0
  - 0.0
  - 0.0
  - 0.0
  - 0.0
  - 0.0
  - 0.0
  - 0.0
  - 0.0
  - 0.0
  - 0.0
  - 0.0
  - 0.0
  - 0.0
  - 0.0
  - 0.0
  - 0.0
  - 0.0
  - 0.0
  - 0.0
twist:
  twist:
    linear:
      x: 0.0
      y: 0.0
      z: 0.0
    angular:
      x: 0.0
      y: 0.0
      z: 0.0
  covariance:
  - 0.0
  - 0.0
  - 0.0
  - 0.0
  - 0.0
  - 0.0
  - 0.0
  - 0.0
  - 0.0
  - 0.0
  - 0.0
  - 0.0
  - 0.0
  - 0.0
  - 0.0
  - 0.0
  - 0.0
  - 0.0
  - 0.0
  - 0.0
  - 0.0
  - 0.0
  - 0.0
  - 0.0
  - 0.0
  - 0.0
  - 0.0
  - 0.0
  - 0.0
  - 0.0
  - 0.0
  - 0.0
  - 0.0
  - 0.0
  - 0.0
  - 0.0
---
header:
  stamp:
    sec: 1722451213
    nanosec: 201580989
  frame_id: odom
child_frame_id: ''
pose:
  pose:
    position:
      x: -0.07238775021252963
      y: 1.5231672624372818
      z: 0.0
    orientation:
      x: 0.0
      y: 0.0
      z: 0.0
      w: 1.0
  covariance:
  - 3.018874502201428e-05
  - -8.796716301847216e-07
  - 7.556387412444027e-06
  - 0.0
  - 0.0
  - 0.0
  - -8.796716301847218e-07
  - 3.6098313849225145e-05
  - -9.316072458679532e-06
  - 0.0
  - 0.0
  - 0.0
  - 7.556387412444027e-06
  - -9.316072458679532e-06
  - 8.777073526289314e-05
  - 0.0
  - 0.0
  - 0.0
  - 0.0
  - 0.0
  - 0.0
  - 0.0
  - 0.0
  - 0.0
  - 0.0
  - 0.0
  - 0.0
  - 0.0
  - 0.0
  - 0.0
  - 0.0
  - 0.0
  - 0.0
  - 0.0
  - 0.0
  - 0.0
twist:
  twist:
    linear:
      x: 0.0
      y: 0.0
      z: 0.0
    angular:
      x: 0.0
      y: 0.0
      z: 0.0
  covariance:
  - 0.0
  - 0.0
  - 0.0
  - 0.0
  - 0.0
  - 0.0
  - 0.0
  - 0.0
  - 0.0
  - 0.0
  - 0.0
  - 0.0
  - 0.0
  - 0.0
  - 0.0
  - 0.0
  - 0.0
  - 0.0
  - 0.0
  - 0.0
  - 0.0
  - 0.0
  - 0.0
  - 0.0
  - 0.0
  - 0.0
  - 0.0
  - 0.0
  - 0.0
  - 0.0
  - 0.0
  - 0.0
  - 0.0
  - 0.0
  - 0.0
  - 0.0
---
header:
  stamp:
    sec: 1722451213
    nanosec: 301591368
  frame_id: odom
child_frame_id: ''
pose:
  pose:
    position:
      x: -0.07253925974802855
      y: 1.5245558643960335
      z: 0.0
    orientation:
      x: 0.0
      y: 0.0
      z: 0.0
      w: 1.0
  covariance:
  - 3.031271176733482e-05
  - -8.206229200380013e-07
  - 7.52358189784361e-06
  - 0.0
  - 0.0
  - 0.0
  - -8.206229200380017e-07
  - 3.6164938994618735e-05
  - -9.616422998419263e-06
  - 0.0
  - 0.0
  - 0.0
  - 7.52358189784361e-06
  - -9.616422998419263e-06
  - 8.831605373416096e-05
  - 0.0
  - 0.0
  - 0.0
  - 0.0
  - 0.0
  - 0.0
  - 0.0
  - 0.0
  - 0.0
  - 0.0
  - 0.0
  - 0.0
  - 0.0
  - 0.0
  - 0.0
  - 0.0
  - 0.0
  - 0.0
  - 0.0
  - 0.0
  - 0.0
twist:
  twist:
    linear:
      x: 0.0
      y: 0.0
      z: 0.0
    angular:
      x: 0.0
      y: 0.0
      z: 0.0
  covariance:
  - 0.0
  - 0.0
  - 0.0
  - 0.0
  - 0.0
  - 0.0
  - 0.0
  - 0.0
  - 0.0
  - 0.0
  - 0.0
  - 0.0
  - 0.0
  - 0.0
  - 0.0
  - 0.0
  - 0.0
  - 0.0
  - 0.0
  - 0.0
  - 0.0
  - 0.0
  - 0.0
  - 0.0
  - 0.0
  - 0.0
  - 0.0
  - 0.0
  - 0.0
  - 0.0
  - 0.0
  - 0.0
  - 0.0
  - 0.0
  - 0.0
  - 0.0
---
header:
  stamp:
    sec: 1722451213
    nanosec: 401199582
  frame_id: odom
child_frame_id: ''
pose:
  pose:
    position:
      x: -0.07253069367581788
      y: 1.524237113656936
      z: 0.0
    orientation:
      x: 0.0
      y: 0.0
      z: 0.0
      w: 1.0
  covariance:
  - 3.0424956532642646e-05
  - -8.626436584245286e-07
  - 7.57989167256536e-06
  - 0.0
  - 0.0
  - 0.0
  - -8.626436584245289e-07
  - 3.636441990036477e-05
  - -9.792636005642403e-06
  - 0.0
  - 0.0
  - 0.0
  - 7.57989167256536e-06
  - -9.792636005642403e-06
  - 8.902781701181084e-05
  - 0.0
  - 0.0
  - 0.0
  - 0.0
  - 0.0
  - 0.0
  - 0.0
  - 0.0
  - 0.0
  - 0.0
  - 0.0
  - 0.0
  - 0.0
  - 0.0
  - 0.0
  - 0.0
  - 0.0
  - 0.0
  - 0.0
  - 0.0
  - 0.0
twist:
  twist:
    linear:
      x: 0.0
      y: 0.0
      z: 0.0
    angular:
      x: 0.0
      y: 0.0
      z: 0.0
  covariance:
  - 0.0
  - 0.0
  - 0.0
  - 0.0
  - 0.0
  - 0.0
  - 0.0
  - 0.0
  - 0.0
  - 0.0
  - 0.0
  - 0.0
  - 0.0
  - 0.0
  - 0.0
  - 0.0
  - 0.0
  - 0.0
  - 0.0
  - 0.0
  - 0.0
  - 0.0
  - 0.0
  - 0.0
  - 0.0
  - 0.0
  - 0.0
  - 0.0
  - 0.0
  - 0.0
  - 0.0
  - 0.0
  - 0.0
  - 0.0
  - 0.0
  - 0.0
---
header:
  stamp:
    sec: 1722451213
    nanosec: 501593764
  frame_id: odom
child_frame_id: ''
pose:
  pose:
    position:
      x: -0.07236316772034201
      y: 1.5233145259567478
      z: 0.0
    orientation:
      x: 0.0
      y: 0.0
      z: 0.0
      w: 1.0
  covariance:
  - 3.0407775341788428e-05
  - -8.310729870961028e-07
  - 7.5502059698382485e-06
  - 0.0
  - 0.0
  - 0.0
  - -8.31072987096103e-07
  - 3.641145252632058e-05
  - -9.502286002184958e-06
  - 0.0
  - 0.0
  - 0.0
  - 7.5502059698382485e-06
  - -9.502286002184958e-06
  - 8.925746806198731e-05
  - 0.0
  - 0.0
  - 0.0
  - 0.0
  - 0.0
  - 0.0
  - 0.0
  - 0.0
  - 0.0
  - 0.0
  - 0.0
  - 0.0
  - 0.0
  - 0.0
  - 0.0
  - 0.0
  - 0.0
  - 0.0
  - 0.0
  - 0.0
  - 0.0
twist:
  twist:
    linear:
      x: 0.0
      y: 0.0
      z: 0.0
    angular:
      x: 0.0
      y: 0.0
      z: 0.0
  covariance:
  - 0.0
  - 0.0
  - 0.0
  - 0.0
  - 0.0
  - 0.0
  - 0.0
  - 0.0
  - 0.0
  - 0.0
  - 0.0
  - 0.0
  - 0.0
  - 0.0
  - 0.0
  - 0.0
  - 0.0
  - 0.0
  - 0.0
  - 0.0
  - 0.0
  - 0.0
  - 0.0
  - 0.0
  - 0.0
  - 0.0
  - 0.0
  - 0.0
  - 0.0
  - 0.0
  - 0.0
  - 0.0
  - 0.0
  - 0.0
  - 0.0
  - 0.0
---
header:
  stamp:
    sec: 1722451213
    nanosec: 601634177
  frame_id: odom
child_frame_id: ''
pose:
  pose:
    position:
      x: -0.07318577235420975
      y: 1.5228858931236842
      z: 0.0
    orientation:
      x: 0.0
      y: 0.0
      z: 0.0
      w: 1.0
  covariance:
  - 3.0503398627682217e-05
  - -8.285434539736417e-07
  - 7.36734884756459e-06
  - 0.0
  - 0.0
  - 0.0
  - -8.285434539736415e-07
  - 3.652808165695834e-05
  - -9.325694772670466e-06
  - 0.0
  - 0.0
  - 0.0
  - 7.36734884756459e-06
  - -9.325694772670466e-06
  - 8.97195641300641e-05
  - 0.0
  - 0.0
  - 0.0
  - 0.0
  - 0.0
  - 0.0
  - 0.0
  - 0.0
  - 0.0
  - 0.0
  - 0.0
  - 0.0
  - 0.0
  - 0.0
  - 0.0
  - 0.0
  - 0.0
  - 0.0
  - 0.0
  - 0.0
  - 0.0
twist:
  twist:
    linear:
      x: 0.0
      y: 0.0
      z: 0.0
    angular:
      x: 0.0
      y: 0.0
      z: 0.0
  covariance:
  - 0.0
  - 0.0
  - 0.0
  - 0.0
  - 0.0
  - 0.0
  - 0.0
  - 0.0
  - 0.0
  - 0.0
  - 0.0
  - 0.0
  - 0.0
  - 0.0
  - 0.0
  - 0.0
  - 0.0
  - 0.0
  - 0.0
  - 0.0
  - 0.0
  - 0.0
  - 0.0
  - 0.0
  - 0.0
  - 0.0
  - 0.0
  - 0.0
  - 0.0
  - 0.0
  - 0.0
  - 0.0
  - 0.0
  - 0.0
  - 0.0
  - 0.0
---
header:
  stamp:
    sec: 1722451213
    nanosec: 701162163
  frame_id: odom
child_frame_id: ''
pose:
  pose:
    position:
      x: -0.07650640520589236
      y: 1.5234409446143486
      z: 0.0
    orientation:
      x: 0.0
      y: 0.0
      z: 0.0
      w: 1.0
  covariance:
  - 3.064375181529579e-05
  - -7.957640818776277e-07
  - 7.396797531472912e-06
  - 0.0
  - 0.0
  - 0.0
  - -7.957640818776277e-07
  - 3.6629293900114475e-05
  - -9.356552403012975e-06
  - 0.0
  - 0.0
  - 0.0
  - 7.396797531472912e-06
  - -9.356552403012975e-06
  - 9.003149170894176e-05
  - 0.0
  - 0.0
  - 0.0
  - 0.0
  - 0.0
  - 0.0
  - 0.0
  - 0.0
  - 0.0
  - 0.0
  - 0.0
  - 0.0
  - 0.0
  - 0.0
  - 0.0
  - 0.0
  - 0.0
  - 0.0
  - 0.0
  - 0.0
  - 0.0
twist:
  twist:
    linear:
      x: 0.0
      y: 0.0
      z: 0.0
    angular:
      x: 0.0
      y: 0.0
      z: 0.0
  covariance:
  - 0.0
  - 0.0
  - 0.0
  - 0.0
  - 0.0
  - 0.0
  - 0.0
  - 0.0
  - 0.0
  - 0.0
  - 0.0
  - 0.0
  - 0.0
  - 0.0
  - 0.0
  - 0.0
  - 0.0
  - 0.0
  - 0.0
  - 0.0
  - 0.0
  - 0.0
  - 0.0
  - 0.0
  - 0.0
  - 0.0
  - 0.0
  - 0.0
  - 0.0
  - 0.0
  - 0.0
  - 0.0
  - 0.0
  - 0.0
  - 0.0
  - 0.0
---
header:
  stamp:
    sec: 1722451213
    nanosec: 801637292
  frame_id: odom
child_frame_id: ''
pose:
  pose:
    position:
      x: -0.09607455688385103
      y: 1.5247901618727424
      z: 0.0
    orientation:
      x: 0.0
      y: 0.0
      z: 0.0
      w: 1.0
  covariance:
  - 2.7598626592127233e-05
  - -7.573330443589968e-07
  - 6.808982237627008e-06
  - 0.0
  - 0.0
  - 0.0
  - -7.573330443589969e-07
  - 3.317958467169608e-05
  - -7.567703366850832e-06
  - 0.0
  - 0.0
  - 0.0
  - 6.808982237627008e-06
  - -7.567703366850832e-06
  - 7.972142338985577e-05
  - 0.0
  - 0.0
  - 0.0
  - 0.0
  - 0.0
  - 0.0
  - 0.0
  - 0.0
  - 0.0
  - 0.0
  - 0.0
  - 0.0
  - 0.0
  - 0.0
  - 0.0
  - 0.0
  - 0.0
  - 0.0
  - 0.0
  - 0.0
  - 0.0
twist:
  twist:
    linear:
      x: 0.0
      y: 0.0
      z: 0.0
    angular:
      x: 0.0
      y: 0.0
      z: 0.0
  covariance:
  - 0.0
  - 0.0
  - 0.0
  - 0.0
  - 0.0
  - 0.0
  - 0.0
  - 0.0
  - 0.0
  - 0.0
  - 0.0
  - 0.0
  - 0.0
  - 0.0
  - 0.0
  - 0.0
  - 0.0
  - 0.0
  - 0.0
  - 0.0
  - 0.0
  - 0.0
  - 0.0
  - 0.0
  - 0.0
  - 0.0
  - 0.0
  - 0.0
  - 0.0
  - 0.0
  - 0.0
  - 0.0
  - 0.0
  - 0.0
  - 0.0
  - 0.0
---
header:
  stamp:
    sec: 1722451213
    nanosec: 901748365
  frame_id: odom
child_frame_id: ''
pose:
  pose:
    position:
      x: -0.13530626376015875
      y: 1.5239255899810173
      z: 0.0
    orientation:
      x: 0.0
      y: 0.0
      z: 0.0
      w: 1.0
  covariance:
  - 2.920802719803419e-05
  - -6.915873867089833e-07
  - 6.971858464502486e-06
  - 0.0
  - 0.0
  - 0.0
  - -6.915873867089832e-07
  - 3.5271671068916244e-05
  - -8.422987792862493e-06
  - 0.0
  - 0.0
  - 0.0
  - 6.971858464502486e-06
  - -8.422987792862493e-06
  - 8.502152195433155e-05
  - 0.0
  - 0.0
  - 0.0
  - 0.0
  - 0.0
  - 0.0
  - 0.0
  - 0.0
  - 0.0
  - 0.0
  - 0.0
  - 0.0
  - 0.0
  - 0.0
  - 0.0
  - 0.0
  - 0.0
  - 0.0
  - 0.0
  - 0.0
  - 0.0
twist:
  twist:
    linear:
      x: 0.0
      y: 0.0
      z: 0.0
    angular:
      x: 0.0
      y: 0.0
      z: 0.0
  covariance:
  - 0.0
  - 0.0
  - 0.0
  - 0.0
  - 0.0
  - 0.0
  - 0.0
  - 0.0
  - 0.0
  - 0.0
  - 0.0
  - 0.0
  - 0.0
  - 0.0
  - 0.0
  - 0.0
  - 0.0
  - 0.0
  - 0.0
  - 0.0
  - 0.0
  - 0.0
  - 0.0
  - 0.0
  - 0.0
  - 0.0
  - 0.0
  - 0.0
  - 0.0
  - 0.0
  - 0.0
  - 0.0
  - 0.0
  - 0.0
  - 0.0
  - 0.0
---
header:
  stamp:
    sec: 1722451214
    nanosec: 1719448
  frame_id: odom
child_frame_id: ''
pose:
  pose:
    position:
      x: -0.180912958875725
      y: 1.523585144082544
      z: 0.0
    orientation:
      x: 0.0
      y: 0.0
      z: 0.0
      w: 1.0
  covariance:
  - 3.0353547954232375e-05
  - -8.871740089804829e-07
  - 7.692940027474735e-06
  - 0.0
  - 0.0
  - 0.0
  - -8.871740089804835e-07
  - 3.635425589897302e-05
  - -8.724535239159458e-06
  - 0.0
  - 0.0
  - 0.0
  - 7.692940027474735e-06
  - -8.724535239159458e-06
  - 8.807872654870152e-05
  - 0.0
  - 0.0
  - 0.0
  - 0.0
  - 0.0
  - 0.0
  - 0.0
  - 0.0
  - 0.0
  - 0.0
  - 0.0
  - 0.0
  - 0.0
  - 0.0
  - 0.0
  - 0.0
  - 0.0
  - 0.0
  - 0.0
  - 0.0
  - 0.0
twist:
  twist:
    linear:
      x: 0.0
      y: 0.0
      z: 0.0
    angular:
      x: 0.0
      y: 0.0
      z: 0.0
  covariance:
  - 0.0
  - 0.0
  - 0.0
  - 0.0
  - 0.0
  - 0.0
  - 0.0
  - 0.0
  - 0.0
  - 0.0
  - 0.0
  - 0.0
  - 0.0
  - 0.0
  - 0.0
  - 0.0
  - 0.0
  - 0.0
  - 0.0
